time,.header.seq,.header.stamp.secs,.header.stamp.nsecs,.header.frame_id,.child_frame_id,.pose.pose.position.x,.pose.pose.position.y,.pose.pose.position.z,.pose.pose.orientation.x,.pose.pose.orientation.y,.pose.pose.orientation.z,.pose.pose.orientation.w,.pose.covariance,.twist.twist.linear.x,.twist.twist.linear.y,.twist.twist.linear.z,.twist.twist.angular.x,.twist.twist.angular.y,.twist.twist.angular.z,.twist.covariance
2018/07/18/15:56:50.885663,998,1531943810,884418155,map,base_link,-111.645811304,50.3962563716,35.605,0.430355280624,0.0100020537959,-0.00634773302409,-0.902581850939,"(0.4356000346183784, 0.0, 0.0, 0.0, 0.0, 0.0, 0.0, 0.4356000346183784, 0.0, 0.0, 0.0, 0.0, 0.0, 0.0, 1.7424001384735135, 0.0, 0.0, 0.0, 0.0, 0.0, 0.0, 99999.0, 0.0, 0.0, 0.0, 0.0, 0.0, 0.0, 99999.0, 0.0, 0.0, 0.0, 0.0, 0.0, 0.0, 99999.0)",-0.39,19.49,0.04,0.0,0.0,0.0,"(-1.0, 0.0, 0.0, 0.0, 0.0, 0.0, 0.0, 0.0, 0.0, 0.0, 0.0, 0.0, 0.0, 0.0, 0.0, 0.0, 0.0, 0.0, 0.0, 0.0, 0.0, 0.0, 0.0, 0.0, 0.0, 0.0, 0.0, 0.0, 0.0, 0.0, 0.0, 0.0, 0.0, 0.0, 0.0, 0.0)"
2018/07/18/15:56:51.114672,999,1531943811,112639880,map,base_link,-107.243643616,50.5183510675,35.869,0.192815652867,0.0357816614945,-0.0586542927737,-0.978826578434,"(0.4356000346183784, 0.0, 0.0, 0.0, 0.0, 0.0, 0.0, 0.4356000346183784, 0.0, 0.0, 0.0, 0.0, 0.0, 0.0, 1.7424001384735135, 0.0, 0.0, 0.0, 0.0, 0.0, 0.0, 99999.0, 0.0, 0.0, 0.0, 0.0, 0.0, 0.0, 99999.0, 0.0, 0.0, 0.0, 0.0, 0.0, 0.0, 99999.0)",0.62,19.26,-1.0,0.0,0.0,0.0,"(-1.0, 0.0, 0.0, 0.0, 0.0, 0.0, 0.0, 0.0, 0.0, 0.0, 0.0, 0.0, 0.0, 0.0, 0.0, 0.0, 0.0, 0.0, 0.0, 0.0, 0.0, 0.0, 0.0, 0.0, 0.0, 0.0, 0.0, 0.0, 0.0, 0.0, 0.0, 0.0, 0.0, 0.0, 0.0, 0.0)"
2018/07/18/15:56:51.369291,1000,1531943811,368075341,map,base_link,-102.833014969,50.6071348639,36.408,0.192815652867,0.0357816614945,-0.0586542927737,-0.978826578434,"(0.39689999399185183, 0.0, 0.0, 0.0, 0.0, 0.0, 0.0, 0.39689999399185183, 0.0, 0.0, 0.0, 0.0, 0.0, 0.0, 1.5875999759674073, 0.0, 0.0, 0.0, 0.0, 0.0, 0.0, 99999.0, 0.0, 0.0, 0.0, 0.0, 0.0, 0.0, 99999.0, 0.0, 0.0, 0.0, 0.0, 0.0, 0.0, 99999.0)",0.36,18.87,-1.83,0.0,0.0,0.0,"(-1.0, 0.0, 0.0, 0.0, 0.0, 0.0, 0.0, 0.0, 0.0, 0.0, 0.0, 0.0, 0.0, 0.0, 0.0, 0.0, 0.0, 0.0, 0.0, 0.0, 0.0, 0.0, 0.0, 0.0, 0.0, 0.0, 0.0, 0.0, 0.0, 0.0, 0.0, 0.0, 0.0, 0.0, 0.0, 0.0)"
2018/07/18/15:56:51.635826,1001,1531943811,634012524,map,base_link,-97.8297936802,50.4404960829,37.247,-0.115040466481,0.0463108334785,-0.108915435493,-0.986285164486,"(0.39689999399185183, 0.0, 0.0, 0.0, 0.0, 0.0, 0.0, 0.39689999399185183, 0.0, 0.0, 0.0, 0.0, 0.0, 0.0, 1.5875999759674073, 0.0, 0.0, 0.0, 0.0, 0.0, 0.0, 99999.0, 0.0, 0.0, 0.0, 0.0, 0.0, 0.0, 99999.0, 0.0, 0.0, 0.0, 0.0, 0.0, 0.0, 99999.0)",-0.09,18.1,-2.72,0.0,0.0,0.0,"(-1.0, 0.0, 0.0, 0.0, 0.0, 0.0, 0.0, 0.0, 0.0, 0.0, 0.0, 0.0, 0.0, 0.0, 0.0, 0.0, 0.0, 0.0, 0.0, 0.0, 0.0, 0.0, 0.0, 0.0, 0.0, 0.0, 0.0, 0.0, 0.0, 0.0, 0.0, 0.0, 0.0, 0.0, 0.0, 0.0)"
2018/07/18/15:56:51.883607,1002,1531943811,882505033,map,base_link,-93.6731425728,50.3071871527,38.126,0.0893909549218,0.0853818927019,-0.110568628532,-0.986150986392,"(0.39689999399185183, 0.0, 0.0, 0.0, 0.0, 0.0, 0.0, 0.39689999399185183, 0.0, 0.0, 0.0, 0.0, 0.0, 0.0, 1.5875999759674073, 0.0, 0.0, 0.0, 0.0, 0.0, 0.0, 99999.0, 0.0, 0.0, 0.0, 0.0, 0.0, 0.0, 99999.0, 0.0, 0.0, 0.0, 0.0, 0.0, 0.0, 99999.0)",0.39,17.38,-3.12,0.0,0.0,0.0,"(-1.0, 0.0, 0.0, 0.0, 0.0, 0.0, 0.0, 0.0, 0.0, 0.0, 0.0, 0.0, 0.0, 0.0, 0.0, 0.0, 0.0, 0.0, 0.0, 0.0, 0.0, 0.0, 0.0, 0.0, 0.0, 0.0, 0.0, 0.0, 0.0, 0.0, 0.0, 0.0, 0.0, 0.0, 0.0, 0.0)"
2018/07/18/15:56:52.110608,1003,1531943812,109279103,map,base_link,-89.6265416792,50.3959859735,38.993,0.222648565727,0.0928291957041,-0.0904932205825,-0.966240825899,"(0.39689999399185183, 0.0, 0.0, 0.0, 0.0, 0.0, 0.0, 0.39689999399185183, 0.0, 0.0, 0.0, 0.0, 0.0, 0.0, 1.5875999759674073, 0.0, 0.0, 0.0, 0.0, 0.0, 0.0, 99999.0, 0.0, 0.0, 0.0, 0.0, 0.0, 0.0, 99999.0, 0.0, 0.0, 0.0, 0.0, 0.0, 0.0, 99999.0)",1.29,16.89,-3.03,0.0,0.0,0.0,"(-1.0, 0.0, 0.0, 0.0, 0.0, 0.0, 0.0, 0.0, 0.0, 0.0, 0.0, 0.0, 0.0, 0.0, 0.0, 0.0, 0.0, 0.0, 0.0, 0.0, 0.0, 0.0, 0.0, 0.0, 0.0, 0.0, 0.0, 0.0, 0.0, 0.0, 0.0, 0.0, 0.0, 0.0, 0.0, 0.0)"
2018/07/18/15:56:52.391684,1004,1531943812,390208837,map,base_link,-85.6137969353,50.7957320876,39.708,0.222648565727,0.0928291957041,-0.0904932205825,-0.966240825899,"(0.4356000346183784, 0.0, 0.0, 0.0, 0.0, 0.0, 0.0, 0.4356000346183784, 0.0, 0.0, 0.0, 0.0, 0.0, 0.0, 1.7424001384735135, 0.0, 0.0, 0.0, 0.0, 0.0, 0.0, 99999.0, 0.0, 0.0, 0.0, 0.0, 0.0, 0.0, 99999.0, 0.0, 0.0, 0.0, 0.0, 0.0, 0.0, 99999.0)",2.33,16.71,-2.49,0.0,0.0,0.0,"(-1.0, 0.0, 0.0, 0.0, 0.0, 0.0, 0.0, 0.0, 0.0, 0.0, 0.0, 0.0, 0.0, 0.0, 0.0, 0.0, 0.0, 0.0, 0.0, 0.0, 0.0, 0.0, 0.0, 0.0, 0.0, 0.0, 0.0, 0.0, 0.0, 0.0, 0.0, 0.0, 0.0, 0.0, 0.0, 0.0)"
2018/07/18/15:56:52.625448,1005,1531943812,622984241,map,base_link,-81.3132104134,51.5730527935,40.191,0.297462736201,0.099476162262,-0.109967832473,-0.943147649912,"(0.3721000174522402, 0.0, 0.0, 0.0, 0.0, 0.0, 0.0, 0.3721000174522402, 0.0, 0.0, 0.0, 0.0, 0.0, 0.0, 1.4884000698089608, 0.0, 0.0, 0.0, 0.0, 0.0, 0.0, 99999.0, 0.0, 0.0, 0.0, 0.0, 0.0, 0.0, 99999.0, 0.0, 0.0, 0.0, 0.0, 0.0, 0.0, 99999.0)",3.7,16.21,-1.81,0.0,0.0,0.0,"(-1.0, 0.0, 0.0, 0.0, 0.0, 0.0, 0.0, 0.0, 0.0, 0.0, 0.0, 0.0, 0.0, 0.0, 0.0, 0.0, 0.0, 0.0, 0.0, 0.0, 0.0, 0.0, 0.0, 0.0, 0.0, 0.0, 0.0, 0.0, 0.0, 0.0, 0.0, 0.0, 0.0, 0.0, 0.0, 0.0)"
2018/07/18/15:56:52.863221,1006,1531943812,860496001,map,base_link,-77.4359044426,52.6946408059,40.521,0.352863325419,0.136949070677,-0.177656852116,-0.908388941209,"(0.3721000174522402, 0.0, 0.0, 0.0, 0.0, 0.0, 0.0, 0.3721000174522402, 0.0, 0.0, 0.0, 0.0, 0.0, 0.0, 1.4884000698089608, 0.0, 0.0, 0.0, 0.0, 0.0, 0.0, 99999.0, 0.0, 0.0, 0.0, 0.0, 0.0, 0.0, 99999.0, 0.0, 0.0, 0.0, 0.0, 0.0, 0.0, 99999.0)",5.48,15.55,-1.49,0.0,0.0,0.0,"(-1.0, 0.0, 0.0, 0.0, 0.0, 0.0, 0.0, 0.0, 0.0, 0.0, 0.0, 0.0, 0.0, 0.0, 0.0, 0.0, 0.0, 0.0, 0.0, 0.0, 0.0, 0.0, 0.0, 0.0, 0.0, 0.0, 0.0, 0.0, 0.0, 0.0, 0.0, 0.0, 0.0, 0.0, 0.0, 0.0)"
2018/07/18/15:56:53.108394,1007,1531943813,107751800,map,base_link,-73.7448393419,54.3270722418,40.803,0.352863325419,0.136949070677,-0.177656852116,-0.908388941209,"(0.3721000174522402, 0.0, 0.0, 0.0, 0.0, 0.0, 0.0, 0.3721000174522402, 0.0, 0.0, 0.0, 0.0, 0.0, 0.0, 1.4884000698089608, 0.0, 0.0, 0.0, 0.0, 0.0, 0.0, 99999.0, 0.0, 0.0, 0.0, 0.0, 0.0, 0.0, 99999.0, 0.0, 0.0, 0.0, 0.0, 0.0, 0.0, 99999.0)",7.8,14.64,-1.58,0.0,0.0,0.0,"(-1.0, 0.0, 0.0, 0.0, 0.0, 0.0, 0.0, 0.0, 0.0, 0.0, 0.0, 0.0, 0.0, 0.0, 0.0, 0.0, 0.0, 0.0, 0.0, 0.0, 0.0, 0.0, 0.0, 0.0, 0.0, 0.0, 0.0, 0.0, 0.0, 0.0, 0.0, 0.0, 0.0, 0.0, 0.0, 0.0)"
2018/07/18/15:56:53.388589,1008,1531943813,387689876,map,base_link,-69.7913291095,57.0367096848,41.151,0.374671410681,0.217356371889,-0.299898862849,-0.849963654328,"(0.3721000174522402, 0.0, 0.0, 0.0, 0.0, 0.0, 0.0, 0.3721000174522402, 0.0, 0.0, 0.0, 0.0, 0.0, 0.0, 1.4884000698089608, 0.0, 0.0, 0.0, 0.0, 0.0, 0.0, 99999.0, 0.0, 0.0, 0.0, 0.0, 0.0, 0.0, 99999.0, 0.0, 0.0, 0.0, 0.0, 0.0, 0.0, 99999.0)",10.91,12.74,-1.86,0.0,0.0,0.0,"(-1.0, 0.0, 0.0, 0.0, 0.0, 0.0, 0.0, 0.0, 0.0, 0.0, 0.0, 0.0, 0.0, 0.0, 0.0, 0.0, 0.0, 0.0, 0.0, 0.0, 0.0, 0.0, 0.0, 0.0, 0.0, 0.0, 0.0, 0.0, 0.0, 0.0, 0.0, 0.0, 0.0, 0.0, 0.0, 0.0)"
2018/07/18/15:56:53.609833,1009,1531943813,608992153,map,base_link,-66.8452374297,60.0906200054,41.483,0.374671410681,0.217356371889,-0.299898862849,-0.849963654328,"(0.3721000174522402, 0.0, 0.0, 0.0, 0.0, 0.0, 0.0, 0.3721000174522402, 0.0, 0.0, 0.0, 0.0, 0.0, 0.0, 1.4884000698089608, 0.0, 0.0, 0.0, 0.0, 0.0, 0.0, 99999.0, 0.0, 0.0, 0.0, 0.0, 0.0, 0.0, 99999.0, 0.0, 0.0, 0.0, 0.0, 0.0, 0.0, 99999.0)",13.35,10.6,-2.15,0.0,0.0,0.0,"(-1.0, 0.0, 0.0, 0.0, 0.0, 0.0, 0.0, 0.0, 0.0, 0.0, 0.0, 0.0, 0.0, 0.0, 0.0, 0.0, 0.0, 0.0, 0.0, 0.0, 0.0, 0.0, 0.0, 0.0, 0.0, 0.0, 0.0, 0.0, 0.0, 0.0, 0.0, 0.0, 0.0, 0.0, 0.0, 0.0)"
2018/07/18/15:56:53.895060,1010,1531943813,893765239,map,base_link,-64.144644616,64.3438989304,41.976,0.350326033984,0.275605336072,-0.383530294025,-0.808837364497,"(0.3721000174522402, 0.0, 0.0, 0.0, 0.0, 0.0, 0.0, 0.3721000174522402, 0.0, 0.0, 0.0, 0.0, 0.0, 0.0, 1.4884000698089608, 0.0, 0.0, 0.0, 0.0, 0.0, 0.0, 99999.0, 0.0, 0.0, 0.0, 0.0, 0.0, 0.0, 99999.0, 0.0, 0.0, 0.0, 0.0, 0.0, 0.0, 99999.0)",15.6,7.65,-2.33,0.0,0.0,0.0,"(-1.0, 0.0, 0.0, 0.0, 0.0, 0.0, 0.0, 0.0, 0.0, 0.0, 0.0, 0.0, 0.0, 0.0, 0.0, 0.0, 0.0, 0.0, 0.0, 0.0, 0.0, 0.0, 0.0, 0.0, 0.0, 0.0, 0.0, 0.0, 0.0, 0.0, 0.0, 0.0, 0.0, 0.0, 0.0, 0.0)"
2018/07/18/15:56:54.120477,1011,1531943814,118171095,map,base_link,-62.7393132328,67.6865612822,42.358,0.328264529387,0.322558127562,-0.472648891994,-0.751532885499,"(0.3721000174522402, 0.0, 0.0, 0.0, 0.0, 0.0, 0.0, 0.3721000174522402, 0.0, 0.0, 0.0, 0.0, 0.0, 0.0, 1.4884000698089608, 0.0, 0.0, 0.0, 0.0, 0.0, 0.0, 99999.0, 0.0, 0.0, 0.0, 0.0, 0.0, 0.0, 99999.0, 0.0, 0.0, 0.0, 0.0, 0.0, 0.0, 99999.0)",16.85,5.19,-2.41,0.0,0.0,0.0,"(-1.0, 0.0, 0.0, 0.0, 0.0, 0.0, 0.0, 0.0, 0.0, 0.0, 0.0, 0.0, 0.0, 0.0, 0.0, 0.0, 0.0, 0.0, 0.0, 0.0, 0.0, 0.0, 0.0, 0.0, 0.0, 0.0, 0.0, 0.0, 0.0, 0.0, 0.0, 0.0, 0.0, 0.0, 0.0, 0.0)"
2018/07/18/15:56:54.359550,1012,1531943814,358612015,map,base_link,-61.6387385147,72.3840653902,42.903,0.288277570057,0.367327244058,-0.551564230681,-0.691190015703,"(0.3721000174522402, 0.0, 0.0, 0.0, 0.0, 0.0, 0.0, 0.3721000174522402, 0.0, 0.0, 0.0, 0.0, 0.0, 0.0, 1.4884000698089608, 0.0, 0.0, 0.0, 0.0, 0.0, 0.0, 99999.0, 0.0, 0.0, 0.0, 0.0, 0.0, 0.0, 99999.0, 0.0, 0.0, 0.0, 0.0, 0.0, 0.0, 99999.0)",17.79,1.72,-2.54,0.0,0.0,0.0,"(-1.0, 0.0, 0.0, 0.0, 0.0, 0.0, 0.0, 0.0, 0.0, 0.0, 0.0, 0.0, 0.0, 0.0, 0.0, 0.0, 0.0, 0.0, 0.0, 0.0, 0.0, 0.0, 0.0, 0.0, 0.0, 0.0, 0.0, 0.0, 0.0, 0.0, 0.0, 0.0, 0.0, 0.0, 0.0, 0.0)"
2018/07/18/15:56:54.605949,1013,1531943814,604922781,map,base_link,-61.4778592332,76.8483691905,43.503,0.288277570057,0.367327244058,-0.551564230681,-0.691190015703,"(0.3721000174522402, 0.0, 0.0, 0.0, 0.0, 0.0, 0.0, 0.3721000174522402, 0.0, 0.0, 0.0, 0.0, 0.0, 0.0, 1.4884000698089608, 0.0, 0.0, 0.0, 0.0, 0.0, 0.0, 99999.0, 0.0, 0.0, 0.0, 0.0, 0.0, 0.0, 99999.0, 0.0, 0.0, 0.0, 0.0, 0.0, 0.0, 99999.0)",17.98,-1.99,-2.95,0.0,0.0,0.0,"(-1.0, 0.0, 0.0, 0.0, 0.0, 0.0, 0.0, 0.0, 0.0, 0.0, 0.0, 0.0, 0.0, 0.0, 0.0, 0.0, 0.0, 0.0, 0.0, 0.0, 0.0, 0.0, 0.0, 0.0, 0.0, 0.0, 0.0, 0.0, 0.0, 0.0, 0.0, 0.0, 0.0, 0.0, 0.0, 0.0)"
2018/07/18/15:56:54.857349,1014,1531943814,856207019,map,base_link,-62.3497936153,81.5903153904,44.295,0.226108829297,0.40992685242,-0.650250186156,-0.598338924342,"(0.3721000174522402, 0.0, 0.0, 0.0, 0.0, 0.0, 0.0, 0.3721000174522402, 0.0, 0.0, 0.0, 0.0, 0.0, 0.0, 1.4884000698089608, 0.0, 0.0, 0.0, 0.0, 0.0, 0.0, 99999.0, 0.0, 0.0, 0.0, 0.0, 0.0, 0.0, 99999.0, 0.0, 0.0, 0.0, 0.0, 0.0, 0.0, 99999.0)",17.38,-5.75,-3.26,0.0,0.0,0.0,"(-1.0, 0.0, 0.0, 0.0, 0.0, 0.0, 0.0, 0.0, 0.0, 0.0, 0.0, 0.0, 0.0, 0.0, 0.0, 0.0, 0.0, 0.0, 0.0, 0.0, 0.0, 0.0, 0.0, 0.0, 0.0, 0.0, 0.0, 0.0, 0.0, 0.0, 0.0, 0.0, 0.0, 0.0, 0.0, 0.0)"
2018/07/18/15:56:55.106344,1015,1531943815,102901142,map,base_link,-63.9243842069,85.7325871456,45.106,0.162997675495,0.416341107835,-0.721099750799,-0.529251347762,"(0.3721000174522402, 0.0, 0.0, 0.0, 0.0, 0.0, 0.0, 0.3721000174522402, 0.0, 0.0, 0.0, 0.0, 0.0, 0.0, 1.4884000698089608, 0.0, 0.0, 0.0, 0.0, 0.0, 0.0, 99999.0, 0.0, 0.0, 0.0, 0.0, 0.0, 0.0, 99999.0, 0.0, 0.0, 0.0, 0.0, 0.0, 0.0, 99999.0)",16.08,-8.72,-3.45,0.0,0.0,0.0,"(-1.0, 0.0, 0.0, 0.0, 0.0, 0.0, 0.0, 0.0, 0.0, 0.0, 0.0, 0.0, 0.0, 0.0, 0.0, 0.0, 0.0, 0.0, 0.0, 0.0, 0.0, 0.0, 0.0, 0.0, 0.0, 0.0, 0.0, 0.0, 0.0, 0.0, 0.0, 0.0, 0.0, 0.0, 0.0, 0.0)"
2018/07/18/15:56:55.376607,1016,1531943815,375462174,map,base_link,-66.5656512071,90.0636635268,46.265,0.162997675495,0.416341107835,-0.721099750799,-0.529251347762,"(0.3721000174522402, 0.0, 0.0, 0.0, 0.0, 0.0, 0.0, 0.3721000174522402, 0.0, 0.0, 0.0, 0.0, 0.0, 0.0, 1.4884000698089608, 0.0, 0.0, 0.0, 0.0, 0.0, 0.0, 99999.0, 0.0, 0.0, 0.0, 0.0, 0.0, 0.0, 99999.0, 0.0, 0.0, 0.0, 0.0, 0.0, 0.0, 99999.0)",13.63,-11.65,-4.23,0.0,0.0,0.0,"(-1.0, 0.0, 0.0, 0.0, 0.0, 0.0, 0.0, 0.0, 0.0, 0.0, 0.0, 0.0, 0.0, 0.0, 0.0, 0.0, 0.0, 0.0, 0.0, 0.0, 0.0, 0.0, 0.0, 0.0, 0.0, 0.0, 0.0, 0.0, 0.0, 0.0, 0.0, 0.0, 0.0, 0.0, 0.0, 0.0)"
2018/07/18/15:56:55.637348,1017,1531943815,633082467,map,base_link,-69.3423790816,93.2064859039,47.52,0.0330060528884,0.385235395776,-0.816158322496,-0.429406430941,"(0.3480999690532691, 0.0, 0.0, 0.0, 0.0, 0.0, 0.0, 0.3480999690532691, 0.0, 0.0, 0.0, 0.0, 0.0, 0.0, 1.3923998762130765, 0.0, 0.0, 0.0, 0.0, 0.0, 0.0, 99999.0, 0.0, 0.0, 0.0, 0.0, 0.0, 0.0, 99999.0, 0.0, 0.0, 0.0, 0.0, 0.0, 0.0, 99999.0)",11.45,-13.08,-4.72,0.0,0.0,0.0,"(-1.0, 0.0, 0.0, 0.0, 0.0, 0.0, 0.0, 0.0, 0.0, 0.0, 0.0, 0.0, 0.0, 0.0, 0.0, 0.0, 0.0, 0.0, 0.0, 0.0, 0.0, 0.0, 0.0, 0.0, 0.0, 0.0, 0.0, 0.0, 0.0, 0.0, 0.0, 0.0, 0.0, 0.0, 0.0, 0.0)"
2018/07/18/15:56:55.872215,1018,1531943815,871283453,map,base_link,-72.584723522,96.0938989009,49.055,0.0330060528884,0.385235395776,-0.816158322496,-0.429406430941,"(0.3721000174522402, 0.0, 0.0, 0.0, 0.0, 0.0, 0.0, 0.3721000174522402, 0.0, 0.0, 0.0, 0.0, 0.0, 0.0, 1.4884000698089608, 0.0, 0.0, 0.0, 0.0, 0.0, 0.0, 99999.0, 0.0, 0.0, 0.0, 0.0, 0.0, 0.0, 99999.0, 0.0, 0.0, 0.0, 0.0, 0.0, 0.0, 99999.0)",9.58,-13.65,-5.0,0.0,0.0,0.0,"(-1.0, 0.0, 0.0, 0.0, 0.0, 0.0, 0.0, 0.0, 0.0, 0.0, 0.0, 0.0, 0.0, 0.0, 0.0, 0.0, 0.0, 0.0, 0.0, 0.0, 0.0, 0.0, 0.0, 0.0, 0.0, 0.0, 0.0, 0.0, 0.0, 0.0, 0.0, 0.0, 0.0, 0.0, 0.0, 0.0)"
2018/07/18/15:56:56.102097,1019,1531943816,100951463,map,base_link,-75.3360631526,98.2483617656,50.414,-0.0612180059232,0.252949559137,-0.893310599603,-0.366421954745,"(0.3480999690532691, 0.0, 0.0, 0.0, 0.0, 0.0, 0.0, 0.3480999690532691, 0.0, 0.0, 0.0, 0.0, 0.0, 0.0, 1.3923998762130765, 0.0, 0.0, 0.0, 0.0, 0.0, 0.0, 99999.0, 0.0, 0.0, 0.0, 0.0, 0.0, 0.0, 99999.0, 0.0, 0.0, 0.0, 0.0, 0.0, 0.0, 99999.0)",8.56,-13.48,-5.14,0.0,0.0,0.0,"(-1.0, 0.0, 0.0, 0.0, 0.0, 0.0, 0.0, 0.0, 0.0, 0.0, 0.0, 0.0, 0.0, 0.0, 0.0, 0.0, 0.0, 0.0, 0.0, 0.0, 0.0, 0.0, 0.0, 0.0, 0.0, 0.0, 0.0, 0.0, 0.0, 0.0, 0.0, 0.0, 0.0, 0.0, 0.0, 0.0)"
2018/07/18/15:56:56.380136,1020,1531943816,376534608,map,base_link,-78.6800008257,100.824838848,52.222,-0.11635226086,0.138773124259,-0.923312717668,-0.338670631689,"(0.3480999690532691, 0.0, 0.0, 0.0, 0.0, 0.0, 0.0, 0.3480999690532691, 0.0, 0.0, 0.0, 0.0, 0.0, 0.0, 1.3923998762130765, 0.0, 0.0, 0.0, 0.0, 0.0, 0.0, 99999.0, 0.0, 0.0, 0.0, 0.0, 0.0, 0.0, 99999.0, 0.0, 0.0, 0.0, 0.0, 0.0, 0.0, 99999.0)",7.84,-12.81,-5.23,0.0,0.0,0.0,"(-1.0, 0.0, 0.0, 0.0, 0.0, 0.0, 0.0, 0.0, 0.0, 0.0, 0.0, 0.0, 0.0, 0.0, 0.0, 0.0, 0.0, 0.0, 0.0, 0.0, 0.0, 0.0, 0.0, 0.0, 0.0, 0.0, 0.0, 0.0, 0.0, 0.0, 0.0, 0.0, 0.0, 0.0, 0.0, 0.0)"
2018/07/18/15:56:56.604211,1021,1531943816,601476249,map,base_link,-81.1689056981,102.779408758,53.578,-0.135001096802,0.00524643866948,-0.943464530681,-0.302691027436,"(0.3480999690532691, 0.0, 0.0, 0.0, 0.0, 0.0, 0.0, 0.3480999690532691, 0.0, 0.0, 0.0, 0.0, 0.0, 0.0, 1.3923998762130765, 0.0, 0.0, 0.0, 0.0, 0.0, 0.0, 99999.0, 0.0, 0.0, 0.0, 0.0, 0.0, 0.0, 99999.0, 0.0, 0.0, 0.0, 0.0, 0.0, 0.0, 99999.0)",7.67,-12.29,-4.69,0.0,0.0,0.0,"(-1.0, 0.0, 0.0, 0.0, 0.0, 0.0, 0.0, 0.0, 0.0, 0.0, 0.0, 0.0, 0.0, 0.0, 0.0, 0.0, 0.0, 0.0, 0.0, 0.0, 0.0, 0.0, 0.0, 0.0, 0.0, 0.0, 0.0, 0.0, 0.0, 0.0, 0.0, 0.0, 0.0, 0.0, 0.0, 0.0)"
2018/07/18/15:56:56.828994,1022,1531943816,820825993,map,base_link,-83.5816163479,104.722870458,54.699,-0.135001096802,0.00524643866948,-0.943464530681,-0.302691027436,"(0.3480999690532691, 0.0, 0.0, 0.0, 0.0, 0.0, 0.0, 0.3480999690532691, 0.0, 0.0, 0.0, 0.0, 0.0, 0.0, 1.3923998762130765, 0.0, 0.0, 0.0, 0.0, 0.0, 0.0, 99999.0, 0.0, 0.0, 0.0, 0.0, 0.0, 0.0, 99999.0, 0.0, 0.0, 0.0, 0.0, 0.0, 0.0, 99999.0)",7.72,-11.88,-3.69,0.0,0.0,0.0,"(-1.0, 0.0, 0.0, 0.0, 0.0, 0.0, 0.0, 0.0, 0.0, 0.0, 0.0, 0.0, 0.0, 0.0, 0.0, 0.0, 0.0, 0.0, 0.0, 0.0, 0.0, 0.0, 0.0, 0.0, 0.0, 0.0, 0.0, 0.0, 0.0, 0.0, 0.0, 0.0, 0.0, 0.0, 0.0, 0.0)"
2018/07/18/15:56:57.059906,1023,1531943817,58233110,map,base_link,-86.1297731809,106.855121779,55.661,-0.120410275198,-0.078030566597,-0.938085196585,-0.315291548017,"(0.3480999690532691, 0.0, 0.0, 0.0, 0.0, 0.0, 0.0, 0.3480999690532691, 0.0, 0.0, 0.0, 0.0, 0.0, 0.0, 1.3923998762130765, 0.0, 0.0, 0.0, 0.0, 0.0, 0.0, 99999.0, 0.0, 0.0, 0.0, 0.0, 0.0, 0.0, 99999.0, 0.0, 0.0, 0.0, 0.0, 0.0, 0.0, 99999.0)",7.89,-11.33,-3.03,0.0,0.0,0.0,"(-1.0, 0.0, 0.0, 0.0, 0.0, 0.0, 0.0, 0.0, 0.0, 0.0, 0.0, 0.0, 0.0, 0.0, 0.0, 0.0, 0.0, 0.0, 0.0, 0.0, 0.0, 0.0, 0.0, 0.0, 0.0, 0.0, 0.0, 0.0, 0.0, 0.0, 0.0, 0.0, 0.0, 0.0, 0.0, 0.0)"
2018/07/18/15:56:57.327249,1024,1531943817,321907869,map,base_link,-88.7964445783,109.198373601,56.513,-0.120410275198,-0.078030566597,-0.938085196585,-0.315291548017,"(0.3480999690532691, 0.0, 0.0, 0.0, 0.0, 0.0, 0.0, 0.3480999690532691, 0.0, 0.0, 0.0, 0.0, 0.0, 0.0, 1.3923998762130765, 0.0, 0.0, 0.0, 0.0, 0.0, 0.0, 99999.0, 0.0, 0.0, 0.0, 0.0, 0.0, 0.0, 99999.0, 0.0, 0.0, 0.0, 0.0, 0.0, 0.0, 99999.0)",8.21,-10.75,-2.17,0.0,0.0,0.0,"(-1.0, 0.0, 0.0, 0.0, 0.0, 0.0, 0.0, 0.0, 0.0, 0.0, 0.0, 0.0, 0.0, 0.0, 0.0, 0.0, 0.0, 0.0, 0.0, 0.0, 0.0, 0.0, 0.0, 0.0, 0.0, 0.0, 0.0, 0.0, 0.0, 0.0, 0.0, 0.0, 0.0, 0.0, 0.0, 0.0)"
2018/07/18/15:56:57.594223,1025,1531943817,593108741,map,base_link,-91.5392983361,111.808148367,57.058,-0.0556786382508,-0.127272692989,-0.926922025484,-0.348593042866,"(0.3480999690532691, 0.0, 0.0, 0.0, 0.0, 0.0, 0.0, 0.3480999690532691, 0.0, 0.0, 0.0, 0.0, 0.0, 0.0, 1.3923998762130765, 0.0, 0.0, 0.0, 0.0, 0.0, 0.0, 99999.0, 0.0, 0.0, 0.0, 0.0, 0.0, 0.0, 99999.0, 0.0, 0.0, 0.0, 0.0, 0.0, 0.0, 99999.0)",8.53,-10.35,-0.57,0.0,0.0,0.0,"(-1.0, 0.0, 0.0, 0.0, 0.0, 0.0, 0.0, 0.0, 0.0, 0.0, 0.0, 0.0, 0.0, 0.0, 0.0, 0.0, 0.0, 0.0, 0.0, 0.0, 0.0, 0.0, 0.0, 0.0, 0.0, 0.0, 0.0, 0.0, 0.0, 0.0, 0.0, 0.0, 0.0, 0.0, 0.0, 0.0)"
2018/07/18/15:56:57.828174,1026,1531943817,825960144,map,base_link,-93.638760346,113.851540943,57.147,-0.0556786382508,-0.127272692989,-0.926922025484,-0.348593042866,"(0.3480999690532691, 0.0, 0.0, 0.0, 0.0, 0.0, 0.0, 0.3480999690532691, 0.0, 0.0, 0.0, 0.0, 0.0, 0.0, 1.3923998762130765, 0.0, 0.0, 0.0, 0.0, 0.0, 0.0, 99999.0, 0.0, 0.0, 0.0, 0.0, 0.0, 0.0, 99999.0, 0.0, 0.0, 0.0, 0.0, 0.0, 0.0, 99999.0)",8.72,-10.16,0.57,0.0,0.0,0.0,"(-1.0, 0.0, 0.0, 0.0, 0.0, 0.0, 0.0, 0.0, 0.0, 0.0, 0.0, 0.0, 0.0, 0.0, 0.0, 0.0, 0.0, 0.0, 0.0, 0.0, 0.0, 0.0, 0.0, 0.0, 0.0, 0.0, 0.0, 0.0, 0.0, 0.0, 0.0, 0.0, 0.0, 0.0, 0.0, 0.0)"
2018/07/18/15:56:58.040680,1027,1531943818,39791948,map,base_link,-95.7551485772,115.939351179,57.001,-0.00197314584217,-0.123409281308,-0.929073440411,-0.348695853583,"(0.3480999690532691, 0.0, 0.0, 0.0, 0.0, 0.0, 0.0, 0.3480999690532691, 0.0, 0.0, 0.0, 0.0, 0.0, 0.0, 1.3923998762130765, 0.0, 0.0, 0.0, 0.0, 0.0, 0.0, 99999.0, 0.0, 0.0, 0.0, 0.0, 0.0, 0.0, 99999.0, 0.0, 0.0, 0.0, 0.0, 0.0, 0.0, 99999.0)",8.91,-10.03,1.52,0.0,0.0,0.0,"(-1.0, 0.0, 0.0, 0.0, 0.0, 0.0, 0.0, 0.0, 0.0, 0.0, 0.0, 0.0, 0.0, 0.0, 0.0, 0.0, 0.0, 0.0, 0.0, 0.0, 0.0, 0.0, 0.0, 0.0, 0.0, 0.0, 0.0, 0.0, 0.0, 0.0, 0.0, 0.0, 0.0, 0.0, 0.0, 0.0)"
2018/07/18/15:56:58.269544,1028,1531943818,267702555,map,base_link,-98.0577738065,118.215948876,56.618,-0.00197314584217,-0.123409281308,-0.929073440411,-0.348695853583,"(0.3480999690532691, 0.0, 0.0, 0.0, 0.0, 0.0, 0.0, 0.3480999690532691, 0.0, 0.0, 0.0, 0.0, 0.0, 0.0, 1.3923998762130765, 0.0, 0.0, 0.0, 0.0, 0.0, 0.0, 99999.0, 0.0, 0.0, 0.0, 0.0, 0.0, 0.0, 99999.0, 0.0, 0.0, 0.0, 0.0, 0.0, 0.0, 99999.0)",9.11,-9.99,2.39,0.0,0.0,0.0,"(-1.0, 0.0, 0.0, 0.0, 0.0, 0.0, 0.0, 0.0, 0.0, 0.0, 0.0, 0.0, 0.0, 0.0, 0.0, 0.0, 0.0, 0.0, 0.0, 0.0, 0.0, 0.0, 0.0, 0.0, 0.0, 0.0, 0.0, 0.0, 0.0, 0.0, 0.0, 0.0, 0.0, 0.0, 0.0, 0.0)"
2018/07/18/15:56:58.536598,1029,1531943818,535321015,map,base_link,-100.555101387,120.725756129,56.031,0.0653923579899,-0.0776975450902,-0.920358733498,-0.377659545991,"(0.3480999690532691, 0.0, 0.0, 0.0, 0.0, 0.0, 0.0, 0.3480999690532691, 0.0, 0.0, 0.0, 0.0, 0.0, 0.0, 1.3923998762130765, 0.0, 0.0, 0.0, 0.0, 0.0, 0.0, 99999.0, 0.0, 0.0, 0.0, 0.0, 0.0, 0.0, 99999.0, 0.0, 0.0, 0.0, 0.0, 0.0, 0.0, 99999.0)",9.41,-10.02,2.96,0.0,0.0,0.0,"(-1.0, 0.0, 0.0, 0.0, 0.0, 0.0, 0.0, 0.0, 0.0, 0.0, 0.0, 0.0, 0.0, 0.0, 0.0, 0.0, 0.0, 0.0, 0.0, 0.0, 0.0, 0.0, 0.0, 0.0, 0.0, 0.0, 0.0, 0.0, 0.0, 0.0, 0.0, 0.0, 0.0, 0.0, 0.0, 0.0)"
2018/07/18/15:56:58.808579,1030,1531943818,807633016,map,base_link,-103.280992618,123.513194277,55.268,0.0814520408563,-0.0719549181385,-0.910180871773,-0.399698430638,"(0.3480999690532691, 0.0, 0.0, 0.0, 0.0, 0.0, 0.0, 0.3480999690532691, 0.0, 0.0, 0.0, 0.0, 0.0, 0.0, 1.3923998762130765, 0.0, 0.0, 0.0, 0.0, 0.0, 0.0, 99999.0, 0.0, 0.0, 0.0, 0.0, 0.0, 0.0, 99999.0, 0.0, 0.0, 0.0, 0.0, 0.0, 0.0, 99999.0)",9.78,-10.06,3.4,0.0,0.0,0.0,"(-1.0, 0.0, 0.0, 0.0, 0.0, 0.0, 0.0, 0.0, 0.0, 0.0, 0.0, 0.0, 0.0, 0.0, 0.0, 0.0, 0.0, 0.0, 0.0, 0.0, 0.0, 0.0, 0.0, 0.0, 0.0, 0.0, 0.0, 0.0, 0.0, 0.0, 0.0, 0.0, 0.0, 0.0, 0.0, 0.0)"
2018/07/18/15:56:58.987967,1031,1531943818,986468881,map,base_link,-105.033348688,125.334467655,54.727,0.0814520408563,-0.0719549181385,-0.910180871773,-0.399698430638,"(0.3480999690532691, 0.0, 0.0, 0.0, 0.0, 0.0, 0.0, 0.3480999690532691, 0.0, 0.0, 0.0, 0.0, 0.0, 0.0, 1.3923998762130765, 0.0, 0.0, 0.0, 0.0, 0.0, 0.0, 99999.0, 0.0, 0.0, 0.0, 0.0, 0.0, 0.0, 99999.0, 0.0, 0.0, 0.0, 0.0, 0.0, 0.0, 99999.0)",10.01,-10.12,3.53,0.0,0.0,0.0,"(-1.0, 0.0, 0.0, 0.0, 0.0, 0.0, 0.0, 0.0, 0.0, 0.0, 0.0, 0.0, 0.0, 0.0, 0.0, 0.0, 0.0, 0.0, 0.0, 0.0, 0.0, 0.0, 0.0, 0.0, 0.0, 0.0, 0.0, 0.0, 0.0, 0.0, 0.0, 0.0, 0.0, 0.0, 0.0, 0.0)"
2018/07/18/15:56:59.238500,1032,1531943819,237648546,map,base_link,-107.378286764,127.788744474,53.997,0.0814520408563,-0.0719549181385,-0.910180871773,-0.399698430638,"(0.3480999690532691, 0.0, 0.0, 0.0, 0.0, 0.0, 0.0, 0.3480999690532691, 0.0, 0.0, 0.0, 0.0, 0.0, 0.0, 1.3923998762130765, 0.0, 0.0, 0.0, 0.0, 0.0, 0.0, 99999.0, 0.0, 0.0, 0.0, 0.0, 0.0, 0.0, 99999.0, 0.0, 0.0, 0.0, 0.0, 0.0, 0.0, 99999.0)",10.29,-10.27,3.49,0.0,0.0,0.0,"(-1.0, 0.0, 0.0, 0.0, 0.0, 0.0, 0.0, 0.0, 0.0, 0.0, 0.0, 0.0, 0.0, 0.0, 0.0, 0.0, 0.0, 0.0, 0.0, 0.0, 0.0, 0.0, 0.0, 0.0, 0.0, 0.0, 0.0, 0.0, 0.0, 0.0, 0.0, 0.0, 0.0, 0.0, 0.0, 0.0)"
2018/07/18/15:56:59.460245,1033,1531943819,459180903,map,base_link,-109.401535535,129.898757034,53.399,0.0863112826833,-0.0558918428228,-0.913955466735,-0.392570846107,"(0.3480999690532691, 0.0, 0.0, 0.0, 0.0, 0.0, 0.0, 0.3480999690532691, 0.0, 0.0, 0.0, 0.0, 0.0, 0.0, 1.3923998762130765, 0.0, 0.0, 0.0, 0.0, 0.0, 0.0, 99999.0, 0.0, 0.0, 0.0, 0.0, 0.0, 0.0, 99999.0, 0.0, 0.0, 0.0, 0.0, 0.0, 0.0, 99999.0)",10.49,-10.43,3.39,0.0,0.0,0.0,"(-1.0, 0.0, 0.0, 0.0, 0.0, 0.0, 0.0, 0.0, 0.0, 0.0, 0.0, 0.0, 0.0, 0.0, 0.0, 0.0, 0.0, 0.0, 0.0, 0.0, 0.0, 0.0, 0.0, 0.0, 0.0, 0.0, 0.0, 0.0, 0.0, 0.0, 0.0, 0.0, 0.0, 0.0, 0.0, 0.0)"
2018/07/18/15:56:59.738413,1034,1531943819,736714894,map,base_link,-112.52529562,133.108199921,52.561,0.0768037873199,-0.0448940891266,-0.913821740625,-0.396251845897,"(0.3480999690532691, 0.0, 0.0, 0.0, 0.0, 0.0, 0.0, 0.3480999690532691, 0.0, 0.0, 0.0, 0.0, 0.0, 0.0, 1.3923998762130765, 0.0, 0.0, 0.0, 0.0, 0.0, 0.0, 99999.0, 0.0, 0.0, 0.0, 0.0, 0.0, 0.0, 99999.0, 0.0, 0.0, 0.0, 0.0, 0.0, 0.0, 99999.0)",10.73,-10.66,3.05,0.0,0.0,0.0,"(-1.0, 0.0, 0.0, 0.0, 0.0, 0.0, 0.0, 0.0, 0.0, 0.0, 0.0, 0.0, 0.0, 0.0, 0.0, 0.0, 0.0, 0.0, 0.0, 0.0, 0.0, 0.0, 0.0, 0.0, 0.0, 0.0, 0.0, 0.0, 0.0, 0.0, 0.0, 0.0, 0.0, 0.0, 0.0, 0.0)"
2018/07/18/15:56:59.968599,1035,1531943819,965838868,map,base_link,-114.810972973,135.440322945,52.025,0.0768037873199,-0.0448940891266,-0.913821740625,-0.396251845897,"(0.3480999690532691, 0.0, 0.0, 0.0, 0.0, 0.0, 0.0, 0.3480999690532691, 0.0, 0.0, 0.0, 0.0, 0.0, 0.0, 1.3923998762130765, 0.0, 0.0, 0.0, 0.0, 0.0, 0.0, 99999.0, 0.0, 0.0, 0.0, 0.0, 0.0, 0.0, 99999.0, 0.0, 0.0, 0.0, 0.0, 0.0, 0.0, 99999.0)",10.84,-10.79,2.73,0.0,0.0,0.0,"(-1.0, 0.0, 0.0, 0.0, 0.0, 0.0, 0.0, 0.0, 0.0, 0.0, 0.0, 0.0, 0.0, 0.0, 0.0, 0.0, 0.0, 0.0, 0.0, 0.0, 0.0, 0.0, 0.0, 0.0, 0.0, 0.0, 0.0, 0.0, 0.0, 0.0, 0.0, 0.0, 0.0, 0.0, 0.0, 0.0)"
2018/07/18/15:57:00.165882,1036,1531943820,164565692,map,base_link,-117.164374358,137.827975467,51.571,0.051835994526,-0.0299329499903,-0.911901219173,-0.406021199751,"(0.3480999690532691, 0.0, 0.0, 0.0, 0.0, 0.0, 0.0, 0.3480999690532691, 0.0, 0.0, 0.0, 0.0, 0.0, 0.0, 1.3923998762130765, 0.0, 0.0, 0.0, 0.0, 0.0, 0.0, 99999.0, 0.0, 0.0, 0.0, 0.0, 0.0, 0.0, 99999.0, 0.0, 0.0, 0.0, 0.0, 0.0, 0.0, 99999.0)",10.97,-10.85,2.23,0.0,0.0,0.0,"(-1.0, 0.0, 0.0, 0.0, 0.0, 0.0, 0.0, 0.0, 0.0, 0.0, 0.0, 0.0, 0.0, 0.0, 0.0, 0.0, 0.0, 0.0, 0.0, 0.0, 0.0, 0.0, 0.0, 0.0, 0.0, 0.0, 0.0, 0.0, 0.0, 0.0, 0.0, 0.0, 0.0, 0.0, 0.0, 0.0)"
2018/07/18/15:57:00.422327,1037,1531943820,420710519,map,base_link,-119.712481155,140.437737756,51.198,0.051835994526,-0.0299329499903,-0.911901219173,-0.406021199751,"(0.3480999690532691, 0.0, 0.0, 0.0, 0.0, 0.0, 0.0, 0.3480999690532691, 0.0, 0.0, 0.0, 0.0, 0.0, 0.0, 1.3923998762130765, 0.0, 0.0, 0.0, 0.0, 0.0, 0.0, 99999.0, 0.0, 0.0, 0.0, 0.0, 0.0, 0.0, 99999.0, 0.0, 0.0, 0.0, 0.0, 0.0, 0.0, 99999.0)",11.06,-10.78,1.79,0.0,0.0,0.0,"(-1.0, 0.0, 0.0, 0.0, 0.0, 0.0, 0.0, 0.0, 0.0, 0.0, 0.0, 0.0, 0.0, 0.0, 0.0, 0.0, 0.0, 0.0, 0.0, 0.0, 0.0, 0.0, 0.0, 0.0, 0.0, 0.0, 0.0, 0.0, 0.0, 0.0, 0.0, 0.0, 0.0, 0.0, 0.0, 0.0)"
2018/07/18/15:57:00.727511,1038,1531943820,721700288,map,base_link,-122.878566425,143.713825694,50.859,0.0122765907784,-0.052398385312,-0.913086877537,-0.404198031421,"(0.3480999690532691, 0.0, 0.0, 0.0, 0.0, 0.0, 0.0, 0.3480999690532691, 0.0, 0.0, 0.0, 0.0, 0.0, 0.0, 1.3923998762130765, 0.0, 0.0, 0.0, 0.0, 0.0, 0.0, 99999.0, 0.0, 0.0, 0.0, 0.0, 0.0, 0.0, 99999.0, 0.0, 0.0, 0.0, 0.0, 0.0, 0.0, 99999.0)",11.14,-10.59,1.23,0.0,0.0,0.0,"(-1.0, 0.0, 0.0, 0.0, 0.0, 0.0, 0.0, 0.0, 0.0, 0.0, 0.0, 0.0, 0.0, 0.0, 0.0, 0.0, 0.0, 0.0, 0.0, 0.0, 0.0, 0.0, 0.0, 0.0, 0.0, 0.0, 0.0, 0.0, 0.0, 0.0, 0.0, 0.0, 0.0, 0.0, 0.0, 0.0)"
2018/07/18/15:57:00.981109,1039,1531943820,980117055,map,base_link,-125.325085041,146.334697667,50.688,-0.0100312075736,-0.0644028404225,-0.909754500285,-0.409998046619,"(0.3480999690532691, 0.0, 0.0, 0.0, 0.0, 0.0, 0.0, 0.3480999690532691, 0.0, 0.0, 0.0, 0.0, 0.0, 0.0, 1.3923998762130765, 0.0, 0.0, 0.0, 0.0, 0.0, 0.0, 99999.0, 0.0, 0.0, 0.0, 0.0, 0.0, 0.0, 99999.0, 0.0, 0.0, 0.0, 0.0, 0.0, 0.0, 99999.0)",11.21,-10.33,0.93,0.0,0.0,0.0,"(-1.0, 0.0, 0.0, 0.0, 0.0, 0.0, 0.0, 0.0, 0.0, 0.0, 0.0, 0.0, 0.0, 0.0, 0.0, 0.0, 0.0, 0.0, 0.0, 0.0, 0.0, 0.0, 0.0, 0.0, 0.0, 0.0, 0.0, 0.0, 0.0, 0.0, 0.0, 0.0, 0.0, 0.0, 0.0, 0.0)"
2018/07/18/15:57:01.168344,1040,1531943821,167245725,map,base_link,-127.526102846,148.755672613,50.546,-0.0100312075736,-0.0644028404225,-0.909754500285,-0.409998046619,"(0.3480999690532691, 0.0, 0.0, 0.0, 0.0, 0.0, 0.0, 0.3480999690532691, 0.0, 0.0, 0.0, 0.0, 0.0, 0.0, 1.3923998762130765, 0.0, 0.0, 0.0, 0.0, 0.0, 0.0, 99999.0, 0.0, 0.0, 0.0, 0.0, 0.0, 0.0, 99999.0, 0.0, 0.0, 0.0, 0.0, 0.0, 0.0, 99999.0)",11.31,-10.0,0.87,0.0,0.0,0.0,"(-1.0, 0.0, 0.0, 0.0, 0.0, 0.0, 0.0, 0.0, 0.0, 0.0, 0.0, 0.0, 0.0, 0.0, 0.0, 0.0, 0.0, 0.0, 0.0, 0.0, 0.0, 0.0, 0.0, 0.0, 0.0, 0.0, 0.0, 0.0, 0.0, 0.0, 0.0, 0.0, 0.0, 0.0, 0.0, 0.0)"
2018/07/18/15:57:01.450299,1041,1531943821,449380570,map,base_link,-129.989545322,151.631967239,50.406,-0.0359607367602,-0.0930630747422,-0.894863034326,-0.435047398943,"(0.3480999690532691, 0.0, 0.0, 0.0, 0.0, 0.0, 0.0, 0.3480999690532691, 0.0, 0.0, 0.0, 0.0, 0.0, 0.0, 1.3923998762130765, 0.0, 0.0, 0.0, 0.0, 0.0, 0.0, 99999.0, 0.0, 0.0, 0.0, 0.0, 0.0, 0.0, 99999.0, 0.0, 0.0, 0.0, 0.0, 0.0, 0.0, 99999.0)",11.57,-9.47,0.52,0.0,0.0,0.0,"(-1.0, 0.0, 0.0, 0.0, 0.0, 0.0, 0.0, 0.0, 0.0, 0.0, 0.0, 0.0, 0.0, 0.0, 0.0, 0.0, 0.0, 0.0, 0.0, 0.0, 0.0, 0.0, 0.0, 0.0, 0.0, 0.0, 0.0, 0.0, 0.0, 0.0, 0.0, 0.0, 0.0, 0.0, 0.0, 0.0)"
2018/07/18/15:57:01.656205,1042,1531943821,655378126,map,base_link,-131.78421459,153.908570073,50.347,-0.0359607367602,-0.0930630747422,-0.894863034326,-0.435047398943,"(0.3480999690532691, 0.0, 0.0, 0.0, 0.0, 0.0, 0.0, 0.3480999690532691, 0.0, 0.0, 0.0, 0.0, 0.0, 0.0, 1.3923998762130765, 0.0, 0.0, 0.0, 0.0, 0.0, 0.0, 99999.0, 0.0, 0.0, 0.0, 0.0, 0.0, 0.0, 99999.0, 0.0, 0.0, 0.0, 0.0, 0.0, 0.0, 99999.0)",11.79,-8.97,0.41,0.0,0.0,0.0,"(-1.0, 0.0, 0.0, 0.0, 0.0, 0.0, 0.0, 0.0, 0.0, 0.0, 0.0, 0.0, 0.0, 0.0, 0.0, 0.0, 0.0, 0.0, 0.0, 0.0, 0.0, 0.0, 0.0, 0.0, 0.0, 0.0, 0.0, 0.0, 0.0, 0.0, 0.0, 0.0, 0.0, 0.0, 0.0, 0.0)"
2018/07/18/15:57:01.954684,1043,1531943821,952701261,map,base_link,-134.289971839,157.373445012,50.245,-0.0693332454536,-0.131677714354,-0.87977736302,-0.451492715484,"(0.3480999690532691, 0.0, 0.0, 0.0, 0.0, 0.0, 0.0, 0.3480999690532691, 0.0, 0.0, 0.0, 0.0, 0.0, 0.0, 1.3923998762130765, 0.0, 0.0, 0.0, 0.0, 0.0, 0.0, 99999.0, 0.0, 0.0, 0.0, 0.0, 0.0, 0.0, 99999.0, 0.0, 0.0, 0.0, 0.0, 0.0, 0.0, 99999.0)",12.03,-8.29,0.59,0.0,0.0,0.0,"(-1.0, 0.0, 0.0, 0.0, 0.0, 0.0, 0.0, 0.0, 0.0, 0.0, 0.0, 0.0, 0.0, 0.0, 0.0, 0.0, 0.0, 0.0, 0.0, 0.0, 0.0, 0.0, 0.0, 0.0, 0.0, 0.0, 0.0, 0.0, 0.0, 0.0, 0.0, 0.0, 0.0, 0.0, 0.0, 0.0)"
2018/07/18/15:57:02.133387,1044,1531943822,132452716,map,base_link,-135.686756942,159.461251078,50.127,-0.0788608710061,-0.155485473236,-0.861064977945,-0.4776738787,"(0.3480999690532691, 0.0, 0.0, 0.0, 0.0, 0.0, 0.0, 0.3480999690532691, 0.0, 0.0, 0.0, 0.0, 0.0, 0.0, 1.3923998762130765, 0.0, 0.0, 0.0, 0.0, 0.0, 0.0, 99999.0, 0.0, 0.0, 0.0, 0.0, 0.0, 0.0, 99999.0, 0.0, 0.0, 0.0, 0.0, 0.0, 0.0, 99999.0)",12.19,-7.89,0.88,0.0,0.0,0.0,"(-1.0, 0.0, 0.0, 0.0, 0.0, 0.0, 0.0, 0.0, 0.0, 0.0, 0.0, 0.0, 0.0, 0.0, 0.0, 0.0, 0.0, 0.0, 0.0, 0.0, 0.0, 0.0, 0.0, 0.0, 0.0, 0.0, 0.0, 0.0, 0.0, 0.0, 0.0, 0.0, 0.0, 0.0, 0.0, 0.0)"
2018/07/18/15:57:02.371602,1045,1531943822,370562837,map,base_link,-137.396752901,162.248689433,49.872,-0.0788608710061,-0.155485473236,-0.861064977945,-0.4776738787,"(0.3480999690532691, 0.0, 0.0, 0.0, 0.0, 0.0, 0.0, 0.3480999690532691, 0.0, 0.0, 0.0, 0.0, 0.0, 0.0, 1.3923998762130765, 0.0, 0.0, 0.0, 0.0, 0.0, 0.0, 99999.0, 0.0, 0.0, 0.0, 0.0, 0.0, 0.0, 99999.0, 0.0, 0.0, 0.0, 0.0, 0.0, 0.0, 99999.0)",12.54,-7.17,1.27,0.0,0.0,0.0,"(-1.0, 0.0, 0.0, 0.0, 0.0, 0.0, 0.0, 0.0, 0.0, 0.0, 0.0, 0.0, 0.0, 0.0, 0.0, 0.0, 0.0, 0.0, 0.0, 0.0, 0.0, 0.0, 0.0, 0.0, 0.0, 0.0, 0.0, 0.0, 0.0, 0.0, 0.0, 0.0, 0.0, 0.0, 0.0, 0.0)"
2018/07/18/15:57:02.609830,1046,1531943822,608058437,map,base_link,-138.920498337,165.236016076,49.523,-0.109862275803,-0.218550198799,-0.821868478427,-0.514488381917,"(0.3480999690532691, 0.0, 0.0, 0.0, 0.0, 0.0, 0.0, 0.3480999690532691, 0.0, 0.0, 0.0, 0.0, 0.0, 0.0, 1.3923998762130765, 0.0, 0.0, 0.0, 0.0, 0.0, 0.0, 99999.0, 0.0, 0.0, 0.0, 0.0, 0.0, 0.0, 99999.0, 0.0, 0.0, 0.0, 0.0, 0.0, 0.0, 99999.0)",13.11,-6.04,1.54,0.0,0.0,0.0,"(-1.0, 0.0, 0.0, 0.0, 0.0, 0.0, 0.0, 0.0, 0.0, 0.0, 0.0, 0.0, 0.0, 0.0, 0.0, 0.0, 0.0, 0.0, 0.0, 0.0, 0.0, 0.0, 0.0, 0.0, 0.0, 0.0, 0.0, 0.0, 0.0, 0.0, 0.0, 0.0, 0.0, 0.0, 0.0, 0.0)"
2018/07/18/15:57:02.889983,1047,1531943822,889009368,map,base_link,-140.266449689,168.889650056,49.05,-0.175076457204,-0.280464773769,-0.766780525503,-0.550213931591,"(0.3480999690532691, 0.0, 0.0, 0.0, 0.0, 0.0, 0.0, 0.3480999690532691, 0.0, 0.0, 0.0, 0.0, 0.0, 0.0, 1.3923998762130765, 0.0, 0.0, 0.0, 0.0, 0.0, 0.0, 99999.0, 0.0, 0.0, 0.0, 0.0, 0.0, 0.0, 99999.0, 0.0, 0.0, 0.0, 0.0, 0.0, 0.0, 99999.0)",13.91,-4.36,1.67,0.0,0.0,0.0,"(-1.0, 0.0, 0.0, 0.0, 0.0, 0.0, 0.0, 0.0, 0.0, 0.0, 0.0, 0.0, 0.0, 0.0, 0.0, 0.0, 0.0, 0.0, 0.0, 0.0, 0.0, 0.0, 0.0, 0.0, 0.0, 0.0, 0.0, 0.0, 0.0, 0.0, 0.0, 0.0, 0.0, 0.0, 0.0, 0.0)"
2018/07/18/15:57:03.167089,1048,1531943823,166139455,map,base_link,-141.087528462,172.743167138,48.559,-0.175076457204,-0.280464773769,-0.766780525503,-0.550213931591,"(0.3480999690532691, 0.0, 0.0, 0.0, 0.0, 0.0, 0.0, 0.3480999690532691, 0.0, 0.0, 0.0, 0.0, 0.0, 0.0, 1.3923998762130765, 0.0, 0.0, 0.0, 0.0, 0.0, 0.0, 99999.0, 0.0, 0.0, 0.0, 0.0, 0.0, 0.0, 99999.0, 0.0, 0.0, 0.0, 0.0, 0.0, 0.0, 99999.0)",14.62,-2.56,1.75,0.0,0.0,0.0,"(-1.0, 0.0, 0.0, 0.0, 0.0, 0.0, 0.0, 0.0, 0.0, 0.0, 0.0, 0.0, 0.0, 0.0, 0.0, 0.0, 0.0, 0.0, 0.0, 0.0, 0.0, 0.0, 0.0, 0.0, 0.0, 0.0, 0.0, 0.0, 0.0, 0.0, 0.0, 0.0, 0.0, 0.0, 0.0, 0.0)"
2018/07/18/15:57:03.370648,1049,1531943823,369897977,map,base_link,-141.366822783,175.952572343,48.131,-0.202447951103,-0.284013785223,-0.70997486401,-0.611789742781,"(0.3480999690532691, 0.0, 0.0, 0.0, 0.0, 0.0, 0.0, 0.3480999690532691, 0.0, 0.0, 0.0, 0.0, 0.0, 0.0, 1.3923998762130765, 0.0, 0.0, 0.0, 0.0, 0.0, 0.0, 99999.0, 0.0, 0.0, 0.0, 0.0, 0.0, 0.0, 99999.0, 0.0, 0.0, 0.0, 0.0, 0.0, 0.0, 99999.0)",15.05,-1.0,1.93,0.0,0.0,0.0,"(-1.0, 0.0, 0.0, 0.0, 0.0, 0.0, 0.0, 0.0, 0.0, 0.0, 0.0, 0.0, 0.0, 0.0, 0.0, 0.0, 0.0, 0.0, 0.0, 0.0, 0.0, 0.0, 0.0, 0.0, 0.0, 0.0, 0.0, 0.0, 0.0, 0.0, 0.0, 0.0, 0.0, 0.0, 0.0, 0.0)"
2018/07/18/15:57:03.602787,1050,1531943823,602003987,map,base_link,-141.290559797,179.228600085,47.651,-0.222732750323,-0.278384418963,-0.639194795186,-0.681411953974,"(0.3721000174522402, 0.0, 0.0, 0.0, 0.0, 0.0, 0.0, 0.3721000174522402, 0.0, 0.0, 0.0, 0.0, 0.0, 0.0, 1.4884000698089608, 0.0, 0.0, 0.0, 0.0, 0.0, 0.0, 99999.0, 0.0, 0.0, 0.0, 0.0, 0.0, 0.0, 99999.0, 0.0, 0.0, 0.0, 0.0, 0.0, 0.0, 99999.0)",15.3,0.68,2.13,0.0,0.0,0.0,"(-1.0, 0.0, 0.0, 0.0, 0.0, 0.0, 0.0, 0.0, 0.0, 0.0, 0.0, 0.0, 0.0, 0.0, 0.0, 0.0, 0.0, 0.0, 0.0, 0.0, 0.0, 0.0, 0.0, 0.0, 0.0, 0.0, 0.0, 0.0, 0.0, 0.0, 0.0, 0.0, 0.0, 0.0, 0.0, 0.0)"
2018/07/18/15:57:03.873064,1051,1531943823,871784312,map,base_link,-140.621685758,183.404134712,47.001,-0.222732750323,-0.278384418963,-0.639194795186,-0.681411953974,"(0.3480999690532691, 0.0, 0.0, 0.0, 0.0, 0.0, 0.0, 0.3480999690532691, 0.0, 0.0, 0.0, 0.0, 0.0, 0.0, 1.3923998762130765, 0.0, 0.0, 0.0, 0.0, 0.0, 0.0, 99999.0, 0.0, 0.0, 0.0, 0.0, 0.0, 0.0, 99999.0, 0.0, 0.0, 0.0, 0.0, 0.0, 0.0, 99999.0)",15.26,3.19,2.17,0.0,0.0,0.0,"(-1.0, 0.0, 0.0, 0.0, 0.0, 0.0, 0.0, 0.0, 0.0, 0.0, 0.0, 0.0, 0.0, 0.0, 0.0, 0.0, 0.0, 0.0, 0.0, 0.0, 0.0, 0.0, 0.0, 0.0, 0.0, 0.0, 0.0, 0.0, 0.0, 0.0, 0.0, 0.0, 0.0, 0.0, 0.0, 0.0)"
2018/07/18/15:57:04.117708,1052,1531943824,117042161,map,base_link,-139.444893248,186.924454212,46.472,-0.287166219124,-0.250010375907,-0.552910122932,-0.741161770798,"(0.3480999690532691, 0.0, 0.0, 0.0, 0.0, 0.0, 0.0, 0.3480999690532691, 0.0, 0.0, 0.0, 0.0, 0.0, 0.0, 1.3923998762130765, 0.0, 0.0, 0.0, 0.0, 0.0, 0.0, 99999.0, 0.0, 0.0, 0.0, 0.0, 0.0, 0.0, 99999.0, 0.0, 0.0, 0.0, 0.0, 0.0, 0.0, 99999.0)",14.85,5.6,1.98,0.0,0.0,0.0,"(-1.0, 0.0, 0.0, 0.0, 0.0, 0.0, 0.0, 0.0, 0.0, 0.0, 0.0, 0.0, 0.0, 0.0, 0.0, 0.0, 0.0, 0.0, 0.0, 0.0, 0.0, 0.0, 0.0, 0.0, 0.0, 0.0, 0.0, 0.0, 0.0, 0.0, 0.0, 0.0, 0.0, 0.0, 0.0, 0.0)"
2018/07/18/15:57:04.396233,1053,1531943824,395246580,map,base_link,-137.31995246,190.811229161,45.976,-0.287166219124,-0.250010375907,-0.552910122932,-0.741161770798,"(0.3480999690532691, 0.0, 0.0, 0.0, 0.0, 0.0, 0.0, 0.3480999690532691, 0.0, 0.0, 0.0, 0.0, 0.0, 0.0, 1.3923998762130765, 0.0, 0.0, 0.0, 0.0, 0.0, 0.0, 99999.0, 0.0, 0.0, 0.0, 0.0, 0.0, 0.0, 99999.0, 0.0, 0.0, 0.0, 0.0, 0.0, 0.0, 99999.0)",13.89,8.4,1.53,0.0,0.0,0.0,"(-1.0, 0.0, 0.0, 0.0, 0.0, 0.0, 0.0, 0.0, 0.0, 0.0, 0.0, 0.0, 0.0, 0.0, 0.0, 0.0, 0.0, 0.0, 0.0, 0.0, 0.0, 0.0, 0.0, 0.0, 0.0, 0.0, 0.0, 0.0, 0.0, 0.0, 0.0, 0.0, 0.0, 0.0, 0.0, 0.0)"
2018/07/18/15:57:04.609172,1054,1531943824,608107425,map,base_link,-135.37281967,193.376492246,45.696,-0.334036320489,-0.200836844244,-0.468174497615,-0.793030225383,"(0.3480999690532691, 0.0, 0.0, 0.0, 0.0, 0.0, 0.0, 0.3480999690532691, 0.0, 0.0, 0.0, 0.0, 0.0, 0.0, 1.3923998762130765, 0.0, 0.0, 0.0, 0.0, 0.0, 0.0, 99999.0, 0.0, 0.0, 0.0, 0.0, 0.0, 0.0, 99999.0, 0.0, 0.0, 0.0, 0.0, 0.0, 0.0, 99999.0)",12.92,10.21,1.38,0.0,0.0,0.0,"(-1.0, 0.0, 0.0, 0.0, 0.0, 0.0, 0.0, 0.0, 0.0, 0.0, 0.0, 0.0, 0.0, 0.0, 0.0, 0.0, 0.0, 0.0, 0.0, 0.0, 0.0, 0.0, 0.0, 0.0, 0.0, 0.0, 0.0, 0.0, 0.0, 0.0, 0.0, 0.0, 0.0, 0.0, 0.0, 0.0)"
2018/07/18/15:57:04.884750,1055,1531943824,883812931,map,base_link,-132.316691932,196.352627951,45.378,-0.334036320489,-0.200836844244,-0.468174497615,-0.793030225383,"(0.3480999690532691, 0.0, 0.0, 0.0, 0.0, 0.0, 0.0, 0.3480999690532691, 0.0, 0.0, 0.0, 0.0, 0.0, 0.0, 1.3923998762130765, 0.0, 0.0, 0.0, 0.0, 0.0, 0.0, 99999.0, 0.0, 0.0, 0.0, 0.0, 0.0, 0.0, 99999.0, 0.0, 0.0, 0.0, 0.0, 0.0, 0.0, 99999.0)",11.22,12.62,1.19,0.0,0.0,0.0,"(-1.0, 0.0, 0.0, 0.0, 0.0, 0.0, 0.0, 0.0, 0.0, 0.0, 0.0, 0.0, 0.0, 0.0, 0.0, 0.0, 0.0, 0.0, 0.0, 0.0, 0.0, 0.0, 0.0, 0.0, 0.0, 0.0, 0.0, 0.0, 0.0, 0.0, 0.0, 0.0, 0.0, 0.0, 0.0, 0.0)"
2018/07/18/15:57:05.114244,1056,1531943825,113539138,map,base_link,-128.693385355,198.817917296,45.142,-0.377779402925,-0.150180297242,-0.364711062948,-0.837683974783,"(0.3480999690532691, 0.0, 0.0, 0.0, 0.0, 0.0, 0.0, 0.3480999690532691, 0.0, 0.0, 0.0, 0.0, 0.0, 0.0, 1.3923998762130765, 0.0, 0.0, 0.0, 0.0, 0.0, 0.0, 99999.0, 0.0, 0.0, 0.0, 0.0, 0.0, 0.0, 99999.0, 0.0, 0.0, 0.0, 0.0, 0.0, 0.0, 99999.0)",9.08,14.72,0.81,0.0,0.0,0.0,"(-1.0, 0.0, 0.0, 0.0, 0.0, 0.0, 0.0, 0.0, 0.0, 0.0, 0.0, 0.0, 0.0, 0.0, 0.0, 0.0, 0.0, 0.0, 0.0, 0.0, 0.0, 0.0, 0.0, 0.0, 0.0, 0.0, 0.0, 0.0, 0.0, 0.0, 0.0, 0.0, 0.0, 0.0, 0.0, 0.0)"
2018/07/18/15:57:05.330835,1057,1531943825,330160935,map,base_link,-125.594964168,200.317066006,45.026,-0.377779402925,-0.150180297242,-0.364711062948,-0.837683974783,"(0.3480999690532691, 0.0, 0.0, 0.0, 0.0, 0.0, 0.0, 0.3480999690532691, 0.0, 0.0, 0.0, 0.0, 0.0, 0.0, 1.3923998762130765, 0.0, 0.0, 0.0, 0.0, 0.0, 0.0, 99999.0, 0.0, 0.0, 0.0, 0.0, 0.0, 0.0, 99999.0, 0.0, 0.0, 0.0, 0.0, 0.0, 0.0, 99999.0)",7.33,15.91,0.56,0.0,0.0,0.0,"(-1.0, 0.0, 0.0, 0.0, 0.0, 0.0, 0.0, 0.0, 0.0, 0.0, 0.0, 0.0, 0.0, 0.0, 0.0, 0.0, 0.0, 0.0, 0.0, 0.0, 0.0, 0.0, 0.0, 0.0, 0.0, 0.0, 0.0, 0.0, 0.0, 0.0, 0.0, 0.0, 0.0, 0.0, 0.0, 0.0)"
2018/07/18/15:57:05.606693,1058,1531943825,601493350,map,base_link,-120.955816255,201.816194917,45.03,-0.369282210772,-0.0819867090152,-0.27319136168,-0.884463288247,"(0.3480999690532691, 0.0, 0.0, 0.0, 0.0, 0.0, 0.0, 0.3480999690532691, 0.0, 0.0, 0.0, 0.0, 0.0, 0.0, 1.3923998762130765, 0.0, 0.0, 0.0, 0.0, 0.0, 0.0, 99999.0, 0.0, 0.0, 0.0, 0.0, 0.0, 0.0, 99999.0, 0.0, 0.0, 0.0, 0.0, 0.0, 0.0, 99999.0)",4.61,17.16,-0.18,0.0,0.0,0.0,"(-1.0, 0.0, 0.0, 0.0, 0.0, 0.0, 0.0, 0.0, 0.0, 0.0, 0.0, 0.0, 0.0, 0.0, 0.0, 0.0, 0.0, 0.0, 0.0, 0.0, 0.0, 0.0, 0.0, 0.0, 0.0, 0.0, 0.0, 0.0, 0.0, 0.0, 0.0, 0.0, 0.0, 0.0, 0.0, 0.0)"
2018/07/18/15:57:05.853240,1059,1531943825,851511181,map,base_link,-116.824618012,202.560184488,45.207,-0.327582733336,-0.0186024538567,-0.197462556324,-0.923770556134,"(0.3480999690532691, 0.0, 0.0, 0.0, 0.0, 0.0, 0.0, 0.3480999690532691, 0.0, 0.0, 0.0, 0.0, 0.0, 0.0, 1.3923998762130765, 0.0, 0.0, 0.0, 0.0, 0.0, 0.0, 99999.0, 0.0, 0.0, 0.0, 0.0, 0.0, 0.0, 99999.0, 0.0, 0.0, 0.0, 0.0, 0.0, 0.0, 99999.0)",2.5,17.62,-0.8,0.0,0.0,0.0,"(-1.0, 0.0, 0.0, 0.0, 0.0, 0.0, 0.0, 0.0, 0.0, 0.0, 0.0, 0.0, 0.0, 0.0, 0.0, 0.0, 0.0, 0.0, 0.0, 0.0, 0.0, 0.0, 0.0, 0.0, 0.0, 0.0, 0.0, 0.0, 0.0, 0.0, 0.0, 0.0, 0.0, 0.0, 0.0, 0.0)"
2018/07/18/15:57:06.073601,1060,1531943826,70323609,map,base_link,-113.091310509,202.859977871,45.514,-0.28279444154,0.0270577565659,-0.154935634879,-0.94619772283,"(0.3480999690532691, 0.0, 0.0, 0.0, 0.0, 0.0, 0.0, 0.3480999690532691, 0.0, 0.0, 0.0, 0.0, 0.0, 0.0, 1.3923998762130765, 0.0, 0.0, 0.0, 0.0, 0.0, 0.0, 99999.0, 0.0, 0.0, 0.0, 0.0, 0.0, 0.0, 99999.0, 0.0, 0.0, 0.0, 0.0, 0.0, 0.0, 99999.0)",0.92,17.62,-1.32,0.0,0.0,0.0,"(-1.0, 0.0, 0.0, 0.0, 0.0, 0.0, 0.0, 0.0, 0.0, 0.0, 0.0, 0.0, 0.0, 0.0, 0.0, 0.0, 0.0, 0.0, 0.0, 0.0, 0.0, 0.0, 0.0, 0.0, 0.0, 0.0, 0.0, 0.0, 0.0, 0.0, 0.0, 0.0, 0.0, 0.0, 0.0, 0.0)"
2018/07/18/15:57:06.328509,1061,1531943826,327550125,map,base_link,-109.01938681,202.904352145,45.951,-0.28279444154,0.0270577565659,-0.154935634879,-0.94619772283,"(0.3480999690532691, 0.0, 0.0, 0.0, 0.0, 0.0, 0.0, 0.3480999690532691, 0.0, 0.0, 0.0, 0.0, 0.0, 0.0, 1.3923998762130765, 0.0, 0.0, 0.0, 0.0, 0.0, 0.0, 99999.0, 0.0, 0.0, 0.0, 0.0, 0.0, 0.0, 99999.0, 0.0, 0.0, 0.0, 0.0, 0.0, 0.0, 99999.0)",-0.23,17.35,-1.57,0.0,0.0,0.0,"(-1.0, 0.0, 0.0, 0.0, 0.0, 0.0, 0.0, 0.0, 0.0, 0.0, 0.0, 0.0, 0.0, 0.0, 0.0, 0.0, 0.0, 0.0, 0.0, 0.0, 0.0, 0.0, 0.0, 0.0, 0.0, 0.0, 0.0, 0.0, 0.0, 0.0, 0.0, 0.0, 0.0, 0.0, 0.0, 0.0)"
2018/07/18/15:57:06.567291,1062,1531943826,566314022,map,base_link,-104.380274822,202.771040559,46.507,-0.15794653605,0.0581509896241,-0.0963330542547,-0.98101544168,"(0.3480999690532691, 0.0, 0.0, 0.0, 0.0, 0.0, 0.0, 0.3480999690532691, 0.0, 0.0, 0.0, 0.0, 0.0, 0.0, 1.3923998762130765, 0.0, 0.0, 0.0, 0.0, 0.0, 0.0, 99999.0, 0.0, 0.0, 0.0, 0.0, 0.0, 0.0, 99999.0, 0.0, 0.0, 0.0, 0.0, 0.0, 0.0, 99999.0)",-0.94,16.94,-1.62,0.0,0.0,0.0,"(-1.0, 0.0, 0.0, 0.0, 0.0, 0.0, 0.0, 0.0, 0.0, 0.0, 0.0, 0.0, 0.0, 0.0, 0.0, 0.0, 0.0, 0.0, 0.0, 0.0, 0.0, 0.0, 0.0, 0.0, 0.0, 0.0, 0.0, 0.0, 0.0, 0.0, 0.0, 0.0, 0.0, 0.0, 0.0, 0.0)"
2018/07/18/15:57:06.805916,1063,1531943826,804055403,map,base_link,-100.790889795,202.59332218,46.964,-0.15794653605,0.0581509896241,-0.0963330542547,-0.98101544168,"(0.3480999690532691, 0.0, 0.0, 0.0, 0.0, 0.0, 0.0, 0.3480999690532691, 0.0, 0.0, 0.0, 0.0, 0.0, 0.0, 1.3923998762130765, 0.0, 0.0, 0.0, 0.0, 0.0, 0.0, 99999.0, 0.0, 0.0, 0.0, 0.0, 0.0, 0.0, 99999.0, 0.0, 0.0, 0.0, 0.0, 0.0, 0.0, 99999.0)",-1.22,16.57,-1.97,0.0,0.0,0.0,"(-1.0, 0.0, 0.0, 0.0, 0.0, 0.0, 0.0, 0.0, 0.0, 0.0, 0.0, 0.0, 0.0, 0.0, 0.0, 0.0, 0.0, 0.0, 0.0, 0.0, 0.0, 0.0, 0.0, 0.0, 0.0, 0.0, 0.0, 0.0, 0.0, 0.0, 0.0, 0.0, 0.0, 0.0, 0.0, 0.0)"
2018/07/18/15:57:07.070969,1064,1531943827,66613280,map,base_link,-96.6427796874,202.382286367,47.547,-0.0449488463651,0.0697503208853,-0.0551096638347,-0.995026340807,"(0.3480999690532691, 0.0, 0.0, 0.0, 0.0, 0.0, 0.0, 0.3480999690532691, 0.0, 0.0, 0.0, 0.0, 0.0, 0.0, 1.3923998762130765, 0.0, 0.0, 0.0, 0.0, 0.0, 0.0, 99999.0, 0.0, 0.0, 0.0, 0.0, 0.0, 0.0, 99999.0, 0.0, 0.0, 0.0, 0.0, 0.0, 0.0, 99999.0)",-1.22,16.22,-1.97,0.0,0.0,0.0,"(-1.0, 0.0, 0.0, 0.0, 0.0, 0.0, 0.0, 0.0, 0.0, 0.0, 0.0, 0.0, 0.0, 0.0, 0.0, 0.0, 0.0, 0.0, 0.0, 0.0, 0.0, 0.0, 0.0, 0.0, 0.0, 0.0, 0.0, 0.0, 0.0, 0.0, 0.0, 0.0, 0.0, 0.0, 0.0, 0.0)"
2018/07/18/15:57:07.329200,1065,1531943827,327174194,map,base_link,-92.5623916219,202.21567268,48.069,0.0228263635623,0.0679611159993,-0.0406595458038,-0.996597734883,"(0.3480999690532691, 0.0, 0.0, 0.0, 0.0, 0.0, 0.0, 0.3480999690532691, 0.0, 0.0, 0.0, 0.0, 0.0, 0.0, 1.3923998762130765, 0.0, 0.0, 0.0, 0.0, 0.0, 0.0, 99999.0, 0.0, 0.0, 0.0, 0.0, 0.0, 0.0, 99999.0, 0.0, 0.0, 0.0, 0.0, 0.0, 0.0, 99999.0)",-1.03,15.94,-1.76,0.0,0.0,0.0,"(-1.0, 0.0, 0.0, 0.0, 0.0, 0.0, 0.0, 0.0, 0.0, 0.0, 0.0, 0.0, 0.0, 0.0, 0.0, 0.0, 0.0, 0.0, 0.0, 0.0, 0.0, 0.0, 0.0, 0.0, 0.0, 0.0, 0.0, 0.0, 0.0, 0.0, 0.0, 0.0, 0.0, 0.0, 0.0, 0.0)"
2018/07/18/15:57:07.571891,1066,1531943827,570534040,map,base_link,-88.8121578011,202.104589053,48.512,0.0228263635623,0.0679611159993,-0.0406595458038,-0.996597734883,"(0.3480999690532691, 0.0, 0.0, 0.0, 0.0, 0.0, 0.0, 0.3480999690532691, 0.0, 0.0, 0.0, 0.0, 0.0, 0.0, 1.3923998762130765, 0.0, 0.0, 0.0, 0.0, 0.0, 0.0, 99999.0, 0.0, 0.0, 0.0, 0.0, 0.0, 0.0, 99999.0, 0.0, 0.0, 0.0, 0.0, 0.0, 0.0, 99999.0)",-0.76,15.71,-1.76,0.0,0.0,0.0,"(-1.0, 0.0, 0.0, 0.0, 0.0, 0.0, 0.0, 0.0, 0.0, 0.0, 0.0, 0.0, 0.0, 0.0, 0.0, 0.0, 0.0, 0.0, 0.0, 0.0, 0.0, 0.0, 0.0, 0.0, 0.0, 0.0, 0.0, 0.0, 0.0, 0.0, 0.0, 0.0, 0.0, 0.0, 0.0, 0.0)"
2018/07/18/15:57:07.819848,1067,1531943827,810326378,map,base_link,-85.0957838843,202.0712424,48.903,0.0660374103262,0.0583754813027,-0.050313769036,-0.994836613854,"(0.3480999690532691, 0.0, 0.0, 0.0, 0.0, 0.0, 0.0, 0.3480999690532691, 0.0, 0.0, 0.0, 0.0, 0.0, 0.0, 1.3923998762130765, 0.0, 0.0, 0.0, 0.0, 0.0, 0.0, 99999.0, 0.0, 0.0, 0.0, 0.0, 0.0, 0.0, 99999.0, 0.0, 0.0, 0.0, 0.0, 0.0, 0.0, 99999.0)",-0.42,15.59,-1.46,0.0,0.0,0.0,"(-1.0, 0.0, 0.0, 0.0, 0.0, 0.0, 0.0, 0.0, 0.0, 0.0, 0.0, 0.0, 0.0, 0.0, 0.0, 0.0, 0.0, 0.0, 0.0, 0.0, 0.0, 0.0, 0.0, 0.0, 0.0, 0.0, 0.0, 0.0, 0.0, 0.0, 0.0, 0.0, 0.0, 0.0, 0.0, 0.0)"
2018/07/18/15:57:08.012803,1068,1531943828,11740182,map,base_link,-81.6926328561,202.09342305,49.16,0.0660374103262,0.0583754813027,-0.050313769036,-0.994836613854,"(0.3480999690532691, 0.0, 0.0, 0.0, 0.0, 0.0, 0.0, 0.3480999690532691, 0.0, 0.0, 0.0, 0.0, 0.0, 0.0, 1.3923998762130765, 0.0, 0.0, 0.0, 0.0, 0.0, 0.0, 99999.0, 0.0, 0.0, 0.0, 0.0, 0.0, 0.0, 99999.0, 0.0, 0.0, 0.0, 0.0, 0.0, 0.0, 99999.0)",-0.07,15.52,-1.02,0.0,0.0,0.0,"(-1.0, 0.0, 0.0, 0.0, 0.0, 0.0, 0.0, 0.0, 0.0, 0.0, 0.0, 0.0, 0.0, 0.0, 0.0, 0.0, 0.0, 0.0, 0.0, 0.0, 0.0, 0.0, 0.0, 0.0, 0.0, 0.0, 0.0, 0.0, 0.0, 0.0, 0.0, 0.0, 0.0, 0.0, 0.0, 0.0)"
2018/07/18/15:57:08.295080,1069,1531943828,290816714,map,base_link,-77.7222871552,202.204438319,49.333,0.0842481858079,0.0452104414144,-0.0707723061237,-0.992899561819,"(0.3480999690532691, 0.0, 0.0, 0.0, 0.0, 0.0, 0.0, 0.3480999690532691, 0.0, 0.0, 0.0, 0.0, 0.0, 0.0, 1.3923998762130765, 0.0, 0.0, 0.0, 0.0, 0.0, 0.0, 99999.0, 0.0, 0.0, 0.0, 0.0, 0.0, 0.0, 99999.0, 0.0, 0.0, 0.0, 0.0, 0.0, 0.0, 99999.0)",0.4,15.49,-0.75,0.0,0.0,0.0,"(-1.0, 0.0, 0.0, 0.0, 0.0, 0.0, 0.0, 0.0, 0.0, 0.0, 0.0, 0.0, 0.0, 0.0, 0.0, 0.0, 0.0, 0.0, 0.0, 0.0, 0.0, 0.0, 0.0, 0.0, 0.0, 0.0, 0.0, 0.0, 0.0, 0.0, 0.0, 0.0, 0.0, 0.0, 0.0, 0.0)"
2018/07/18/15:57:08.520002,1070,1531943828,518151355,map,base_link,-74.0143717514,202.437613957,49.442,0.0842481858079,0.0452104414144,-0.0707723061237,-0.992899561819,"(0.3480999690532691, 0.0, 0.0, 0.0, 0.0, 0.0, 0.0, 0.3480999690532691, 0.0, 0.0, 0.0, 0.0, 0.0, 0.0, 1.3923998762130765, 0.0, 0.0, 0.0, 0.0, 0.0, 0.0, 99999.0, 0.0, 0.0, 0.0, 0.0, 0.0, 0.0, 99999.0, 0.0, 0.0, 0.0, 0.0, 0.0, 0.0, 99999.0)",1.0,15.49,-0.5,0.0,0.0,0.0,"(-1.0, 0.0, 0.0, 0.0, 0.0, 0.0, 0.0, 0.0, 0.0, 0.0, 0.0, 0.0, 0.0, 0.0, 0.0, 0.0, 0.0, 0.0, 0.0, 0.0, 0.0, 0.0, 0.0, 0.0, 0.0, 0.0, 0.0, 0.0, 0.0, 0.0, 0.0, 0.0, 0.0, 0.0, 0.0, 0.0)"
2018/07/18/15:57:08.791924,1071,1531943828,790713055,map,base_link,-69.9678317047,202.837364198,49.471,0.110580212483,0.0254510013005,-0.0868808235329,-0.9897353109,"(0.3480999690532691, 0.0, 0.0, 0.0, 0.0, 0.0, 0.0, 0.3480999690532691, 0.0, 0.0, 0.0, 0.0, 0.0, 0.0, 1.3923998762130765, 0.0, 0.0, 0.0, 0.0, 0.0, 0.0, 99999.0, 0.0, 0.0, 0.0, 0.0, 0.0, 0.0, 99999.0, 0.0, 0.0, 0.0, 0.0, 0.0, 0.0, 99999.0)",1.45,15.57,-0.02,0.0,0.0,0.0,"(-1.0, 0.0, 0.0, 0.0, 0.0, 0.0, 0.0, 0.0, 0.0, 0.0, 0.0, 0.0, 0.0, 0.0, 0.0, 0.0, 0.0, 0.0, 0.0, 0.0, 0.0, 0.0, 0.0, 0.0, 0.0, 0.0, 0.0, 0.0, 0.0, 0.0, 0.0, 0.0, 0.0, 0.0, 0.0, 0.0)"
2018/07/18/15:57:08.996576,1072,1531943828,994993836,map,base_link,-66.8525029853,203.192701767,49.435,0.0636345595785,0.0149446024873,-0.105159367404,-0.992304796487,"(0.3480999690532691, 0.0, 0.0, 0.0, 0.0, 0.0, 0.0, 0.3480999690532691, 0.0, 0.0, 0.0, 0.0, 0.0, 0.0, 1.3923998762130765, 0.0, 0.0, 0.0, 0.0, 0.0, 0.0, 99999.0, 0.0, 0.0, 0.0, 0.0, 0.0, 0.0, 99999.0, 0.0, 0.0, 0.0, 0.0, 0.0, 0.0, 99999.0)",1.75,15.65,0.11,0.0,0.0,0.0,"(-1.0, 0.0, 0.0, 0.0, 0.0, 0.0, 0.0, 0.0, 0.0, 0.0, 0.0, 0.0, 0.0, 0.0, 0.0, 0.0, 0.0, 0.0, 0.0, 0.0, 0.0, 0.0, 0.0, 0.0, 0.0, 0.0, 0.0, 0.0, 0.0, 0.0, 0.0, 0.0, 0.0, 0.0, 0.0, 0.0)"
2018/07/18/15:57:09.207978,1073,1531943829,207011903,map,base_link,-63.1191880406,203.659087697,49.391,0.0636345595785,0.0149446024873,-0.105159367404,-0.992304796487,"(0.3480999690532691, 0.0, 0.0, 0.0, 0.0, 0.0, 0.0, 0.3480999690532691, 0.0, 0.0, 0.0, 0.0, 0.0, 0.0, 1.3923998762130765, 0.0, 0.0, 0.0, 0.0, 0.0, 0.0, 99999.0, 0.0, 0.0, 0.0, 0.0, 0.0, 0.0, 99999.0, 0.0, 0.0, 0.0, 0.0, 0.0, 0.0, 99999.0)",2.01,15.78,0.15,0.0,0.0,0.0,"(-1.0, 0.0, 0.0, 0.0, 0.0, 0.0, 0.0, 0.0, 0.0, 0.0, 0.0, 0.0, 0.0, 0.0, 0.0, 0.0, 0.0, 0.0, 0.0, 0.0, 0.0, 0.0, 0.0, 0.0, 0.0, 0.0, 0.0, 0.0, 0.0, 0.0, 0.0, 0.0, 0.0, 0.0, 0.0, 0.0)"
2018/07/18/15:57:09.457255,1074,1531943829,456506310,map,base_link,-59.5805814799,204.114371813,49.352,4.95975664359e-05,-0.00818831984887,-0.128623831466,-0.991659648739,"(0.3480999690532691, 0.0, 0.0, 0.0, 0.0, 0.0, 0.0, 0.3480999690532691, 0.0, 0.0, 0.0, 0.0, 0.0, 0.0, 1.3923998762130765, 0.0, 0.0, 0.0, 0.0, 0.0, 0.0, 99999.0, 0.0, 0.0, 0.0, 0.0, 0.0, 0.0, 99999.0, 0.0, 0.0, 0.0, 0.0, 0.0, 0.0, 99999.0)",2.14,15.98,0.1,0.0,0.0,0.0,"(-1.0, 0.0, 0.0, 0.0, 0.0, 0.0, 0.0, 0.0, 0.0, 0.0, 0.0, 0.0, 0.0, 0.0, 0.0, 0.0, 0.0, 0.0, 0.0, 0.0, 0.0, 0.0, 0.0, 0.0, 0.0, 0.0, 0.0, 0.0, 0.0, 0.0, 0.0, 0.0, 0.0, 0.0, 0.0, 0.0)"
2018/07/18/15:57:09.672025,1075,1531943829,671032826,map,base_link,-55.7118184116,204.614076056,49.312,4.95975664359e-05,-0.00818831984887,-0.128623831466,-0.991659648739,"(0.3480999690532691, 0.0, 0.0, 0.0, 0.0, 0.0, 0.0, 0.3480999690532691, 0.0, 0.0, 0.0, 0.0, 0.0, 0.0, 1.3923998762130765, 0.0, 0.0, 0.0, 0.0, 0.0, 0.0, 99999.0, 0.0, 0.0, 0.0, 0.0, 0.0, 0.0, 99999.0, 0.0, 0.0, 0.0, 0.0, 0.0, 0.0, 99999.0)",2.18,16.17,0.34,0.0,0.0,0.0,"(-1.0, 0.0, 0.0, 0.0, 0.0, 0.0, 0.0, 0.0, 0.0, 0.0, 0.0, 0.0, 0.0, 0.0, 0.0, 0.0, 0.0, 0.0, 0.0, 0.0, 0.0, 0.0, 0.0, 0.0, 0.0, 0.0, 0.0, 0.0, 0.0, 0.0, 0.0, 0.0, 0.0, 0.0, 0.0, 0.0)"
2018/07/18/15:57:09.945728,1076,1531943829,944622425,map,base_link,-51.4621054822,205.135988837,49.239,-0.0411953023505,-0.0196113052937,-0.12295935401,-0.991362366156,"(0.3480999690532691, 0.0, 0.0, 0.0, 0.0, 0.0, 0.0, 0.3480999690532691, 0.0, 0.0, 0.0, 0.0, 0.0, 0.0, 1.3923998762130765, 0.0, 0.0, 0.0, 0.0, 0.0, 0.0, 99999.0, 0.0, 0.0, 0.0, 0.0, 0.0, 0.0, 99999.0, 0.0, 0.0, 0.0, 0.0, 0.0, 0.0, 99999.0)",2.09,16.41,0.17,0.0,0.0,0.0,"(-1.0, 0.0, 0.0, 0.0, 0.0, 0.0, 0.0, 0.0, 0.0, 0.0, 0.0, 0.0, 0.0, 0.0, 0.0, 0.0, 0.0, 0.0, 0.0, 0.0, 0.0, 0.0, 0.0, 0.0, 0.0, 0.0, 0.0, 0.0, 0.0, 0.0, 0.0, 0.0, 0.0, 0.0, 0.0, 0.0)"
2018/07/18/15:57:10.166013,1077,1531943830,164818763,map,base_link,-47.7541892587,205.557960068,49.143,-0.0411953023505,-0.0196113052937,-0.12295935401,-0.991362366156,"(0.3480999690532691, 0.0, 0.0, 0.0, 0.0, 0.0, 0.0, 0.3480999690532691, 0.0, 0.0, 0.0, 0.0, 0.0, 0.0, 1.3923998762130765, 0.0, 0.0, 0.0, 0.0, 0.0, 0.0, 99999.0, 0.0, 0.0, 0.0, 0.0, 0.0, 0.0, 99999.0, 0.0, 0.0, 0.0, 0.0, 0.0, 0.0, 99999.0)",2.04,16.52,0.43,0.0,0.0,0.0,"(-1.0, 0.0, 0.0, 0.0, 0.0, 0.0, 0.0, 0.0, 0.0, 0.0, 0.0, 0.0, 0.0, 0.0, 0.0, 0.0, 0.0, 0.0, 0.0, 0.0, 0.0, 0.0, 0.0, 0.0, 0.0, 0.0, 0.0, 0.0, 0.0, 0.0, 0.0, 0.0, 0.0, 0.0, 0.0, 0.0)"
2018/07/18/15:57:10.368645,1078,1531943830,367019484,map,base_link,-44.3341031128,205.913305068,49.107,-0.0705203179902,-0.0128141969661,-0.0836716188944,-0.993912340852,"(0.3480999690532691, 0.0, 0.0, 0.0, 0.0, 0.0, 0.0, 0.3480999690532691, 0.0, 0.0, 0.0, 0.0, 0.0, 0.0, 1.3923998762130765, 0.0, 0.0, 0.0, 0.0, 0.0, 0.0, 99999.0, 0.0, 0.0, 0.0, 0.0, 0.0, 0.0, 99999.0, 0.0, 0.0, 0.0, 0.0, 0.0, 0.0, 99999.0)",1.82,16.66,0.11,0.0,0.0,0.0,"(-1.0, 0.0, 0.0, 0.0, 0.0, 0.0, 0.0, 0.0, 0.0, 0.0, 0.0, 0.0, 0.0, 0.0, 0.0, 0.0, 0.0, 0.0, 0.0, 0.0, 0.0, 0.0, 0.0, 0.0, 0.0, 0.0, 0.0, 0.0, 0.0, 0.0, 0.0, 0.0, 0.0, 0.0, 0.0, 0.0)"
2018/07/18/15:57:10.624314,1079,1531943830,622593567,map,base_link,-39.9404788766,206.279752556,49.091,-0.0705203179902,-0.0128141969661,-0.0836716188944,-0.993912340852,"(0.3844000059127808, 0.0, 0.0, 0.0, 0.0, 0.0, 0.0, 0.3844000059127808, 0.0, 0.0, 0.0, 0.0, 0.0, 0.0, 1.5376000236511231, 0.0, 0.0, 0.0, 0.0, 0.0, 0.0, 99999.0, 0.0, 0.0, 0.0, 0.0, 0.0, 0.0, 99999.0, 0.0, 0.0, 0.0, 0.0, 0.0, 0.0, 99999.0)",1.46,16.8,0.28,0.0,0.0,0.0,"(-1.0, 0.0, 0.0, 0.0, 0.0, 0.0, 0.0, 0.0, 0.0, 0.0, 0.0, 0.0, 0.0, 0.0, 0.0, 0.0, 0.0, 0.0, 0.0, 0.0, 0.0, 0.0, 0.0, 0.0, 0.0, 0.0, 0.0, 0.0, 0.0, 0.0, 0.0, 0.0, 0.0, 0.0, 0.0, 0.0)"
2018/07/18/15:57:10.871440,1080,1531943830,869708457,map,base_link,-35.4368029904,206.546252753,49.01,-0.0766937688667,-0.0201003599378,-0.0179994952454,-0.99668955022,"(0.3844000059127808, 0.0, 0.0, 0.0, 0.0, 0.0, 0.0, 0.3844000059127808, 0.0, 0.0, 0.0, 0.0, 0.0, 0.0, 1.5376000236511231, 0.0, 0.0, 0.0, 0.0, 0.0, 0.0, 99999.0, 0.0, 0.0, 0.0, 0.0, 0.0, 0.0, 99999.0, 0.0, 0.0, 0.0, 0.0, 0.0, 0.0, 99999.0)",0.98,16.89,0.48,0.0,0.0,0.0,"(-1.0, 0.0, 0.0, 0.0, 0.0, 0.0, 0.0, 0.0, 0.0, 0.0, 0.0, 0.0, 0.0, 0.0, 0.0, 0.0, 0.0, 0.0, 0.0, 0.0, 0.0, 0.0, 0.0, 0.0, 0.0, 0.0, 0.0, 0.0, 0.0, 0.0, 0.0, 0.0, 0.0, 0.0, 0.0, 0.0)"
2018/07/18/15:57:11.138817,1081,1531943831,137766582,map,base_link,-30.950059145,206.668387076,48.917,-0.0941950445477,-0.00460902482526,-0.00685058555384,-0.995519522636,"(0.3844000059127808, 0.0, 0.0, 0.0, 0.0, 0.0, 0.0, 0.3844000059127808, 0.0, 0.0, 0.0, 0.0, 0.0, 0.0, 1.5376000236511231, 0.0, 0.0, 0.0, 0.0, 0.0, 0.0, 99999.0, 0.0, 0.0, 0.0, 0.0, 0.0, 0.0, 99999.0, 0.0, 0.0, 0.0, 0.0, 0.0, 0.0, 99999.0)",0.39,16.97,0.33,0.0,0.0,0.0,"(-1.0, 0.0, 0.0, 0.0, 0.0, 0.0, 0.0, 0.0, 0.0, 0.0, 0.0, 0.0, 0.0, 0.0, 0.0, 0.0, 0.0, 0.0, 0.0, 0.0, 0.0, 0.0, 0.0, 0.0, 0.0, 0.0, 0.0, 0.0, 0.0, 0.0, 0.0, 0.0, 0.0, 0.0, 0.0, 0.0)"
2018/07/18/15:57:11.347562,1082,1531943831,345741605,map,base_link,-27.5723038672,206.646163356,48.919,-0.0941950445477,-0.00460902482526,-0.00685058555384,-0.995519522636,"(0.3844000059127808, 0.0, 0.0, 0.0, 0.0, 0.0, 0.0, 0.3844000059127808, 0.0, 0.0, 0.0, 0.0, 0.0, 0.0, 1.5376000236511231, 0.0, 0.0, 0.0, 0.0, 0.0, 0.0, 99999.0, 0.0, 0.0, 0.0, 0.0, 0.0, 0.0, 99999.0, 0.0, 0.0, 0.0, 0.0, 0.0, 0.0, 99999.0)",-0.01,17.04,-0.12,0.0,0.0,0.0,"(-1.0, 0.0, 0.0, 0.0, 0.0, 0.0, 0.0, 0.0, 0.0, 0.0, 0.0, 0.0, 0.0, 0.0, 0.0, 0.0, 0.0, 0.0, 0.0, 0.0, 0.0, 0.0, 0.0, 0.0, 0.0, 0.0, 0.0, 0.0, 0.0, 0.0, 0.0, 0.0, 0.0, 0.0, 0.0, 0.0)"
2018/07/18/15:57:11.576690,1083,1531943831,576000131,map,base_link,-23.7120127834,206.57952356,49.066,-0.0544891368912,0.0212331967645,-0.0324654352626,-0.997760532808,"(0.3844000059127808, 0.0, 0.0, 0.0, 0.0, 0.0, 0.0, 0.3844000059127808, 0.0, 0.0, 0.0, 0.0, 0.0, 0.0, 1.5376000236511231, 0.0, 0.0, 0.0, 0.0, 0.0, 0.0, 99999.0, 0.0, 0.0, 0.0, 0.0, 0.0, 0.0, 99999.0, 0.0, 0.0, 0.0, 0.0, 0.0, 0.0, 99999.0)",-0.17,17.09,-0.72,0.0,0.0,0.0,"(-1.0, 0.0, 0.0, 0.0, 0.0, 0.0, 0.0, 0.0, 0.0, 0.0, 0.0, 0.0, 0.0, 0.0, 0.0, 0.0, 0.0, 0.0, 0.0, 0.0, 0.0, 0.0, 0.0, 0.0, 0.0, 0.0, 0.0, 0.0, 0.0, 0.0, 0.0, 0.0, 0.0, 0.0, 0.0, 0.0)"
2018/07/18/15:57:11.828720,1084,1531943831,825881137,map,base_link,-19.1490810438,206.523994673,49.384,0.0085846498301,0.0184710876475,-0.0368389020588,-0.999113616164,"(0.3844000059127808, 0.0, 0.0, 0.0, 0.0, 0.0, 0.0, 0.3844000059127808, 0.0, 0.0, 0.0, 0.0, 0.0, 0.0, 1.5376000236511231, 0.0, 0.0, 0.0, 0.0, 0.0, 0.0, 99999.0, 0.0, 0.0, 0.0, 0.0, 0.0, 0.0, 99999.0, 0.0, 0.0, 0.0, 0.0, 0.0, 0.0, 99999.0)",0.0,17.08,-0.91,0.0,0.0,0.0,"(-1.0, 0.0, 0.0, 0.0, 0.0, 0.0, 0.0, 0.0, 0.0, 0.0, 0.0, 0.0, 0.0, 0.0, 0.0, 0.0, 0.0, 0.0, 0.0, 0.0, 0.0, 0.0, 0.0, 0.0, 0.0, 0.0, 0.0, 0.0, 0.0, 0.0, 0.0, 0.0, 0.0, 0.0, 0.0, 0.0)"
2018/07/18/15:57:12.075842,1085,1531943832,74912395,map,base_link,-15.0263572168,206.523992366,49.603,0.0085846498301,0.0184710876475,-0.0368389020588,-0.999113616164,"(0.3844000059127808, 0.0, 0.0, 0.0, 0.0, 0.0, 0.0, 0.3844000059127808, 0.0, 0.0, 0.0, 0.0, 0.0, 0.0, 1.5376000236511231, 0.0, 0.0, 0.0, 0.0, 0.0, 0.0, 99999.0, 0.0, 0.0, 0.0, 0.0, 0.0, 0.0, 99999.0, 0.0, 0.0, 0.0, 0.0, 0.0, 0.0, 99999.0)",0.03,17.11,-0.53,0.0,0.0,0.0,"(-1.0, 0.0, 0.0, 0.0, 0.0, 0.0, 0.0, 0.0, 0.0, 0.0, 0.0, 0.0, 0.0, 0.0, 0.0, 0.0, 0.0, 0.0, 0.0, 0.0, 0.0, 0.0, 0.0, 0.0, 0.0, 0.0, 0.0, 0.0, 0.0, 0.0, 0.0, 0.0, 0.0, 0.0, 0.0, 0.0)"
2018/07/18/15:57:12.335254,1086,1531943832,333398551,map,base_link,-10.1332675633,206.512882448,49.712,0.000571770916874,0.00336108071606,-0.00943639218232,-0.999949664092,"(0.3844000059127808, 0.0, 0.0, 0.0, 0.0, 0.0, 0.0, 0.3844000059127808, 0.0, 0.0, 0.0, 0.0, 0.0, 0.0, 1.5376000236511231, 0.0, 0.0, 0.0, 0.0, 0.0, 0.0, 99999.0, 0.0, 0.0, 0.0, 0.0, 0.0, 0.0, 99999.0, 0.0, 0.0, 0.0, 0.0, 0.0, 0.0, 99999.0)",-0.05,17.16,-0.05,0.0,0.0,0.0,"(-1.0, 0.0, 0.0, 0.0, 0.0, 0.0, 0.0, 0.0, 0.0, 0.0, 0.0, 0.0, 0.0, 0.0, 0.0, 0.0, 0.0, 0.0, 0.0, 0.0, 0.0, 0.0, 0.0, 0.0, 0.0, 0.0, 0.0, 0.0, 0.0, 0.0, 0.0, 0.0, 0.0, 0.0, 0.0, 0.0)"
2018/07/18/15:57:12.525778,1087,1531943832,524864981,map,base_link,-6.95868500461,206.501773577,49.719,-0.00961954650897,-0.00428181037559,-0.0148627383833,-0.999834100955,"(0.3844000059127808, 0.0, 0.0, 0.0, 0.0, 0.0, 0.0, 0.3844000059127808, 0.0, 0.0, 0.0, 0.0, 0.0, 0.0, 1.5376000236511231, 0.0, 0.0, 0.0, 0.0, 0.0, 0.0, 99999.0, 0.0, 0.0, 0.0, 0.0, 0.0, 0.0, 99999.0, 0.0, 0.0, 0.0, 0.0, 0.0, 0.0, 99999.0)",-0.08,17.18,-0.06,0.0,0.0,0.0,"(-1.0, 0.0, 0.0, 0.0, 0.0, 0.0, 0.0, 0.0, 0.0, 0.0, 0.0, 0.0, 0.0, 0.0, 0.0, 0.0, 0.0, 0.0, 0.0, 0.0, 0.0, 0.0, 0.0, 0.0, 0.0, 0.0, 0.0, 0.0, 0.0, 0.0, 0.0, 0.0, 0.0, 0.0, 0.0, 0.0)"
2018/07/18/15:57:12.795815,1088,1531943832,788958524,map,base_link,-2.09945731217,206.468457525,49.792,-0.0199080765306,0.00452644778712,-0.0258803766909,-0.999456545259,"(0.3844000059127808, 0.0, 0.0, 0.0, 0.0, 0.0, 0.0, 0.3844000059127808, 0.0, 0.0, 0.0, 0.0, 0.0, 0.0, 1.5376000236511231, 0.0, 0.0, 0.0, 0.0, 0.0, 0.0, 99999.0, 0.0, 0.0, 0.0, 0.0, 0.0, 0.0, 99999.0, 0.0, 0.0, 0.0, 0.0, 0.0, 0.0, 99999.0)",-0.11,17.25,-0.41,0.0,0.0,0.0,"(-1.0, 0.0, 0.0, 0.0, 0.0, 0.0, 0.0, 0.0, 0.0, 0.0, 0.0, 0.0, 0.0, 0.0, 0.0, 0.0, 0.0, 0.0, 0.0, 0.0, 0.0, 0.0, 0.0, 0.0, 0.0, 0.0, 0.0, 0.0, 0.0, 0.0, 0.0, 0.0, 0.0, 0.0, 0.0, 0.0)"
2018/07/18/15:57:13.027325,1089,1531943833,24618302,map,base_link,1.76930075914,206.435145635,49.914,-0.0199080765306,0.00452644778712,-0.0258803766909,-0.999456545259,"(0.3844000059127808, 0.0, 0.0, 0.0, 0.0, 0.0, 0.0, 0.3844000059127808, 0.0, 0.0, 0.0, 0.0, 0.0, 0.0, 1.5376000236511231, 0.0, 0.0, 0.0, 0.0, 0.0, 0.0, 99999.0, 0.0, 0.0, 0.0, 0.0, 0.0, 0.0, 99999.0, 0.0, 0.0, 0.0, 0.0, 0.0, 0.0, 99999.0)",-0.13,17.26,-0.51,0.0,0.0,0.0,"(-1.0, 0.0, 0.0, 0.0, 0.0, 0.0, 0.0, 0.0, 0.0, 0.0, 0.0, 0.0, 0.0, 0.0, 0.0, 0.0, 0.0, 0.0, 0.0, 0.0, 0.0, 0.0, 0.0, 0.0, 0.0, 0.0, 0.0, 0.0, 0.0, 0.0, 0.0, 0.0, 0.0, 0.0, 0.0, 0.0)"
2018/07/18/15:57:13.257606,1090,1531943833,254346062,map,base_link,5.67192124547,206.412941983,50.067,-0.00803591337437,0.00922100910135,-0.0208721848059,-0.999707331667,"(0.3844000059127808, 0.0, 0.0, 0.0, 0.0, 0.0, 0.0, 0.3844000059127808, 0.0, 0.0, 0.0, 0.0, 0.0, 0.0, 1.5376000236511231, 0.0, 0.0, 0.0, 0.0, 0.0, 0.0, 99999.0, 0.0, 0.0, 0.0, 0.0, 0.0, 0.0, 99999.0, 0.0, 0.0, 0.0, 0.0, 0.0, 0.0, 99999.0)",-0.16,17.24,-0.63,0.0,0.0,0.0,"(-1.0, 0.0, 0.0, 0.0, 0.0, 0.0, 0.0, 0.0, 0.0, 0.0, 0.0, 0.0, 0.0, 0.0, 0.0, 0.0, 0.0, 0.0, 0.0, 0.0, 0.0, 0.0, 0.0, 0.0, 0.0, 0.0, 0.0, 0.0, 0.0, 0.0, 0.0, 0.0, 0.0, 0.0, 0.0, 0.0)"
2018/07/18/15:57:13.476608,1091,1531943833,475971393,map,base_link,9.88776750799,206.368530966,50.232,-0.00803591337437,0.00922100910135,-0.0208721848059,-0.999707331667,"(0.3844000059127808, 0.0, 0.0, 0.0, 0.0, 0.0, 0.0, 0.3844000059127808, 0.0, 0.0, 0.0, 0.0, 0.0, 0.0, 1.5376000236511231, 0.0, 0.0, 0.0, 0.0, 0.0, 0.0, 99999.0, 0.0, 0.0, 0.0, 0.0, 0.0, 0.0, 99999.0, 0.0, 0.0, 0.0, 0.0, 0.0, 0.0, 99999.0)",-0.21,17.23,-0.41,0.0,0.0,0.0,"(-1.0, 0.0, 0.0, 0.0, 0.0, 0.0, 0.0, 0.0, 0.0, 0.0, 0.0, 0.0, 0.0, 0.0, 0.0, 0.0, 0.0, 0.0, 0.0, 0.0, 0.0, 0.0, 0.0, 0.0, 0.0, 0.0, 0.0, 0.0, 0.0, 0.0, 0.0, 0.0, 0.0, 0.0, 0.0, 0.0)"
2018/07/18/15:57:13.730290,1092,1531943833,729329585,map,base_link,14.0528205387,206.301908522,50.304,-0.0184991119388,-0.00415731623699,-0.0278165808122,-0.999433208079,"(0.3844000059127808, 0.0, 0.0, 0.0, 0.0, 0.0, 0.0, 0.3844000059127808, 0.0, 0.0, 0.0, 0.0, 0.0, 0.0, 1.5376000236511231, 0.0, 0.0, 0.0, 0.0, 0.0, 0.0, 99999.0, 0.0, 0.0, 0.0, 0.0, 0.0, 0.0, 99999.0, 0.0, 0.0, 0.0, 0.0, 0.0, 0.0, 99999.0)",-0.18,17.18,-0.1,0.0,0.0,0.0,"(-1.0, 0.0, 0.0, 0.0, 0.0, 0.0, 0.0, 0.0, 0.0, 0.0, 0.0, 0.0, 0.0, 0.0, 0.0, 0.0, 0.0, 0.0, 0.0, 0.0, 0.0, 0.0, 0.0, 0.0, 0.0, 0.0, 0.0, 0.0, 0.0, 0.0, 0.0, 0.0, 0.0, 0.0, 0.0, 0.0)"
2018/07/18/15:57:13.962530,1093,1531943833,961601537,map,base_link,18.2940635615,206.268603321,50.342,0.0205092757256,-0.00715729215932,-0.0306804079299,-0.999293177875,"(0.3844000059127808, 0.0, 0.0, 0.0, 0.0, 0.0, 0.0, 0.3844000059127808, 0.0, 0.0, 0.0, 0.0, 0.0, 0.0, 1.5376000236511231, 0.0, 0.0, 0.0, 0.0, 0.0, 0.0, 99999.0, 0.0, 0.0, 0.0, 0.0, 0.0, 0.0, 99999.0, 0.0, 0.0, 0.0, 0.0, 0.0, 0.0, 99999.0)",-0.02,17.17,-0.03,0.0,0.0,0.0,"(-1.0, 0.0, 0.0, 0.0, 0.0, 0.0, 0.0, 0.0, 0.0, 0.0, 0.0, 0.0, 0.0, 0.0, 0.0, 0.0, 0.0, 0.0, 0.0, 0.0, 0.0, 0.0, 0.0, 0.0, 0.0, 0.0, 0.0, 0.0, 0.0, 0.0, 0.0, 0.0, 0.0, 0.0, 0.0, 0.0)"
