time,.header.seq,.header.stamp.secs,.header.stamp.nsecs,.header.frame_id,.status.status,.status.service,.latitude,.longitude,.altitude,.position_covariance,.position_covariance_type
2018/07/18/15:56:50.885613,981,1531943810,884418155,base_link,0,1,40.5914577,-79.8994959,345.772220932,"(0.4356000346183784, 0.0, 0.0, 0.0, 0.4356000346183784, 0.0, 0.0, 0.0, 1.7424001384735135)",1
2018/07/18/15:56:51.114656,982,1531943811,112639880,base_link,0,1,40.5914588,-79.8994439,346.032273523,"(0.4356000346183784, 0.0, 0.0, 0.0, 0.4356000346183784, 0.0, 0.0, 0.0, 1.7424001384735135)",1
2018/07/18/15:56:51.369249,983,1531943811,368075341,base_link,0,1,40.5914596,-79.8993918,346.572326345,"(0.39689999399185183, 0.0, 0.0, 0.0, 0.39689999399185183, 0.0, 0.0, 0.0, 1.5875999759674073)",1
2018/07/18/15:56:51.635826,984,1531943811,634012524,base_link,0,1,40.5914581,-79.8993327,347.412387274,"(0.39689999399185183, 0.0, 0.0, 0.0, 0.39689999399185183, 0.0, 0.0, 0.0, 1.5875999759674073)",1
2018/07/18/15:56:51.883568,985,1531943811,882505033,base_link,0,1,40.5914569,-79.8992836,348.292437878,"(0.39689999399185183, 0.0, 0.0, 0.0, 0.39689999399185183, 0.0, 0.0, 0.0, 1.5875999759674073)",1
2018/07/18/15:56:52.110369,986,1531943812,109279103,base_link,0,1,40.5914577,-79.8992358,349.162486326,"(0.39689999399185183, 0.0, 0.0, 0.0, 0.39689999399185183, 0.0, 0.0, 0.0, 1.5875999759674073)",1
2018/07/18/15:56:52.391546,987,1531943812,390208837,base_link,0,1,40.5914613,-79.8991884,349.872533201,"(0.4356000346183784, 0.0, 0.0, 0.0, 0.4356000346183784, 0.0, 0.0, 0.0, 1.7424001384735135)",1
2018/07/18/15:56:52.625354,988,1531943812,622984241,base_link,0,1,40.5914683,-79.8991376,350.36258213,"(0.3721000174522402, 0.0, 0.0, 0.0, 0.3721000174522402, 0.0, 0.0, 0.0, 1.4884000698089608)",1
2018/07/18/15:56:52.861346,989,1531943812,860496001,base_link,0,1,40.5914784,-79.8990918,350.692624666,"(0.3721000174522402, 0.0, 0.0, 0.0, 0.3721000174522402, 0.0, 0.0, 0.0, 1.4884000698089608)",1
2018/07/18/15:56:53.108364,990,1531943813,107751800,base_link,0,1,40.5914931,-79.8990482,350.972663039,"(0.3721000174522402, 0.0, 0.0, 0.0, 0.3721000174522402, 0.0, 0.0, 0.0, 1.4884000698089608)",1
2018/07/18/15:56:53.388587,991,1531943813,387689876,base_link,0,1,40.5915175,-79.8990015,351.322700533,"(0.3721000174522402, 0.0, 0.0, 0.0, 0.3721000174522402, 0.0, 0.0, 0.0, 1.4884000698089608)",1
2018/07/18/15:56:53.609799,992,1531943813,608992153,base_link,0,1,40.591545,-79.8989667,351.652724588,"(0.3721000174522402, 0.0, 0.0, 0.0, 0.3721000174522402, 0.0, 0.0, 0.0, 1.4884000698089608)",1
2018/07/18/15:56:53.895017,993,1531943813,893765239,base_link,0,1,40.5915833,-79.8989348,352.142741182,"(0.3721000174522402, 0.0, 0.0, 0.0, 0.3721000174522402, 0.0, 0.0, 0.0, 1.4884000698089608)",1
2018/07/18/15:56:54.119931,994,1531943814,118171095,base_link,0,1,40.5916134,-79.8989182,352.522745581,"(0.3721000174522402, 0.0, 0.0, 0.0, 0.3721000174522402, 0.0, 0.0, 0.0, 1.4884000698089608)",1
2018/07/18/15:56:54.359529,995,1531943814,358612015,base_link,0,1,40.5916557,-79.8989052,353.072741224,"(0.3721000174522402, 0.0, 0.0, 0.0, 0.3721000174522402, 0.0, 0.0, 0.0, 1.4884000698089608)",1
2018/07/18/15:56:54.605898,996,1531943814,604922781,base_link,0,1,40.5916959,-79.8989033,353.672726419,"(0.3721000174522402, 0.0, 0.0, 0.0, 0.3721000174522402, 0.0, 0.0, 0.0, 1.4884000698089608)",1
2018/07/18/15:56:54.857325,997,1531943814,856207019,base_link,0,1,40.5917386,-79.8989136,354.462698126,"(0.3721000174522402, 0.0, 0.0, 0.0, 0.3721000174522402, 0.0, 0.0, 0.0, 1.4884000698089608)",1
2018/07/18/15:56:55.106321,998,1531943815,102901142,base_link,0,1,40.5917759,-79.8989322,355.272663619,"(0.3721000174522402, 0.0, 0.0, 0.0, 0.3721000174522402, 0.0, 0.0, 0.0, 1.4884000698089608)",1
2018/07/18/15:56:55.376568,999,1531943815,375462174,base_link,0,1,40.5918149,-79.8989634,356.432615554,"(0.3721000174522402, 0.0, 0.0, 0.0, 0.3721000174522402, 0.0, 0.0, 0.0, 1.4884000698089608)",1
2018/07/18/15:56:55.637326,1000,1531943815,633082467,base_link,0,1,40.5918432,-79.8989962,357.692570315,"(0.3480999690532691, 0.0, 0.0, 0.0, 0.3480999690532691, 0.0, 0.0, 0.0, 1.3923998762130765)",1
2018/07/18/15:56:55.872176,1001,1531943815,871283453,base_link,0,1,40.5918692,-79.8990345,359.222520428,"(0.3721000174522402, 0.0, 0.0, 0.0, 0.3721000174522402, 0.0, 0.0, 0.0, 1.4884000698089608)",1
2018/07/18/15:56:56.102073,1002,1531943816,100951463,base_link,0,1,40.5918886,-79.899067,360.582479207,"(0.3480999690532691, 0.0, 0.0, 0.0, 0.3480999690532691, 0.0, 0.0, 0.0, 1.3923998762130765)",1
2018/07/18/15:56:56.380121,1003,1531943816,376534608,base_link,0,1,40.5919118,-79.8991065,362.392429272,"(0.3480999690532691, 0.0, 0.0, 0.0, 0.3480999690532691, 0.0, 0.0, 0.0, 1.3923998762130765)",1
2018/07/18/15:56:56.604187,1004,1531943816,601476249,base_link,0,1,40.5919294,-79.8991359,363.742391972,"(0.3480999690532691, 0.0, 0.0, 0.0, 0.3480999690532691, 0.0, 0.0, 0.0, 1.3923998762130765)",1
2018/07/18/15:56:56.828973,1005,1531943816,820825993,base_link,0,1,40.5919469,-79.8991644,364.862355636,"(0.3480999690532691, 0.0, 0.0, 0.0, 0.3480999690532691, 0.0, 0.0, 0.0, 1.3923998762130765)",1
2018/07/18/15:56:57.059423,1006,1531943817,58233110,base_link,0,1,40.5919661,-79.8991945,365.832316966,"(0.3480999690532691, 0.0, 0.0, 0.0, 0.3480999690532691, 0.0, 0.0, 0.0, 1.3923998762130765)",1
2018/07/18/15:56:57.327225,1007,1531943817,321907869,base_link,0,1,40.5919872,-79.899226,366.682276086,"(0.3480999690532691, 0.0, 0.0, 0.0, 0.3480999690532691, 0.0, 0.0, 0.0, 1.3923998762130765)",1
2018/07/18/15:56:57.594121,1008,1531943817,593108741,base_link,0,1,40.5920107,-79.8992584,367.222233299,"(0.3480999690532691, 0.0, 0.0, 0.0, 0.3480999690532691, 0.0, 0.0, 0.0, 1.3923998762130765)",1
2018/07/18/15:56:57.828146,1009,1531943817,825960144,base_link,0,1,40.5920291,-79.8992832,367.312200381,"(0.3480999690532691, 0.0, 0.0, 0.0, 0.3480999690532691, 0.0, 0.0, 0.0, 1.3923998762130765)",1
2018/07/18/15:56:58.040645,1010,1531943818,39791948,base_link,0,1,40.5920479,-79.8993082,367.172167098,"(0.3480999690532691, 0.0, 0.0, 0.0, 0.3480999690532691, 0.0, 0.0, 0.0, 1.3923998762130765)",1
2018/07/18/15:56:58.269436,1011,1531943818,267702555,base_link,0,1,40.5920684,-79.8993354,366.782130872,"(0.3480999690532691, 0.0, 0.0, 0.0, 0.3480999690532691, 0.0, 0.0, 0.0, 1.3923998762130765)",1
2018/07/18/15:56:58.536555,1012,1531943818,535321015,base_link,0,1,40.592091,-79.8993649,366.202091435,"(0.3480999690532691, 0.0, 0.0, 0.0, 0.3480999690532691, 0.0, 0.0, 0.0, 1.3923998762130765)",1
2018/07/18/15:56:58.808537,1013,1531943818,807633016,base_link,0,1,40.5921161,-79.8993971,365.432048217,"(0.3480999690532691, 0.0, 0.0, 0.0, 0.3480999690532691, 0.0, 0.0, 0.0, 1.3923998762130765)",1
2018/07/18/15:56:58.987750,1014,1531943818,986468881,base_link,0,1,40.5921325,-79.8994178,364.892020328,"(0.3480999690532691, 0.0, 0.0, 0.0, 0.3480999690532691, 0.0, 0.0, 0.0, 1.3923998762130765)",1
2018/07/18/15:56:59.238459,1015,1531943819,237648546,base_link,0,1,40.5921546,-79.8994455,364.16198295,"(0.3480999690532691, 0.0, 0.0, 0.0, 0.3480999690532691, 0.0, 0.0, 0.0, 1.3923998762130765)",1
2018/07/18/15:56:59.460218,1016,1531943819,459180903,base_link,0,1,40.5921736,-79.8994694,363.561950731,"(0.3480999690532691, 0.0, 0.0, 0.0, 0.3480999690532691, 0.0, 0.0, 0.0, 1.3923998762130765)",1
2018/07/18/15:56:59.738383,1017,1531943819,736714894,base_link,0,1,40.5922025,-79.8995063,362.731901174,"(0.3480999690532691, 0.0, 0.0, 0.0, 0.3480999690532691, 0.0, 0.0, 0.0, 1.3923998762130765)",1
2018/07/18/15:56:59.968358,1018,1531943819,965838868,base_link,0,1,40.5922235,-79.8995333,362.19186498,"(0.3480999690532691, 0.0, 0.0, 0.0, 0.3480999690532691, 0.0, 0.0, 0.0, 1.3923998762130765)",1
2018/07/18/15:57:00.165820,1019,1531943820,164565692,base_link,0,1,40.592245,-79.8995611,361.741827768,"(0.3480999690532691, 0.0, 0.0, 0.0, 0.3480999690532691, 0.0, 0.0, 0.0, 1.3923998762130765)",1
2018/07/18/15:57:00.422276,1020,1531943820,420710519,base_link,0,1,40.5922685,-79.8995912,361.361787392,"(0.3480999690532691, 0.0, 0.0, 0.0, 0.3480999690532691, 0.0, 0.0, 0.0, 1.3923998762130765)",1
2018/07/18/15:57:00.727460,1021,1531943820,721700288,base_link,0,1,40.592298,-79.8996286,361.021737108,"(0.3480999690532691, 0.0, 0.0, 0.0, 0.3480999690532691, 0.0, 0.0, 0.0, 1.3923998762130765)",1
2018/07/18/15:57:00.981085,1022,1531943820,980117055,base_link,0,1,40.5923216,-79.8996575,360.851697927,"(0.3480999690532691, 0.0, 0.0, 0.0, 0.3480999690532691, 0.0, 0.0, 0.0, 1.3923998762130765)",1
2018/07/18/15:57:01.168300,1023,1531943821,167245725,base_link,0,1,40.5923434,-79.8996835,360.711662448,"(0.3480999690532691, 0.0, 0.0, 0.0, 0.3480999690532691, 0.0, 0.0, 0.0, 1.3923998762130765)",1
2018/07/18/15:57:01.450299,1024,1531943821,449380570,base_link,0,1,40.5923693,-79.8997126,360.571622126,"(0.3480999690532691, 0.0, 0.0, 0.0, 0.3480999690532691, 0.0, 0.0, 0.0, 1.3923998762130765)",1
2018/07/18/15:57:01.656176,1025,1531943821,655378126,base_link,0,1,40.5923898,-79.8997338,360.511592083,"(0.3480999690532691, 0.0, 0.0, 0.0, 0.3480999690532691, 0.0, 0.0, 0.0, 1.3923998762130765)",1
2018/07/18/15:57:01.954629,1026,1531943821,952701261,base_link,0,1,40.592421,-79.8997634,360.41154908,"(0.3480999690532691, 0.0, 0.0, 0.0, 0.3480999690532691, 0.0, 0.0, 0.0, 1.3923998762130765)",1
2018/07/18/15:57:02.133352,1027,1531943822,132452716,base_link,0,1,40.5924398,-79.8997799,360.291524533,"(0.3480999690532691, 0.0, 0.0, 0.0, 0.3480999690532691, 0.0, 0.0, 0.0, 1.3923998762130765)",1
2018/07/18/15:57:02.371565,1028,1531943822,370562837,base_link,0,1,40.5924649,-79.8998001,360.041493628,"(0.3480999690532691, 0.0, 0.0, 0.0, 0.3480999690532691, 0.0, 0.0, 0.0, 1.3923998762130765)",1
2018/07/18/15:57:02.609806,1029,1531943822,608058437,base_link,0,1,40.5924918,-79.8998181,359.691464228,"(0.3480999690532691, 0.0, 0.0, 0.0, 0.3480999690532691, 0.0, 0.0, 0.0, 1.3923998762130765)",1
2018/07/18/15:57:02.889881,1030,1531943822,889009368,base_link,0,1,40.5925247,-79.899834,359.221434505,"(0.3480999690532691, 0.0, 0.0, 0.0, 0.3480999690532691, 0.0, 0.0, 0.0, 1.3923998762130765)",1
2018/07/18/15:57:03.167068,1031,1531943823,166139455,base_link,0,1,40.5925594,-79.8998437,358.721410361,"(0.3480999690532691, 0.0, 0.0, 0.0, 0.3480999690532691, 0.0, 0.0, 0.0, 1.3923998762130765)",1
2018/07/18/15:57:03.370624,1032,1531943823,369897977,base_link,0,1,40.5925883,-79.899847,358.301395125,"(0.3480999690532691, 0.0, 0.0, 0.0, 0.3480999690532691, 0.0, 0.0, 0.0, 1.3923998762130765)",1
2018/07/18/15:57:03.602596,1033,1531943823,602003987,base_link,0,1,40.5926178,-79.8998461,357.821383922,"(0.3721000174522402, 0.0, 0.0, 0.0, 0.3721000174522402, 0.0, 0.0, 0.0, 1.4884000698089608)",1
2018/07/18/15:57:03.873046,1034,1531943823,871784312,base_link,0,1,40.5926554,-79.8998382,357.171376526,"(0.3480999690532691, 0.0, 0.0, 0.0, 0.3480999690532691, 0.0, 0.0, 0.0, 1.3923998762130765)",1
2018/07/18/15:57:04.117673,1035,1531943824,117042161,base_link,0,1,40.5926871,-79.8998243,356.641377666,"(0.3480999690532691, 0.0, 0.0, 0.0, 0.3480999690532691, 0.0, 0.0, 0.0, 1.3923998762130765)",1
2018/07/18/15:57:04.396191,1036,1531943824,395246580,base_link,0,1,40.5927221,-79.8997992,356.14138886,"(0.3480999690532691, 0.0, 0.0, 0.0, 0.3480999690532691, 0.0, 0.0, 0.0, 1.3923998762130765)",1
2018/07/18/15:57:04.609167,1037,1531943824,608107425,base_link,0,1,40.5927452,-79.8997762,355.861402801,"(0.3480999690532691, 0.0, 0.0, 0.0, 0.3480999690532691, 0.0, 0.0, 0.0, 1.3923998762130765)",1
2018/07/18/15:57:04.884717,1038,1531943824,883812931,base_link,0,1,40.592772,-79.8997401,355.541428566,"(0.3480999690532691, 0.0, 0.0, 0.0, 0.3480999690532691, 0.0, 0.0, 0.0, 1.3923998762130765)",1
2018/07/18/15:57:05.114215,1039,1531943825,113539138,base_link,0,1,40.5927942,-79.8996973,355.311463042,"(0.3480999690532691, 0.0, 0.0, 0.0, 0.3480999690532691, 0.0, 0.0, 0.0, 1.3923998762130765)",1
2018/07/18/15:57:05.330817,1040,1531943825,330160935,base_link,0,1,40.5928077,-79.8996607,355.191494775,"(0.3480999690532691, 0.0, 0.0, 0.0, 0.3480999690532691, 0.0, 0.0, 0.0, 1.3923998762130765)",1
2018/07/18/15:57:05.606659,1041,1531943825,601493350,base_link,0,1,40.5928212,-79.8996059,355.201545044,"(0.3480999690532691, 0.0, 0.0, 0.0, 0.3480999690532691, 0.0, 0.0, 0.0, 1.3923998762130765)",1
2018/07/18/15:57:05.853218,1042,1531943825,851511181,base_link,0,1,40.5928279,-79.8995571,355.371591995,"(0.3480999690532691, 0.0, 0.0, 0.0, 0.3480999690532691, 0.0, 0.0, 0.0, 1.3923998762130765)",1
2018/07/18/15:57:06.073584,1043,1531943826,70323609,base_link,0,1,40.5928306,-79.899513,355.681635803,"(0.3480999690532691, 0.0, 0.0, 0.0, 0.3480999690532691, 0.0, 0.0, 0.0, 1.3923998762130765)",1
2018/07/18/15:57:06.328490,1044,1531943826,327550125,base_link,0,1,40.592831,-79.8994649,356.121684631,"(0.3480999690532691, 0.0, 0.0, 0.0, 0.3480999690532691, 0.0, 0.0, 0.0, 1.3923998762130765)",1
2018/07/18/15:57:06.567286,1045,1531943826,566314022,base_link,0,1,40.5928298,-79.8994101,356.671740944,"(0.3480999690532691, 0.0, 0.0, 0.0, 0.3480999690532691, 0.0, 0.0, 0.0, 1.3923998762130765)",1
2018/07/18/15:57:06.805891,1046,1531943826,804055403,base_link,0,1,40.5928282,-79.8993677,357.131784794,"(0.3480999690532691, 0.0, 0.0, 0.0, 0.3480999690532691, 0.0, 0.0, 0.0, 1.3923998762130765)",1
2018/07/18/15:57:07.070974,1047,1531943827,66613280,base_link,0,1,40.5928263,-79.8993187,357.711835494,"(0.3480999690532691, 0.0, 0.0, 0.0, 0.3480999690532691, 0.0, 0.0, 0.0, 1.3923998762130765)",1
2018/07/18/15:57:07.329166,1048,1531943827,327174194,base_link,0,1,40.5928248,-79.8992705,358.23188522,"(0.3480999690532691, 0.0, 0.0, 0.0, 0.3480999690532691, 0.0, 0.0, 0.0, 1.3923998762130765)",1
2018/07/18/15:57:07.571869,1049,1531943827,570534040,base_link,0,1,40.5928238,-79.8992262,358.68193077,"(0.3480999690532691, 0.0, 0.0, 0.0, 0.3480999690532691, 0.0, 0.0, 0.0, 1.3923998762130765)",1
2018/07/18/15:57:07.819816,1050,1531943827,810326378,base_link,0,1,40.5928235,-79.8991823,359.071975629,"(0.3480999690532691, 0.0, 0.0, 0.0, 0.3480999690532691, 0.0, 0.0, 0.0, 1.3923998762130765)",1
2018/07/18/15:57:08.012768,1051,1531943828,11740182,base_link,0,1,40.5928237,-79.8991421,359.332016515,"(0.3480999690532691, 0.0, 0.0, 0.0, 0.3480999690532691, 0.0, 0.0, 0.0, 1.3923998762130765)",1
2018/07/18/15:57:08.294796,1052,1531943828,290816714,base_link,0,1,40.5928247,-79.8990952,359.502063903,"(0.3480999690532691, 0.0, 0.0, 0.0, 0.3480999690532691, 0.0, 0.0, 0.0, 1.3923998762130765)",1
2018/07/18/15:57:08.519922,1053,1531943828,518151355,base_link,0,1,40.5928268,-79.8990514,359.612107685,"(0.3480999690532691, 0.0, 0.0, 0.0, 0.3480999690532691, 0.0, 0.0, 0.0, 1.3923998762130765)",1
2018/07/18/15:57:08.791866,1054,1531943828,790713055,base_link,0,1,40.5928304,-79.8990036,359.64215493,"(0.3480999690532691, 0.0, 0.0, 0.0, 0.3480999690532691, 0.0, 0.0, 0.0, 1.3923998762130765)",1
2018/07/18/15:57:08.996533,1055,1531943828,994993836,base_link,0,1,40.5928336,-79.8989668,359.60219113,"(0.3480999690532691, 0.0, 0.0, 0.0, 0.3480999690532691, 0.0, 0.0, 0.0, 1.3923998762130765)",1
2018/07/18/15:57:09.207936,1056,1531943829,207011903,base_link,0,1,40.5928378,-79.8989227,359.562234363,"(0.3480999690532691, 0.0, 0.0, 0.0, 0.3480999690532691, 0.0, 0.0, 0.0, 1.3923998762130765)",1
2018/07/18/15:57:09.457217,1057,1531943829,456506310,base_link,0,1,40.5928419,-79.8988809,359.522275295,"(0.3480999690532691, 0.0, 0.0, 0.0, 0.3480999690532691, 0.0, 0.0, 0.0, 1.3923998762130765)",1
2018/07/18/15:57:09.671982,1058,1531943829,671032826,base_link,0,1,40.5928464,-79.8988352,359.482320042,"(0.3480999690532691, 0.0, 0.0, 0.0, 0.3480999690532691, 0.0, 0.0, 0.0, 1.3923998762130765)",1
2018/07/18/15:57:09.945689,1059,1531943829,944622425,base_link,0,1,40.5928511,-79.898785,359.402369299,"(0.3480999690532691, 0.0, 0.0, 0.0, 0.3480999690532691, 0.0, 0.0, 0.0, 1.3923998762130765)",1
2018/07/18/15:57:10.165993,1060,1531943830,164818763,base_link,0,1,40.5928549,-79.8987412,359.312412403,"(0.3480999690532691, 0.0, 0.0, 0.0, 0.3480999690532691, 0.0, 0.0, 0.0, 1.3923998762130765)",1
2018/07/18/15:57:10.368307,1061,1531943830,367019484,base_link,0,1,40.5928581,-79.8987008,359.272452289,"(0.3480999690532691, 0.0, 0.0, 0.0, 0.3480999690532691, 0.0, 0.0, 0.0, 1.3923998762130765)",1
2018/07/18/15:57:10.624091,1062,1531943830,622593567,base_link,0,1,40.5928614,-79.8986489,359.262503865,"(0.3844000059127808, 0.0, 0.0, 0.0, 0.3844000059127808, 0.0, 0.0, 0.0, 1.5376000236511231)",1
2018/07/18/15:57:10.871323,1063,1531943830,869708457,base_link,0,1,40.5928638,-79.8985957,359.182557141,"(0.3844000059127808, 0.0, 0.0, 0.0, 0.3844000059127808, 0.0, 0.0, 0.0, 1.5376000236511231)",1
2018/07/18/15:57:11.138798,1064,1531943831,137766582,base_link,0,1,40.5928649,-79.8985427,359.082610753,"(0.3844000059127808, 0.0, 0.0, 0.0, 0.3844000059127808, 0.0, 0.0, 0.0, 1.5376000236511231)",1
2018/07/18/15:57:11.347523,1065,1531943831,345741605,base_link,0,1,40.5928647,-79.8985028,359.082651538,"(0.3844000059127808, 0.0, 0.0, 0.0, 0.3844000059127808, 0.0, 0.0, 0.0, 1.5376000236511231)",1
2018/07/18/15:57:11.576656,1066,1531943831,576000131,base_link,0,1,40.5928641,-79.8984572,359.232698307,"(0.3844000059127808, 0.0, 0.0, 0.0, 0.3844000059127808, 0.0, 0.0, 0.0, 1.5376000236511231)",1
2018/07/18/15:57:11.828676,1067,1531943831,825881137,base_link,0,1,40.5928636,-79.8984033,359.552753506,"(0.3844000059127808, 0.0, 0.0, 0.0, 0.3844000059127808, 0.0, 0.0, 0.0, 1.5376000236511231)",1
2018/07/18/15:57:12.075807,1068,1531943832,74912395,base_link,0,1,40.5928636,-79.8983546,359.772803199,"(0.3844000059127808, 0.0, 0.0, 0.0, 0.3844000059127808, 0.0, 0.0, 0.0, 1.5376000236511231)",1
2018/07/18/15:57:12.335159,1069,1531943832,333398551,base_link,0,1,40.5928635,-79.8982968,359.882862223,"(0.3844000059127808, 0.0, 0.0, 0.0, 0.3844000059127808, 0.0, 0.0, 0.0, 1.5376000236511231)",1
2018/07/18/15:57:12.525739,1070,1531943832,524864981,base_link,0,1,40.5928634,-79.8982593,359.882900535,"(0.3844000059127808, 0.0, 0.0, 0.0, 0.3844000059127808, 0.0, 0.0, 0.0, 1.5376000236511231)",1
2018/07/18/15:57:12.795801,1071,1531943832,788958524,base_link,0,1,40.5928631,-79.8982019,359.962959243,"(0.3844000059127808, 0.0, 0.0, 0.0, 0.3844000059127808, 0.0, 0.0, 0.0, 1.5376000236511231)",1
2018/07/18/15:57:13.027314,1072,1531943833,24618302,base_link,0,1,40.5928628,-79.8981562,360.083006014,"(0.3844000059127808, 0.0, 0.0, 0.0, 0.3844000059127808, 0.0, 0.0, 0.0, 1.5376000236511231)",1
2018/07/18/15:57:13.256648,1073,1531943833,254346062,base_link,0,1,40.5928626,-79.8981101,360.233053155,"(0.3844000059127808, 0.0, 0.0, 0.0, 0.3844000059127808, 0.0, 0.0, 0.0, 1.5376000236511231)",1
2018/07/18/15:57:13.476573,1074,1531943833,475971393,base_link,0,1,40.5928622,-79.8980603,360.403104159,"(0.3844000059127808, 0.0, 0.0, 0.0, 0.3844000059127808, 0.0, 0.0, 0.0, 1.5376000236511231)",1
2018/07/18/15:57:13.730268,1075,1531943833,729329585,base_link,0,1,40.5928616,-79.8980111,360.473154638,"(0.3844000059127808, 0.0, 0.0, 0.0, 0.3844000059127808, 0.0, 0.0, 0.0, 1.5376000236511231)",1
2018/07/18/15:57:13.962487,1076,1531943833,961601537,base_link,0,1,40.5928613,-79.897961,360.513205916,"(0.3844000059127808, 0.0, 0.0, 0.0, 0.3844000059127808, 0.0, 0.0, 0.0, 1.5376000236511231)",1
2018/07/18/15:57:14.230237,1077,1531943834,229259496,base_link,0,1,40.5928614,-79.8979073,360.55326071,"(0.3844000059127808, 0.0, 0.0, 0.0, 0.3844000059127808, 0.0, 0.0, 0.0, 1.5376000236511231)",1
2018/07/18/15:57:14.476529,1078,1531943834,475835504,base_link,0,1,40.5928619,-79.8978575,360.573311361,"(0.3844000059127808, 0.0, 0.0, 0.0, 0.3844000059127808, 0.0, 0.0, 0.0, 1.5376000236511231)",1
2018/07/18/15:57:14.775781,1079,1531943834,774755579,base_link,0,1,40.5928622,-79.8977953,360.653374764,"(0.3844000059127808, 0.0, 0.0, 0.0, 0.3844000059127808, 0.0, 0.0, 0.0, 1.5376000236511231)",1
2018/07/18/15:57:14.952283,1080,1531943834,951241527,base_link,0,1,40.5928621,-79.8977582,360.703412699,"(0.3844000059127808, 0.0, 0.0, 0.0, 0.3844000059127808, 0.0, 0.0, 0.0, 1.5376000236511231)",1
2018/07/18/15:57:15.164252,1081,1531943835,162734254,base_link,0,1,40.5928616,-79.8977137,360.733458361,"(0.3844000059127808, 0.0, 0.0, 0.0, 0.3844000059127808, 0.0, 0.0, 0.0, 1.5376000236511231)",1
2018/07/18/15:57:15.424430,1082,1531943835,423653903,base_link,0,1,40.5928609,-79.8976644,360.793509012,"(0.3844000059127808, 0.0, 0.0, 0.0, 0.3844000059127808, 0.0, 0.0, 0.0, 1.5376000236511231)",1
2018/07/18/15:57:15.615532,1083,1531943835,614428674,base_link,0,1,40.5928602,-79.8976232,360.843551391,"(0.4356000346183784, 0.0, 0.0, 0.0, 0.4356000346183784, 0.0, 0.0, 0.0, 1.7424001384735135)",1
2018/07/18/15:57:15.877847,1084,1531943835,876865328,base_link,0,1,40.5928589,-79.8975655,360.71361088,"(0.4760999967098236, 0.0, 0.0, 0.0, 0.4760999967098236, 0.0, 0.0, 0.0, 1.9043999868392945)",1
2018/07/18/15:57:16.105880,1085,1531943836,105203070,base_link,0,1,40.5928578,-79.8975203,360.383657519,"(0.39689999399185183, 0.0, 0.0, 0.0, 0.39689999399185183, 0.0, 0.0, 0.0, 1.5875999759674073)",1
2018/07/18/15:57:16.372080,1086,1531943836,359879632,base_link,0,1,40.5928568,-79.8974707,360.023708617,"(0.3844000059127808, 0.0, 0.0, 0.0, 0.3844000059127808, 0.0, 0.0, 0.0, 1.5376000236511231)",1
2018/07/18/15:57:16.582754,1087,1531943836,581667696,base_link,0,1,40.5928565,-79.8974242,359.713756262,"(0.3844000059127808, 0.0, 0.0, 0.0, 0.3844000059127808, 0.0, 0.0, 0.0, 1.5376000236511231)",1
2018/07/18/15:57:16.823251,1088,1531943836,822401163,base_link,0,1,40.5928565,-79.8973695,359.423812169,"(0.3844000059127808, 0.0, 0.0, 0.0, 0.3844000059127808, 0.0, 0.0, 0.0, 1.5376000236511231)",1
2018/07/18/15:57:17.035551,1089,1531943837,33506637,base_link,0,1,40.5928567,-79.8973214,359.263861251,"(0.3844000059127808, 0.0, 0.0, 0.0, 0.3844000059127808, 0.0, 0.0, 0.0, 1.5376000236511231)",1
2018/07/18/15:57:17.313921,1090,1531943837,313241558,base_link,0,1,40.5928577,-79.8972644,359.173919106,"(0.3844000059127808, 0.0, 0.0, 0.0, 0.3844000059127808, 0.0, 0.0, 0.0, 1.5376000236511231)",1
2018/07/18/15:57:17.527121,1091,1531943837,525666220,base_link,0,1,40.5928588,-79.897217,359.20396711,"(0.3844000059127808, 0.0, 0.0, 0.0, 0.3844000059127808, 0.0, 0.0, 0.0, 1.5376000236511231)",1
2018/07/18/15:57:17.768771,1092,1531943837,767838107,base_link,0,1,40.5928603,-79.8971593,359.334025484,"(0.3844000059127808, 0.0, 0.0, 0.0, 0.3844000059127808, 0.0, 0.0, 0.0, 1.5376000236511231)",1
2018/07/18/15:57:18.015730,1093,1531943838,14799088,base_link,0,1,40.5928617,-79.8971109,359.534074395,"(0.3844000059127808, 0.0, 0.0, 0.0, 0.3844000059127808, 0.0, 0.0, 0.0, 1.5376000236511231)",1
2018/07/18/15:57:18.231481,1094,1531943838,230590434,base_link,0,1,40.5928631,-79.897059,359.754126889,"(0.3844000059127808, 0.0, 0.0, 0.0, 0.3844000059127808, 0.0, 0.0, 0.0, 1.5376000236511231)",1
2018/07/18/15:57:18.492847,1095,1531943838,491624883,base_link,0,1,40.5928646,-79.8970068,359.954179652,"(0.4356000346183784, 0.0, 0.0, 0.0, 0.4356000346183784, 0.0, 0.0, 0.0, 1.7424001384735135)",1
2018/07/18/15:57:18.756612,1096,1531943838,755160709,base_link,0,1,40.5928661,-79.8969462,360.084241012,"(0.3844000059127808, 0.0, 0.0, 0.0, 0.3844000059127808, 0.0, 0.0, 0.0, 1.5376000236511231)",1
2018/07/18/15:57:19.022492,1097,1531943839,20735839,base_link,0,1,40.592867,-79.8968913,360.204296795,"(0.3844000059127808, 0.0, 0.0, 0.0, 0.3844000059127808, 0.0, 0.0, 0.0, 1.5376000236511231)",1
2018/07/18/15:57:19.213845,1098,1531943839,212905427,base_link,0,1,40.5928671,-79.8968526,360.314336342,"(0.3844000059127808, 0.0, 0.0, 0.0, 0.3844000059127808, 0.0, 0.0, 0.0, 1.5376000236511231)",1
2018/07/18/15:57:19.457671,1099,1531943839,456229150,base_link,0,1,40.5928665,-79.8967966,360.484393878,"(0.3844000059127808, 0.0, 0.0, 0.0, 0.3844000059127808, 0.0, 0.0, 0.0, 1.5376000236511231)",1
2018/07/18/15:57:19.714110,1100,1531943839,712980008,base_link,0,1,40.5928654,-79.8967412,360.474451013,"(0.3844000059127808, 0.0, 0.0, 0.0, 0.3844000059127808, 0.0, 0.0, 0.0, 1.5376000236511231)",1
2018/07/18/15:57:19.957477,1101,1531943839,956618288,base_link,0,1,40.5928639,-79.8966894,360.474504634,"(0.3844000059127808, 0.0, 0.0, 0.0, 0.3844000059127808, 0.0, 0.0, 0.0, 1.5376000236511231)",1
2018/07/18/15:57:20.236269,1102,1531943840,234714718,base_link,0,1,40.5928613,-79.8966287,360.414567823,"(0.3844000059127808, 0.0, 0.0, 0.0, 0.3844000059127808, 0.0, 0.0, 0.0, 1.5376000236511231)",1
2018/07/18/15:57:20.485416,1103,1531943840,484424066,base_link,0,1,40.592858,-79.896582,360.314616979,"(0.3844000059127808, 0.0, 0.0, 0.0, 0.3844000059127808, 0.0, 0.0, 0.0, 1.5376000236511231)",1
2018/07/18/15:57:20.741109,1104,1531943840,740353435,base_link,0,1,40.5928519,-79.8965261,360.164676713,"(0.3844000059127808, 0.0, 0.0, 0.0, 0.3844000059127808, 0.0, 0.0, 0.0, 1.5376000236511231)",1
2018/07/18/15:57:20.971223,1105,1531943840,970311085,base_link,0,1,40.5928431,-79.8964703,360.054737468,"(0.4356000346183784, 0.0, 0.0, 0.0, 0.4356000346183784, 0.0, 0.0, 0.0, 1.7424001384735135)",1
2018/07/18/15:57:21.208265,1106,1531943841,207225904,base_link,0,1,40.5928336,-79.8964238,359.964788999,"(0.4356000346183784, 0.0, 0.0, 0.0, 0.4356000346183784, 0.0, 0.0, 0.0, 1.7424001384735135)",1
2018/07/18/15:57:21.447217,1107,1531943841,446059612,base_link,0,1,40.592821,-79.8963731,359.794846117,"(0.4356000346183784, 0.0, 0.0, 0.0, 0.4356000346183784, 0.0, 0.0, 0.0, 1.7424001384735135)",1
2018/07/18/15:57:21.662703,1108,1531943841,661513953,base_link,0,1,40.5928072,-79.896327,359.544899028,"(0.4356000346183784, 0.0, 0.0, 0.0, 0.4356000346183784, 0.0, 0.0, 0.0, 1.7424001384735135)",1
2018/07/18/15:57:21.926083,1109,1531943841,925082181,base_link,0,1,40.5927875,-79.896274,359.204961454,"(0.3844000059127808, 0.0, 0.0, 0.0, 0.3844000059127808, 0.0, 0.0, 0.0, 1.5376000236511231)",1
2018/07/18/15:57:22.194107,1110,1531943842,193154870,base_link,0,1,40.5927607,-79.89622,358.965027854,"(0.4356000346183784, 0.0, 0.0, 0.0, 0.4356000346183784, 0.0, 0.0, 0.0, 1.7424001384735135)",1
2018/07/18/15:57:22.453174,1111,1531943842,452264149,base_link,0,1,40.5927301,-79.8961731,358.835088568,"(0.3844000059127808, 0.0, 0.0, 0.0, 0.3844000059127808, 0.0, 0.0, 0.0, 1.5376000236511231)",1
2018/07/18/15:57:22.651489,1112,1531943842,650316400,base_link,0,1,40.5927067,-79.896142,358.665130124,"(0.3844000059127808, 0.0, 0.0, 0.0, 0.3844000059127808, 0.0, 0.0, 0.0, 1.5376000236511231)",1
2018/07/18/15:57:22.871200,1113,1531943842,870560096,base_link,0,1,40.5926769,-79.896107,358.355178336,"(0.3844000059127808, 0.0, 0.0, 0.0, 0.3844000059127808, 0.0, 0.0, 0.0, 1.5376000236511231)",1
2018/07/18/15:57:23.125469,1114,1531943843,123703529,base_link,0,1,40.5926415,-79.8960721,357.985228778,"(0.3844000059127808, 0.0, 0.0, 0.0, 0.3844000059127808, 0.0, 0.0, 0.0, 1.5376000236511231)",1
2018/07/18/15:57:23.375191,1115,1531943843,374178261,base_link,0,1,40.5925963,-79.8960385,357.625281968,"(0.3844000059127808, 0.0, 0.0, 0.0, 0.3844000059127808, 0.0, 0.0, 0.0, 1.5376000236511231)",1
2018/07/18/15:57:23.643902,1116,1531943843,642838759,base_link,0,1,40.5925515,-79.8960156,357.425324043,"(0.3844000059127808, 0.0, 0.0, 0.0, 0.3844000059127808, 0.0, 0.0, 0.0, 1.5376000236511231)",1
2018/07/18/15:57:23.874689,1117,1531943843,871808052,base_link,0,1,40.5925076,-79.8960021,357.485356124,"(0.4356000346183784, 0.0, 0.0, 0.0, 0.4356000346183784, 0.0, 0.0, 0.0, 1.7424001384735135)",1
2018/07/18/15:57:24.130440,1118,1531943844,128221916,base_link,0,1,40.5924631,-79.895995,357.675381906,"(0.3844000059127808, 0.0, 0.0, 0.0, 0.3844000059127808, 0.0, 0.0, 0.0, 1.5376000236511231)",1
2018/07/18/15:57:24.354376,1119,1531943844,351721231,base_link,0,1,40.5924193,-79.8959926,357.805402591,"(0.3844000059127808, 0.0, 0.0, 0.0, 0.3844000059127808, 0.0, 0.0, 0.0, 1.5376000236511231)",1
2018/07/18/15:57:24.593529,1120,1531943844,592109337,base_link,0,1,40.5923769,-79.8959943,357.9254185,"(0.3480999690532691, 0.0, 0.0, 0.0, 0.3480999690532691, 0.0, 0.0, 0.0, 1.3923998762130765)",1
2018/07/18/15:57:24.837197,1121,1531943844,836192055,base_link,0,1,40.5923389,-79.8959993,358.095429202,"(0.3480999690532691, 0.0, 0.0, 0.0, 0.3480999690532691, 0.0, 0.0, 0.0, 1.3923998762130765)",1
2018/07/18/15:57:25.056733,1122,1531943845,55442558,base_link,0,1,40.5922986,-79.8960079,358.455437179,"(0.3480999690532691, 0.0, 0.0, 0.0, 0.3480999690532691, 0.0, 0.0, 0.0, 1.3923998762130765)",1
2018/07/18/15:57:25.363085,1123,1531943845,362344181,base_link,0,1,40.5922534,-79.8960201,359.095443517,"(0.3480999690532691, 0.0, 0.0, 0.0, 0.3480999690532691, 0.0, 0.0, 0.0, 1.3923998762130765)",1
2018/07/18/15:57:25.575182,1124,1531943845,574375126,base_link,0,1,40.5922186,-79.8960298,359.635448088,"(0.3480999690532691, 0.0, 0.0, 0.0, 0.3480999690532691, 0.0, 0.0, 0.0, 1.3923998762130765)",1
2018/07/18/15:57:25.824487,1125,1531943845,822678375,base_link,0,1,40.5921785,-79.8960404,360.205453954,"(0.3480999690532691, 0.0, 0.0, 0.0, 0.3480999690532691, 0.0, 0.0, 0.0, 1.3923998762130765)",1
2018/07/18/15:57:26.074918,1126,1531943846,74136212,base_link,0,1,40.5921422,-79.8960492,360.625460085,"(0.3480999690532691, 0.0, 0.0, 0.0, 0.3480999690532691, 0.0, 0.0, 0.0, 1.3923998762130765)",1
2018/07/18/15:57:26.329113,1127,1531943846,327647692,base_link,0,1,40.592103,-79.8960573,360.975468152,"(0.3480999690532691, 0.0, 0.0, 0.0, 0.3480999690532691, 0.0, 0.0, 0.0, 1.3923998762130765)",1
2018/07/18/15:57:26.571679,1128,1531943846,569857195,base_link,0,1,40.5920641,-79.8960637,361.175477843,"(0.3480999690532691, 0.0, 0.0, 0.0, 0.3480999690532691, 0.0, 0.0, 0.0, 1.3923998762130765)",1
2018/07/18/15:57:26.798701,1129,1531943846,797320057,base_link,0,1,40.5920347,-79.8960672,361.285486543,"(0.3480999690532691, 0.0, 0.0, 0.0, 0.3480999690532691, 0.0, 0.0, 0.0, 1.3923998762130765)",1
2018/07/18/15:57:27.041277,1130,1531943847,40050291,base_link,0,1,40.5919955,-79.89607,361.375500063,"(0.3480999690532691, 0.0, 0.0, 0.0, 0.3480999690532691, 0.0, 0.0, 0.0, 1.3923998762130765)",1
2018/07/18/15:57:27.286424,1131,1531943847,285328531,base_link,0,1,40.5919562,-79.8960707,361.395515786,"(0.3480999690532691, 0.0, 0.0, 0.0, 0.3480999690532691, 0.0, 0.0, 0.0, 1.3923998762130765)",1
2018/07/18/15:57:27.545694,1132,1531943847,544961096,base_link,0,1,40.5919232,-79.89607,361.345530315,"(0.3480999690532691, 0.0, 0.0, 0.0, 0.3480999690532691, 0.0, 0.0, 0.0, 1.3923998762130765)",1
2018/07/18/15:57:27.808248,1133,1531943847,806055500,base_link,0,1,40.5918836,-79.8960684,361.185548536,"(0.3480999690532691, 0.0, 0.0, 0.0, 0.3480999690532691, 0.0, 0.0, 0.0, 1.3923998762130765)",1
2018/07/18/15:57:28.046225,1134,1531943848,43765191,base_link,0,1,40.5918436,-79.8960662,360.925567548,"(0.3480999690532691, 0.0, 0.0, 0.0, 0.3480999690532691, 0.0, 0.0, 0.0, 1.3923998762130765)",1
2018/07/18/15:57:28.283072,1135,1531943848,282425594,base_link,0,1,40.5918063,-79.896064,360.635585436,"(0.3480999690532691, 0.0, 0.0, 0.0, 0.3480999690532691, 0.0, 0.0, 0.0, 1.3923998762130765)",1
2018/07/18/15:57:28.568581,1136,1531943848,564466347,base_link,0,1,40.5917622,-79.8960616,360.285606389,"(0.3480999690532691, 0.0, 0.0, 0.0, 0.3480999690532691, 0.0, 0.0, 0.0, 1.3923998762130765)",1
2018/07/18/15:57:28.794194,1137,1531943848,792825112,base_link,0,1,40.5917268,-79.8960599,360.045622983,"(0.3480999690532691, 0.0, 0.0, 0.0, 0.3480999690532691, 0.0, 0.0, 0.0, 1.3923998762130765)",1
2018/07/18/15:57:29.045331,1138,1531943849,43665787,base_link,0,1,40.591685,-79.8960584,359.815642065,"(0.3480999690532691, 0.0, 0.0, 0.0, 0.3480999690532691, 0.0, 0.0, 0.0, 1.3923998762130765)",1
2018/07/18/15:57:29.279549,1139,1531943849,278669919,base_link,0,1,40.5916459,-79.8960574,359.615659509,"(0.3480999690532691, 0.0, 0.0, 0.0, 0.3480999690532691, 0.0, 0.0, 0.0, 1.3923998762130765)",1
2018/07/18/15:57:29.535204,1140,1531943849,534175696,base_link,0,1,40.5916065,-79.8960569,359.505676574,"(0.3480999690532691, 0.0, 0.0, 0.0, 0.3480999690532691, 0.0, 0.0, 0.0, 1.3923998762130765)",1
2018/07/18/15:57:29.744861,1141,1531943849,735292868,base_link,0,1,40.5915702,-79.896057,359.515691728,"(0.3480999690532691, 0.0, 0.0, 0.0, 0.3480999690532691, 0.0, 0.0, 0.0, 1.3923998762130765)",1
2018/07/18/15:57:30.034517,1142,1531943850,33212864,base_link,0,1,40.5915241,-79.8960585,359.695709574,"(0.3480999690532691, 0.0, 0.0, 0.0, 0.3480999690532691, 0.0, 0.0, 0.0, 1.3923998762130765)",1
2018/07/18/15:57:30.244612,1143,1531943850,243055442,base_link,0,1,40.5914876,-79.8960605,359.885722878,"(0.3480999690532691, 0.0, 0.0, 0.0, 0.3480999690532691, 0.0, 0.0, 0.0, 1.3923998762130765)",1
2018/07/18/15:57:30.472652,1144,1531943850,469872475,base_link,0,1,40.591448,-79.8960628,360.075737185,"(0.3480999690532691, 0.0, 0.0, 0.0, 0.3480999690532691, 0.0, 0.0, 0.0, 1.3923998762130765)",1
2018/07/18/15:57:30.731302,1145,1531943850,729654175,base_link,0,1,40.5914102,-79.8960651,360.165750743,"(0.3480999690532691, 0.0, 0.0, 0.0, 0.3480999690532691, 0.0, 0.0, 0.0, 1.3923998762130765)",1
2018/07/18/15:57:30.968036,1146,1531943850,966065271,base_link,0,1,40.5913679,-79.8960679,360.18576569,"(0.3480999690532691, 0.0, 0.0, 0.0, 0.3480999690532691, 0.0, 0.0, 0.0, 1.3923998762130765)",1
2018/07/18/15:57:31.226924,1147,1531943851,226073469,base_link,0,1,40.5913287,-79.8960702,360.185779852,"(0.3480999690532691, 0.0, 0.0, 0.0, 0.3480999690532691, 0.0, 0.0, 0.0, 1.3923998762130765)",1
2018/07/18/15:57:31.496387,1148,1531943851,495531092,base_link,0,1,40.5912833,-79.8960721,360.255797047,"(0.3480999690532691, 0.0, 0.0, 0.0, 0.3480999690532691, 0.0, 0.0, 0.0, 1.3923998762130765)",1
2018/07/18/15:57:31.707817,1149,1531943851,706311871,base_link,0,1,40.5912506,-79.8960729,360.325810022,"(0.3480999690532691, 0.0, 0.0, 0.0, 0.3480999690532691, 0.0, 0.0, 0.0, 1.3923998762130765)",1
2018/07/18/15:57:31.963836,1150,1531943851,961452223,base_link,0,1,40.5912112,-79.8960734,360.395826138,"(0.3480999690532691, 0.0, 0.0, 0.0, 0.3480999690532691, 0.0, 0.0, 0.0, 1.3923998762130765)",1
2018/07/18/15:57:32.172602,1151,1531943852,171389655,base_link,0,1,40.5911724,-79.8960737,360.505842214,"(0.3480999690532691, 0.0, 0.0, 0.0, 0.3480999690532691, 0.0, 0.0, 0.0, 1.3923998762130765)",1
2018/07/18/15:57:32.410966,1152,1531943852,410075774,base_link,0,1,40.5911337,-79.8960741,360.635858152,"(0.3480999690532691, 0.0, 0.0, 0.0, 0.3480999690532691, 0.0, 0.0, 0.0, 1.3923998762130765)",1
2018/07/18/15:57:32.666788,1153,1531943852,665720094,base_link,0,1,40.5910916,-79.8960754,360.775874612,"(0.3480999690532691, 0.0, 0.0, 0.0, 0.3480999690532691, 0.0, 0.0, 0.0, 1.3923998762130765)",1
2018/07/18/15:57:32.921188,1154,1531943852,919470707,base_link,0,1,40.5910532,-79.8960778,360.875888386,"(0.3480999690532691, 0.0, 0.0, 0.0, 0.3480999690532691, 0.0, 0.0, 0.0, 1.3923998762130765)",1
2018/07/18/15:57:33.159029,1155,1531943853,158055775,base_link,0,1,40.5910147,-79.8960818,360.905900568,"(0.3480999690532691, 0.0, 0.0, 0.0, 0.3480999690532691, 0.0, 0.0, 0.0, 1.3923998762130765)",1
2018/07/18/15:57:33.402396,1156,1531943853,398105754,base_link,0,1,40.5909793,-79.8960869,360.815910315,"(0.3480999690532691, 0.0, 0.0, 0.0, 0.3480999690532691, 0.0, 0.0, 0.0, 1.3923998762130765)",1
2018/07/18/15:57:33.653305,1157,1531943853,649213524,base_link,0,1,40.5909375,-79.8960954,360.505919288,"(0.3480999690532691, 0.0, 0.0, 0.0, 0.3480999690532691, 0.0, 0.0, 0.0, 1.3923998762130765)",1
2018/07/18/15:57:33.870324,1158,1531943853,869055260,base_link,0,1,40.5909028,-79.8961055,360.155923619,"(0.3480999690532691, 0.0, 0.0, 0.0, 0.3480999690532691, 0.0, 0.0, 0.0, 1.3923998762130765)",1
2018/07/18/15:57:34.102198,1159,1531943854,100048229,base_link,0,1,40.5908642,-79.8961207,359.745924373,"(0.3480999690532691, 0.0, 0.0, 0.0, 0.3480999690532691, 0.0, 0.0, 0.0, 1.3923998762130765)",1
2018/07/18/15:57:34.361448,1160,1531943854,359928605,base_link,0,1,40.5908231,-79.896142,359.275919932,"(0.3480999690532691, 0.0, 0.0, 0.0, 0.3480999690532691, 0.0, 0.0, 0.0, 1.3923998762130765)",1
2018/07/18/15:57:34.630441,1161,1531943854,628458896,base_link,0,1,40.5907837,-79.8961686,358.825909336,"(0.3480999690532691, 0.0, 0.0, 0.0, 0.3480999690532691, 0.0, 0.0, 0.0, 1.3923998762130765)",1
2018/07/18/15:57:34.854297,1162,1531943854,850247783,base_link,0,1,40.5907517,-79.8961959,358.475894888,"(0.3480999690532691, 0.0, 0.0, 0.0, 0.3480999690532691, 0.0, 0.0, 0.0, 1.3923998762130765)",1
2018/07/18/15:57:35.110801,1163,1531943855,109914308,base_link,0,1,40.5907134,-79.8962365,358.065869466,"(0.3480999690532691, 0.0, 0.0, 0.0, 0.3480999690532691, 0.0, 0.0, 0.0, 1.3923998762130765)",1
2018/07/18/15:57:35.329751,1164,1531943855,328893312,base_link,0,1,40.5906888,-79.8962693,357.85584624,"(0.3480999690532691, 0.0, 0.0, 0.0, 0.3480999690532691, 0.0, 0.0, 0.0, 1.3923998762130765)",1
2018/07/18/15:57:35.582582,1165,1531943855,581657712,base_link,0,1,40.5906629,-79.8963123,357.695813099,"(0.3480999690532691, 0.0, 0.0, 0.0, 0.3480999690532691, 0.0, 0.0, 0.0, 1.3923998762130765)",1
2018/07/18/15:57:35.847084,1166,1531943855,843783763,base_link,0,1,40.5906378,-79.8963666,357.595768025,"(0.3480999690532691, 0.0, 0.0, 0.0, 0.3480999690532691, 0.0, 0.0, 0.0, 1.3923998762130765)",1
2018/07/18/15:57:36.072944,1167,1531943856,71930245,base_link,0,1,40.5906219,-79.8964111,357.545729105,"(0.3480999690532691, 0.0, 0.0, 0.0, 0.3480999690532691, 0.0, 0.0, 0.0, 1.3923998762130765)",1
2018/07/18/15:57:36.355867,1168,1531943856,353408522,base_link,0,1,40.5906069,-79.8964681,357.485676979,"(0.3480999690532691, 0.0, 0.0, 0.0, 0.3480999690532691, 0.0, 0.0, 0.0, 1.3923998762130765)",1
2018/07/18/15:57:36.571447,1169,1531943856,570308227,base_link,0,1,40.5905983,-79.8965181,357.485629322,"(0.3480999690532691, 0.0, 0.0, 0.0, 0.3480999690532691, 0.0, 0.0, 0.0, 1.3923998762130765)",1
2018/07/18/15:57:36.854976,1170,1531943856,853117177,base_link,0,1,40.5905932,-79.8965761,357.615571973,"(0.3480999690532691, 0.0, 0.0, 0.0, 0.3480999690532691, 0.0, 0.0, 0.0, 1.3923998762130765)",1
2018/07/18/15:57:37.103875,1171,1531943857,102721557,base_link,0,1,40.5905924,-79.8966248,357.795522345,"(0.3480999690532691, 0.0, 0.0, 0.0, 0.3480999690532691, 0.0, 0.0, 0.0, 1.3923998762130765)",1
2018/07/18/15:57:37.322261,1172,1531943857,319007674,base_link,0,1,40.5905938,-79.8966687,358.015476712,"(0.3480999690532691, 0.0, 0.0, 0.0, 0.3480999690532691, 0.0, 0.0, 0.0, 1.3923998762130765)",1
2018/07/18/15:57:37.569300,1173,1531943857,566031735,base_link,0,1,40.5905972,-79.8967187,358.385423975,"(0.3480999690532691, 0.0, 0.0, 0.0, 0.3480999690532691, 0.0, 0.0, 0.0, 1.3923998762130765)",1
2018/07/18/15:57:37.802119,1174,1531943857,799755408,base_link,0,1,40.590601,-79.8967601,358.785379895,"(0.3480999690532691, 0.0, 0.0, 0.0, 0.3480999690532691, 0.0, 0.0, 0.0, 1.3923998762130765)",1
2018/07/18/15:57:38.108908,1175,1531943858,107950502,base_link,0,1,40.5906067,-79.8968185,359.485317575,"(0.3480999690532691, 0.0, 0.0, 0.0, 0.3480999690532691, 0.0, 0.0, 0.0, 1.3923998762130765)",1
2018/07/18/15:57:38.300836,1176,1531943858,299548046,base_link,0,1,40.5906097,-79.8968504,359.865283585,"(0.3480999690532691, 0.0, 0.0, 0.0, 0.3480999690532691, 0.0, 0.0, 0.0, 1.3923998762130765)",1
2018/07/18/15:57:38.573215,1177,1531943858,572551138,base_link,0,1,40.590614,-79.8968995,360.385231407,"(0.3480999690532691, 0.0, 0.0, 0.0, 0.3480999690532691, 0.0, 0.0, 0.0, 1.3923998762130765)",1
2018/07/18/15:57:38.811629,1178,1531943858,810028308,base_link,0,1,40.5906175,-79.8969411,360.715187264,"(0.3480999690532691, 0.0, 0.0, 0.0, 0.3480999690532691, 0.0, 0.0, 0.0, 1.3923998762130765)",1
2018/07/18/15:57:39.057566,1179,1531943859,56732027,base_link,0,1,40.5906207,-79.8969823,360.905143661,"(0.3480999690532691, 0.0, 0.0, 0.0, 0.3480999690532691, 0.0, 0.0, 0.0, 1.3923998762130765)",1
2018/07/18/15:57:39.325232,1180,1531943859,323188224,base_link,0,1,40.5906234,-79.8970266,360.975097095,"(0.3480999690532691, 0.0, 0.0, 0.0, 0.3480999690532691, 0.0, 0.0, 0.0, 1.3923998762130765)",1
2018/07/18/15:57:39.559078,1181,1531943859,558172371,base_link,0,1,40.590625,-79.8970674,360.935054587,"(0.3480999690532691, 0.0, 0.0, 0.0, 0.3480999690532691, 0.0, 0.0, 0.0, 1.3923998762130765)",1
2018/07/18/15:57:39.798955,1182,1531943859,798331562,base_link,0,1,40.5906258,-79.8971092,360.855011396,"(0.3480999690532691, 0.0, 0.0, 0.0, 0.3480999690532691, 0.0, 0.0, 0.0, 1.3923998762130765)",1
2018/07/18/15:57:40.074797,1183,1531943860,74118820,base_link,0,1,40.5906258,-79.8971552,360.694964242,"(0.3480999690532691, 0.0, 0.0, 0.0, 0.3480999690532691, 0.0, 0.0, 0.0, 1.3923998762130765)",1
2018/07/18/15:57:40.303602,1184,1531943860,299996293,base_link,0,1,40.5906253,-79.8971981,360.39492048,"(0.3844000059127808, 0.0, 0.0, 0.0, 0.3844000059127808, 0.0, 0.0, 0.0, 1.5376000236511231)",1
2018/07/18/15:57:40.590525,1185,1531943860,585657776,base_link,0,1,40.590624,-79.8972501,359.864867735,"(0.3844000059127808, 0.0, 0.0, 0.0, 0.3844000059127808, 0.0, 0.0, 0.0, 1.5376000236511231)",1
2018/07/18/15:57:40.810492,1186,1531943860,809734246,base_link,0,1,40.5906223,-79.8972919,359.394825616,"(0.3844000059127808, 0.0, 0.0, 0.0, 0.3844000059127808, 0.0, 0.0, 0.0, 1.5376000236511231)",1
2018/07/18/15:57:41.077667,1187,1531943861,76615180,base_link,0,1,40.5906195,-79.8973432,358.844774231,"(0.3844000059127808, 0.0, 0.0, 0.0, 0.3844000059127808, 0.0, 0.0, 0.0, 1.5376000236511231)",1
2018/07/18/15:57:41.284440,1188,1531943861,283179218,base_link,0,1,40.5906164,-79.8973876,358.434730047,"(0.3844000059127808, 0.0, 0.0, 0.0, 0.3844000059127808, 0.0, 0.0, 0.0, 1.5376000236511231)",1
2018/07/18/15:57:41.557172,1189,1531943861,555565022,base_link,0,1,40.5906121,-79.8974416,358.044676539,"(0.4356000346183784, 0.0, 0.0, 0.0, 0.4356000346183784, 0.0, 0.0, 0.0, 1.7424001384735135)",1
2018/07/18/15:57:41.777121,1190,1531943861,775860772,base_link,0,1,40.5906079,-79.8974914,357.924627296,"(0.4356000346183784, 0.0, 0.0, 0.0, 0.4356000346183784, 0.0, 0.0, 0.0, 1.7424001384735135)",1
2018/07/18/15:57:42.071958,1191,1531943862,71138824,base_link,0,1,40.5906033,-79.8975498,358.034569416,"(0.3844000059127808, 0.0, 0.0, 0.0, 0.3844000059127808, 0.0, 0.0, 0.0, 1.5376000236511231)",1
2018/07/18/15:57:42.294736,1192,1531943862,292778915,base_link,0,1,40.5906002,-79.8975949,358.214524529,"(0.3480999690532691, 0.0, 0.0, 0.0, 0.3480999690532691, 0.0, 0.0, 0.0, 1.3923998762130765)",1
2018/07/18/15:57:42.512274,1193,1531943862,511332002,base_link,0,1,40.5905977,-79.8976397,358.434479699,"(0.3480999690532691, 0.0, 0.0, 0.0, 0.3480999690532691, 0.0, 0.0, 0.0, 1.3923998762130765)",1
2018/07/18/15:57:42.779945,1194,1531943862,777442363,base_link,0,1,40.5905952,-79.8976963,358.664422787,"(0.3844000059127808, 0.0, 0.0, 0.0, 0.3844000059127808, 0.0, 0.0, 0.0, 1.5376000236511231)",1
2018/07/18/15:57:43.006788,1195,1531943863,5913288,base_link,0,1,40.5905941,-79.8977407,358.814377781,"(0.3844000059127808, 0.0, 0.0, 0.0, 0.3844000059127808, 0.0, 0.0, 0.0, 1.5376000236511231)",1
2018/07/18/15:57:43.265665,1196,1531943863,264060705,base_link,0,1,40.5905937,-79.8977928,358.954324597,"(0.3844000059127808, 0.0, 0.0, 0.0, 0.3844000059127808, 0.0, 0.0, 0.0, 1.5376000236511231)",1
2018/07/18/15:57:43.500757,1197,1531943863,499164901,base_link,0,1,40.590594,-79.8978398,359.094276344,"(0.3844000059127808, 0.0, 0.0, 0.0, 0.3844000059127808, 0.0, 0.0, 0.0, 1.5376000236511231)",1
2018/07/18/15:57:43.768548,1198,1531943863,767811302,base_link,0,1,40.5905949,-79.8978961,359.284218318,"(0.3844000059127808, 0.0, 0.0, 0.0, 0.3844000059127808, 0.0, 0.0, 0.0, 1.5376000236511231)",1
2018/07/18/15:57:44.014105,1199,1531943864,12889015,base_link,0,1,40.5905961,-79.8979443,359.474168464,"(0.3480999690532691, 0.0, 0.0, 0.0, 0.3480999690532691, 0.0, 0.0, 0.0, 1.3923998762130765)",1
2018/07/18/15:57:44.293158,1200,1531943864,292341248,base_link,0,1,40.5905976,-79.8979953,359.69411562,"(0.3844000059127808, 0.0, 0.0, 0.0, 0.3844000059127808, 0.0, 0.0, 0.0, 1.5376000236511231)",1
2018/07/18/15:57:44.498229,1201,1531943864,497132742,base_link,0,1,40.5905988,-79.8980391,359.894070278,"(0.3844000059127808, 0.0, 0.0, 0.0, 0.3844000059127808, 0.0, 0.0, 0.0, 1.5376000236511231)",1
2018/07/18/15:57:44.783121,1202,1531943864,782458379,base_link,0,1,40.5906007,-79.8980987,360.124008471,"(0.3844000059127808, 0.0, 0.0, 0.0, 0.3844000059127808, 0.0, 0.0, 0.0, 1.5376000236511231)",1
2018/07/18/15:57:44.996500,1203,1531943864,995801998,base_link,0,1,40.5906021,-79.8981375,360.263968169,"(0.3844000059127808, 0.0, 0.0, 0.0, 0.3844000059127808, 0.0, 0.0, 0.0, 1.5376000236511231)",1
2018/07/18/15:57:45.276817,1204,1531943865,276068691,base_link,0,1,40.5906036,-79.8981888,360.403915036,"(0.3844000059127808, 0.0, 0.0, 0.0, 0.3844000059127808, 0.0, 0.0, 0.0, 1.5376000236511231)",1
2018/07/18/15:57:45.469232,1205,1531943865,467937426,base_link,0,1,40.5906044,-79.8982319,360.433870594,"(0.3844000059127808, 0.0, 0.0, 0.0, 0.3844000059127808, 0.0, 0.0, 0.0, 1.5376000236511231)",1
2018/07/18/15:57:45.706413,1206,1531943865,705467810,base_link,0,1,40.5906047,-79.8982791,360.373822171,"(0.3844000059127808, 0.0, 0.0, 0.0, 0.3844000059127808, 0.0, 0.0, 0.0, 1.5376000236511231)",1
2018/07/18/15:57:45.973821,1207,1531943865,972202787,base_link,0,1,40.5906048,-79.8983265,360.283773632,"(0.3844000059127808, 0.0, 0.0, 0.0, 0.3844000059127808, 0.0, 0.0, 0.0, 1.5376000236511231)",1
2018/07/18/15:57:46.205617,1208,1531943866,205027502,base_link,0,1,40.590605,-79.8983785,360.183720349,"(0.3844000059127808, 0.0, 0.0, 0.0, 0.3844000059127808, 0.0, 0.0, 0.0, 1.5376000236511231)",1
2018/07/18/15:57:46.454274,1209,1531943866,453224840,base_link,0,1,40.5906051,-79.8984264,360.133671306,"(0.3844000059127808, 0.0, 0.0, 0.0, 0.3844000059127808, 0.0, 0.0, 0.0, 1.5376000236511231)",1
2018/07/18/15:57:46.694072,1210,1531943866,693344480,base_link,0,1,40.5906052,-79.8984742,360.12362237,"(0.3844000059127808, 0.0, 0.0, 0.0, 0.3844000059127808, 0.0, 0.0, 0.0, 1.5376000236511231)",1
2018/07/18/15:57:46.922720,1211,1531943866,921878397,base_link,0,1,40.590605,-79.8985186,360.143577042,"(0.3844000059127808, 0.0, 0.0, 0.0, 0.3844000059127808, 0.0, 0.0, 0.0, 1.5376000236511231)",1
2018/07/18/15:57:47.204492,1212,1531943867,203827543,base_link,0,1,40.5906048,-79.8985746,360.183519854,"(0.3844000059127808, 0.0, 0.0, 0.0, 0.3844000059127808, 0.0, 0.0, 0.0, 1.5376000236511231)",1
2018/07/18/15:57:47.432399,1213,1531943867,431663808,base_link,0,1,40.5906044,-79.8986219,360.293471652,"(0.3844000059127808, 0.0, 0.0, 0.0, 0.3844000059127808, 0.0, 0.0, 0.0, 1.5376000236511231)",1
2018/07/18/15:57:47.673967,1214,1531943867,672988302,base_link,0,1,40.5906037,-79.8986696,360.503423171,"(0.3844000059127808, 0.0, 0.0, 0.0, 0.3844000059127808, 0.0, 0.0, 0.0, 1.5376000236511231)",1
2018/07/18/15:57:47.912848,1215,1531943867,909124792,base_link,0,1,40.5906026,-79.898717,360.65337517,"(0.3844000059127808, 0.0, 0.0, 0.0, 0.3844000059127808, 0.0, 0.0, 0.0, 1.5376000236511231)",1
2018/07/18/15:57:48.169286,1216,1531943868,168062494,base_link,0,1,40.5906011,-79.898767,360.803324683,"(0.3844000059127808, 0.0, 0.0, 0.0, 0.3844000059127808, 0.0, 0.0, 0.0, 1.5376000236511231)",1
2018/07/18/15:57:48.407443,1217,1531943868,403878831,base_link,0,1,40.5905997,-79.8988108,360.963280496,"(0.3844000059127808, 0.0, 0.0, 0.0, 0.3844000059127808, 0.0, 0.0, 0.0, 1.5376000236511231)",1
2018/07/18/15:57:48.666717,1218,1531943868,665263547,base_link,0,1,40.5905981,-79.8988663,361.253224437,"(0.3844000059127808, 0.0, 0.0, 0.0, 0.3844000059127808, 0.0, 0.0, 0.0, 1.5376000236511231)",1
2018/07/18/15:57:48.926240,1219,1531943868,924851707,base_link,0,1,40.590597,-79.8989132,361.553176962,"(0.3844000059127808, 0.0, 0.0, 0.0, 0.3844000059127808, 0.0, 0.0, 0.0, 1.5376000236511231)",1
2018/07/18/15:57:49.172828,1220,1531943869,169940837,base_link,0,1,40.5905964,-79.8989597,361.883129689,"(0.3844000059127808, 0.0, 0.0, 0.0, 0.3844000059127808, 0.0, 0.0, 0.0, 1.5376000236511231)",1
2018/07/18/15:57:49.428540,1221,1531943869,427766366,base_link,0,1,40.5905963,-79.8990141,362.263074135,"(0.3844000059127808, 0.0, 0.0, 0.0, 0.3844000059127808, 0.0, 0.0, 0.0, 1.5376000236511231)",1
2018/07/18/15:57:49.667934,1222,1531943869,665810234,base_link,0,1,40.5905965,-79.8990565,362.533030721,"(0.3844000059127808, 0.0, 0.0, 0.0, 0.3844000059127808, 0.0, 0.0, 0.0, 1.5376000236511231)",1
2018/07/18/15:57:49.925329,1223,1531943869,924156782,base_link,0,1,40.5905971,-79.8991062,362.812979683,"(0.3844000059127808, 0.0, 0.0, 0.0, 0.3844000059127808, 0.0, 0.0, 0.0, 1.5376000236511231)",1
2018/07/18/15:57:50.166459,1224,1531943870,165360552,base_link,0,1,40.5905982,-79.8991553,362.962929051,"(0.3844000059127808, 0.0, 0.0, 0.0, 0.3844000059127808, 0.0, 0.0, 0.0, 1.5376000236511231)",1
2018/07/18/15:57:50.424427,1225,1531943870,423129511,base_link,0,1,40.5905998,-79.8992005,362.992882197,"(0.3844000059127808, 0.0, 0.0, 0.0, 0.3844000059127808, 0.0, 0.0, 0.0, 1.5376000236511231)",1
2018/07/18/15:57:50.659909,1226,1531943870,658818082,base_link,0,1,40.5906013,-79.8992415,362.892839679,"(0.3844000059127808, 0.0, 0.0, 0.0, 0.3844000059127808, 0.0, 0.0, 0.0, 1.5376000236511231)",1
2018/07/18/15:57:50.878983,1227,1531943870,877893147,base_link,0,1,40.5906032,-79.8992865,362.68279291,"(0.3844000059127808, 0.0, 0.0, 0.0, 0.3844000059127808, 0.0, 0.0, 0.0, 1.5376000236511231)",1
2018/07/18/15:57:51.147984,1228,1531943871,139559568,base_link,0,1,40.5906053,-79.8993351,362.362742383,"(0.3844000059127808, 0.0, 0.0, 0.0, 0.3844000059127808, 0.0, 0.0, 0.0, 1.5376000236511231)",1
2018/07/18/15:57:51.368559,1229,1531943871,366931055,base_link,0,1,40.5906072,-79.8993805,362.112695213,"(0.3844000059127808, 0.0, 0.0, 0.0, 0.3844000059127808, 0.0, 0.0, 0.0, 1.5376000236511231)",1
2018/07/18/15:57:51.606659,1230,1531943871,605678155,base_link,0,1,40.5906091,-79.8994263,361.962647638,"(0.3844000059127808, 0.0, 0.0, 0.0, 0.3844000059127808, 0.0, 0.0, 0.0, 1.5376000236511231)",1
2018/07/18/15:57:51.869722,1231,1531943871,868835697,base_link,0,1,40.5906109,-79.8994761,361.962596024,"(0.3844000059127808, 0.0, 0.0, 0.0, 0.3844000059127808, 0.0, 0.0, 0.0, 1.5376000236511231)",1
2018/07/18/15:57:52.122544,1232,1531943872,120799609,base_link,0,1,40.5906122,-79.8995216,361.972549016,"(0.3844000059127808, 0.0, 0.0, 0.0, 0.3844000059127808, 0.0, 0.0, 0.0, 1.5376000236511231)",1
2018/07/18/15:57:52.340672,1233,1531943872,339414176,base_link,0,1,40.5906128,-79.899559,362.002510576,"(0.3844000059127808, 0.0, 0.0, 0.0, 0.3844000059127808, 0.0, 0.0, 0.0, 1.5376000236511231)",1
2018/07/18/15:57:52.642137,1234,1531943872,640750648,base_link,0,1,40.5906128,-79.8996154,362.162452994,"(0.3844000059127808, 0.0, 0.0, 0.0, 0.3844000059127808, 0.0, 0.0, 0.0, 1.5376000236511231)",1
2018/07/18/15:57:52.806725,1235,1531943872,805443364,base_link,0,1,40.5906123,-79.8996528,362.312415023,"(0.3844000059127808, 0.0, 0.0, 0.0, 0.3844000059127808, 0.0, 0.0, 0.0, 1.5376000236511231)",1
2018/07/18/15:57:53.077872,1236,1531943873,77002161,base_link,0,1,40.5906113,-79.8996967,362.51237063,"(0.3844000059127808, 0.0, 0.0, 0.0, 0.3844000059127808, 0.0, 0.0, 0.0, 1.5376000236511231)",1
2018/07/18/15:57:53.343577,1237,1531943873,342778498,base_link,0,1,40.5906097,-79.8997479,362.692319042,"(0.3844000059127808, 0.0, 0.0, 0.0, 0.3844000059127808, 0.0, 0.0, 0.0, 1.5376000236511231)",1
2018/07/18/15:57:53.587233,1238,1531943873,582992822,base_link,0,1,40.5906081,-79.8997872,362.812279603,"(0.3844000059127808, 0.0, 0.0, 0.0, 0.3844000059127808, 0.0, 0.0, 0.0, 1.5376000236511231)",1
2018/07/18/15:57:53.820081,1239,1531943873,818966650,base_link,0,1,40.5906059,-79.8998332,362.922233582,"(0.3844000059127808, 0.0, 0.0, 0.0, 0.3844000059127808, 0.0, 0.0, 0.0, 1.5376000236511231)",1
2018/07/18/15:57:54.058828,1240,1531943874,58084284,base_link,0,1,40.590604,-79.899876,362.912190703,"(0.3844000059127808, 0.0, 0.0, 0.0, 0.3844000059127808, 0.0, 0.0, 0.0, 1.5376000236511231)",1
2018/07/18/15:57:54.292875,1241,1531943874,290913000,base_link,0,1,40.5906025,-79.8999149,362.732151638,"(0.3844000059127808, 0.0, 0.0, 0.0, 0.3844000059127808, 0.0, 0.0, 0.0, 1.5376000236511231)",1
2018/07/18/15:57:54.545492,1242,1531943874,541876902,base_link,0,1,40.5906011,-79.8999613,362.392104881,"(0.3844000059127808, 0.0, 0.0, 0.0, 0.3844000059127808, 0.0, 0.0, 0.0, 1.5376000236511231)",1
2018/07/18/15:57:54.770793,1243,1531943874,769906025,base_link,0,1,40.5906002,-79.9000043,362.032061386,"(0.3844000059127808, 0.0, 0.0, 0.0, 0.3844000059127808, 0.0, 0.0, 0.0, 1.5376000236511231)",1
2018/07/18/15:57:55.055467,1244,1531943875,54610281,base_link,0,1,40.5905996,-79.9000523,361.702012667,"(0.3844000059127808, 0.0, 0.0, 0.0, 0.3844000059127808, 0.0, 0.0, 0.0, 1.5376000236511231)",1
2018/07/18/15:57:55.284496,1245,1531943875,283202665,base_link,0,1,40.5905996,-79.900097,361.391967066,"(0.3844000059127808, 0.0, 0.0, 0.0, 0.3844000059127808, 0.0, 0.0, 0.0, 1.5376000236511231)",1
2018/07/18/15:57:55.512324,1246,1531943875,510767860,base_link,0,1,40.5906002,-79.9001419,361.021921012,"(0.3844000059127808, 0.0, 0.0, 0.0, 0.3844000059127808, 0.0, 0.0, 0.0, 1.5376000236511231)",1
2018/07/18/15:57:55.777766,1247,1531943875,776874571,base_link,0,1,40.5906019,-79.9001911,360.621870113,"(0.3844000059127808, 0.0, 0.0, 0.0, 0.3844000059127808, 0.0, 0.0, 0.0, 1.5376000236511231)",1
2018/07/18/15:57:56.051661,1248,1531943876,49832340,base_link,0,1,40.5906049,-79.9002407,360.221818264,"(0.3480999690532691, 0.0, 0.0, 0.0, 0.3480999690532691, 0.0, 0.0, 0.0, 1.3923998762130765)",1
2018/07/18/15:57:56.267121,1249,1531943876,265730344,base_link,0,1,40.5906087,-79.9002821,359.961774446,"(0.3480999690532691, 0.0, 0.0, 0.0, 0.3480999690532691, 0.0, 0.0, 0.0, 1.3923998762130765)",1
2018/07/18/15:57:56.489958,1250,1531943876,489132679,base_link,0,1,40.5906151,-79.9003274,359.781725561,"(0.3480999690532691, 0.0, 0.0, 0.0, 0.3480999690532691, 0.0, 0.0, 0.0, 1.3923998762130765)",1
2018/07/18/15:57:56.723537,1251,1531943876,722071066,base_link,0,1,40.5906232,-79.9003677,359.731681065,"(0.3480999690532691, 0.0, 0.0, 0.0, 0.3480999690532691, 0.0, 0.0, 0.0, 1.3923998762130765)",1
2018/07/18/15:57:57.005901,1252,1531943877,4372638,base_link,0,1,40.5906374,-79.9004205,359.821621266,"(0.3480999690532691, 0.0, 0.0, 0.0, 0.3480999690532691, 0.0, 0.0, 0.0, 1.3923998762130765)",1
2018/07/18/15:57:57.239982,1253,1531943877,238737445,base_link,0,1,40.5906484,-79.9004542,360.00158229,"(0.3480999690532691, 0.0, 0.0, 0.0, 0.3480999690532691, 0.0, 0.0, 0.0, 1.3923998762130765)",1
2018/07/18/15:57:57.473664,1254,1531943877,472410900,base_link,0,1,40.5906631,-79.9004935,360.221536055,"(0.3480999690532691, 0.0, 0.0, 0.0, 0.3480999690532691, 0.0, 0.0, 0.0, 1.3923998762130765)",1
2018/07/18/15:57:57.732545,1255,1531943877,730977577,base_link,0,1,40.5906809,-79.9005338,360.431487505,"(0.3480999690532691, 0.0, 0.0, 0.0, 0.3480999690532691, 0.0, 0.0, 0.0, 1.3923998762130765)",1
2018/07/18/15:57:57.974820,1256,1531943877,973101785,base_link,0,1,40.5907001,-79.9005722,360.52144031,"(0.3480999690532691, 0.0, 0.0, 0.0, 0.3480999690532691, 0.0, 0.0, 0.0, 1.3923998762130765)",1
2018/07/18/15:57:58.232592,1257,1531943878,231480916,base_link,0,1,40.5907191,-79.9006066,360.401397282,"(0.3480999690532691, 0.0, 0.0, 0.0, 0.3480999690532691, 0.0, 0.0, 0.0, 1.3923998762130765)",1
2018/07/18/15:57:58.476055,1258,1531943878,474392958,base_link,0,1,40.5907414,-79.9006422,360.141351652,"(0.3480999690532691, 0.0, 0.0, 0.0, 0.3480999690532691, 0.0, 0.0, 0.0, 1.3923998762130765)",1
2018/07/18/15:57:58.729050,1259,1531943878,727977615,base_link,0,1,40.5907658,-79.9006744,359.841308614,"(0.3480999690532691, 0.0, 0.0, 0.0, 0.3480999690532691, 0.0, 0.0, 0.0, 1.3923998762130765)",1
2018/07/18/15:57:58.965871,1260,1531943878,964832510,base_link,0,1,40.5907913,-79.9007013,359.651270521,"(0.3480999690532691, 0.0, 0.0, 0.0, 0.3480999690532691, 0.0, 0.0, 0.0, 1.3923998762130765)",1
2018/07/18/15:57:59.220464,1261,1531943879,219096908,base_link,0,1,40.5908187,-79.9007248,359.611235103,"(0.3480999690532691, 0.0, 0.0, 0.0, 0.3480999690532691, 0.0, 0.0, 0.0, 1.3923998762130765)",1
2018/07/18/15:57:59.473496,1262,1531943879,469745795,base_link,0,1,40.5908471,-79.900745,359.671202635,"(0.3480999690532691, 0.0, 0.0, 0.0, 0.3480999690532691, 0.0, 0.0, 0.0, 1.3923998762130765)",1
2018/07/18/15:57:59.728019,1263,1531943879,727024272,base_link,0,1,40.5908787,-79.9007641,359.801169954,"(0.3480999690532691, 0.0, 0.0, 0.0, 0.3480999690532691, 0.0, 0.0, 0.0, 1.3923998762130765)",1
2018/07/18/15:57:59.996521,1264,1531943879,990003772,base_link,0,1,40.5909081,-79.9007796,359.851141867,"(0.3480999690532691, 0.0, 0.0, 0.0, 0.3480999690532691, 0.0, 0.0, 0.0, 1.3923998762130765)",1
2018/07/18/15:58:00.237436,1265,1531943880,229477557,base_link,0,1,40.59094,-79.9007944,359.801113454,"(0.3480999690532691, 0.0, 0.0, 0.0, 0.3480999690532691, 0.0, 0.0, 0.0, 1.3923998762130765)",1
2018/07/18/15:58:00.479777,1266,1531943880,469546887,base_link,0,1,40.5909723,-79.9008052,359.811088954,"(0.3480999690532691, 0.0, 0.0, 0.0, 0.3480999690532691, 0.0, 0.0, 0.0, 1.3923998762130765)",1
2018/07/18/15:58:00.720595,1267,1531943880,719408171,base_link,0,1,40.5910026,-79.9008106,360.001070796,"(0.3480999690532691, 0.0, 0.0, 0.0, 0.3480999690532691, 0.0, 0.0, 0.0, 1.3923998762130765)",1
2018/07/18/15:58:00.969733,1268,1531943880,968666614,base_link,0,1,40.5910353,-79.9008122,360.47105551,"(0.3480999690532691, 0.0, 0.0, 0.0, 0.3480999690532691, 0.0, 0.0, 0.0, 1.3923998762130765)",1
2018/07/18/15:58:01.213189,1269,1531943881,212191845,base_link,0,1,40.5910648,-79.900812,360.851043399,"(0.3480999690532691, 0.0, 0.0, 0.0, 0.3480999690532691, 0.0, 0.0, 0.0, 1.3923998762130765)",1
2018/07/18/15:58:01.465979,1270,1531943881,465221609,base_link,0,1,40.5910942,-79.9008112,361.161031945,"(0.3480999690532691, 0.0, 0.0, 0.0, 0.3480999690532691, 0.0, 0.0, 0.0, 1.3923998762130765)",1
2018/07/18/15:58:01.750774,1271,1531943881,749387887,base_link,0,1,40.5911284,-79.9008098,361.421019103,"(0.3480999690532691, 0.0, 0.0, 0.0, 0.3480999690532691, 0.0, 0.0, 0.0, 1.3923998762130765)",1
2018/07/18/15:58:01.928743,1272,1531943881,926984803,base_link,0,1,40.5911525,-79.9008085,361.561010377,"(0.3480999690532691, 0.0, 0.0, 0.0, 0.3480999690532691, 0.0, 0.0, 0.0, 1.3923998762130765)",1
2018/07/18/15:58:02.210688,1273,1531943882,209115748,base_link,0,1,40.5911843,-79.9008064,361.590999259,"(0.3480999690532691, 0.0, 0.0, 0.0, 0.3480999690532691, 0.0, 0.0, 0.0, 1.3923998762130765)",1
2018/07/18/15:58:02.408978,1274,1531943882,407317364,base_link,0,1,40.5912091,-79.9008047,361.560990655,"(0.3480999690532691, 0.0, 0.0, 0.0, 0.3480999690532691, 0.0, 0.0, 0.0, 1.3923998762130765)",1
2018/07/18/15:58:02.691520,1275,1531943882,690423979,base_link,0,1,40.5912469,-79.9008021,361.460977556,"(0.3480999690532691, 0.0, 0.0, 0.0, 0.3480999690532691, 0.0, 0.0, 0.0, 1.3923998762130765)",1
2018/07/18/15:58:02.933175,1276,1531943882,932013172,base_link,0,1,40.5912778,-79.9008003,361.310966521,"(0.3480999690532691, 0.0, 0.0, 0.0, 0.3480999690532691, 0.0, 0.0, 0.0, 1.3923998762130765)",1
2018/07/18/15:58:03.162607,1277,1531943883,161844132,base_link,0,1,40.5913091,-79.9007992,361.110954612,"(0.3480999690532691, 0.0, 0.0, 0.0, 0.3480999690532691, 0.0, 0.0, 0.0, 1.3923998762130765)",1
2018/07/18/15:58:03.451443,1278,1531943883,449727882,base_link,0,1,40.5913434,-79.9007991,360.840940442,"(0.3480999690532691, 0.0, 0.0, 0.0, 0.3480999690532691, 0.0, 0.0, 0.0, 1.3923998762130765)",1
2018/07/18/15:58:03.657171,1279,1531943883,655918211,base_link,0,1,40.5913697,-79.9007994,360.650929198,"(0.3480999690532691, 0.0, 0.0, 0.0, 0.3480999690532691, 0.0, 0.0, 0.0, 1.3923998762130765)",1
2018/07/18/15:58:03.897708,1280,1531943883,890315617,base_link,0,1,40.5914021,-79.9007999,360.480915217,"(0.3480999690532691, 0.0, 0.0, 0.0, 0.3480999690532691, 0.0, 0.0, 0.0, 1.3923998762130765)",1
2018/07/18/15:58:04.168031,1281,1531943884,162831189,base_link,0,1,40.5914404,-79.9008012,360.460897975,"(0.3480999690532691, 0.0, 0.0, 0.0, 0.3480999690532691, 0.0, 0.0, 0.0, 1.3923998762130765)",1
