time,.header.seq,.header.stamp.secs,.header.stamp.nsecs,.header.frame_id,.status.status,.status.service,.latitude,.longitude,.altitude,.position_covariance,.position_covariance_type
2018/07/18/15:56:50.933532,1286,1531943810,933254299,base_link,0,1,40.5914601,-79.8995372,349.262177802,"(0.4356000346183784, 0.0, 0.0, 0.0, 0.4356000346183784, 0.0, 0.0, 0.0, 1.7424001384735135)",1
2018/07/18/15:56:51.143669,1287,1531943811,143058500,base_link,0,1,40.5914577,-79.8994915,349.442225421,"(0.4356000346183784, 0.0, 0.0, 0.0, 0.4356000346183784, 0.0, 0.0, 0.0, 1.7424001384735135)",1
2018/07/18/15:56:51.337497,1288,1531943811,337205271,base_link,0,1,40.5914567,-79.8994467,349.682271542,"(0.39689999399185183, 0.0, 0.0, 0.0, 0.39689999399185183, 0.0, 0.0, 0.0, 1.5875999759674073)",1
2018/07/18/15:56:51.548847,1289,1531943811,548014901,base_link,0,1,40.591456,-79.8994019,350.002317541,"(0.39689999399185183, 0.0, 0.0, 0.0, 0.39689999399185183, 0.0, 0.0, 0.0, 1.5875999759674073)",1
2018/07/18/15:56:51.742431,1290,1531943811,741930763,base_link,0,1,40.5914552,-79.8993577,350.452362974,"(0.39689999399185183, 0.0, 0.0, 0.0, 0.39689999399185183, 0.0, 0.0, 0.0, 1.5875999759674073)",1
2018/07/18/15:56:51.969367,1291,1531943811,968449121,base_link,0,1,40.5914548,-79.8993146,350.99240712,"(0.39689999399185183, 0.0, 0.0, 0.0, 0.39689999399185183, 0.0, 0.0, 0.0, 1.5875999759674073)",1
2018/07/18/15:56:52.166458,1292,1531943812,166114795,base_link,0,1,40.5914552,-79.8992725,351.632449915,"(0.4760999967098236, 0.0, 0.0, 0.0, 0.4760999967098236, 0.0, 0.0, 0.0, 1.9043999868392945)",1
2018/07/18/15:56:52.372752,1293,1531943812,372240394,base_link,0,1,40.5914572,-79.8992311,352.252491331,"(0.4356000346183784, 0.0, 0.0, 0.0, 0.4356000346183784, 0.0, 0.0, 0.0, 1.7424001384735135)",1
2018/07/18/15:56:52.555253,1294,1531943812,554350491,base_link,0,1,40.5914608,-79.8991897,352.802532083,"(0.3721000174522402, 0.0, 0.0, 0.0, 0.3721000174522402, 0.0, 0.0, 0.0, 1.4884000698089608)",1
2018/07/18/15:56:52.733277,1295,1531943812,732904026,base_link,0,1,40.5914659,-79.899149,353.242571496,"(0.3721000174522402, 0.0, 0.0, 0.0, 0.3721000174522402, 0.0, 0.0, 0.0, 1.4884000698089608)",1
2018/07/18/15:56:52.938656,1296,1531943812,937755753,base_link,0,1,40.5914734,-79.8991092,353.602608991,"(0.3721000174522402, 0.0, 0.0, 0.0, 0.3721000174522402, 0.0, 0.0, 0.0, 1.4884000698089608)",1
2018/07/18/15:56:53.139883,1297,1531943813,138976523,base_link,0,1,40.5914834,-79.8990706,353.922644221,"(0.3721000174522402, 0.0, 0.0, 0.0, 0.3721000174522402, 0.0, 0.0, 0.0, 1.4884000698089608)",1
2018/07/18/15:56:53.374089,1298,1531943813,373047982,base_link,0,1,40.5914973,-79.8990333,354.262676498,"(0.3721000174522402, 0.0, 0.0, 0.0, 0.3721000174522402, 0.0, 0.0, 0.0, 1.4884000698089608)",1
2018/07/18/15:56:53.546267,1299,1531943813,545922426,base_link,0,1,40.5915155,-79.8989987,354.702704226,"(0.3721000174522402, 0.0, 0.0, 0.0, 0.3721000174522402, 0.0, 0.0, 0.0, 1.4884000698089608)",1
2018/07/18/15:56:53.812166,1300,1531943813,810908371,base_link,0,1,40.5915379,-79.8989678,355.142726427,"(0.3721000174522402, 0.0, 0.0, 0.0, 0.3721000174522402, 0.0, 0.0, 0.0, 1.4884000698089608)",1
2018/07/18/15:56:53.935572,1301,1531943813,934880653,base_link,0,1,40.591564,-79.898941,355.622742901,"(0.3721000174522402, 0.0, 0.0, 0.0, 0.3721000174522402, 0.0, 0.0, 0.0, 1.4884000698089608)",1
2018/07/18/15:56:54.139858,1302,1531943814,139022351,base_link,0,1,40.5915927,-79.898919,356.142753394,"(0.3721000174522402, 0.0, 0.0, 0.0, 0.3721000174522402, 0.0, 0.0, 0.0, 1.4884000698089608)",1
2018/07/18/15:56:54.342339,1303,1531943814,341689318,base_link,0,1,40.5916238,-79.8989024,356.652757377,"(0.3721000174522402, 0.0, 0.0, 0.0, 0.3721000174522402, 0.0, 0.0, 0.0, 1.4884000698089608)",1
2018/07/18/15:56:54.538766,1304,1531943814,537613426,base_link,0,1,40.5916564,-79.8988921,357.242754306,"(0.3721000174522402, 0.0, 0.0, 0.0, 0.3721000174522402, 0.0, 0.0, 0.0, 1.4884000698089608)",1
2018/07/18/15:56:54.758010,1305,1531943814,757736203,base_link,0,1,40.5916898,-79.8988891,357.902743455,"(0.3721000174522402, 0.0, 0.0, 0.0, 0.3721000174522402, 0.0, 0.0, 0.0, 1.4884000698089608)",1
2018/07/18/15:56:54.939902,1306,1531943814,932618242,base_link,0,1,40.5917233,-79.8988931,358.622725422,"(0.3721000174522402, 0.0, 0.0, 0.0, 0.3721000174522402, 0.0, 0.0, 0.0, 1.4884000698089608)",1
2018/07/18/15:56:55.144563,1307,1531943815,140073280,base_link,0,1,40.591756,-79.8989037,359.382700991,"(0.3721000174522402, 0.0, 0.0, 0.0, 0.3721000174522402, 0.0, 0.0, 0.0, 1.4884000698089608)",1
2018/07/18/15:56:55.360308,1308,1531943815,359907427,base_link,0,1,40.5917871,-79.8989203,360.212671107,"(0.3721000174522402, 0.0, 0.0, 0.0, 0.3721000174522402, 0.0, 0.0, 0.0, 1.4884000698089608)",1
2018/07/18/15:56:55.539847,1309,1531943815,539282437,base_link,0,1,40.5918156,-79.898942,361.122637105,"(0.3480999690532691, 0.0, 0.0, 0.0, 0.3480999690532691, 0.0, 0.0, 0.0, 1.3923998762130765)",1
2018/07/18/15:56:55.737515,1310,1531943815,733057746,base_link,0,1,40.5918408,-79.8989681,362.14259999,"(0.3721000174522402, 0.0, 0.0, 0.0, 0.3721000174522402, 0.0, 0.0, 0.0, 1.4884000698089608)",1
2018/07/18/15:56:55.967191,1311,1531943815,966916291,base_link,0,1,40.5918632,-79.8989968,363.252561392,"(0.3480999690532691, 0.0, 0.0, 0.0, 0.3480999690532691, 0.0, 0.0, 0.0, 1.3923998762130765)",1
2018/07/18/15:56:56.144485,1312,1531943816,143149042,base_link,0,1,40.5918831,-79.8990258,364.362523531,"(0.3480999690532691, 0.0, 0.0, 0.0, 0.3480999690532691, 0.0, 0.0, 0.0, 1.3923998762130765)",1
2018/07/18/15:56:56.340520,1313,1531943816,340126492,base_link,0,1,40.5919013,-79.8990547,365.482486483,"(0.3480999690532691, 0.0, 0.0, 0.0, 0.3480999690532691, 0.0, 0.0, 0.0, 1.3923998762130765)",1
2018/07/18/15:56:56.543117,1314,1531943816,542262725,base_link,0,1,40.5919183,-79.8990835,366.56245004,"(0.3480999690532691, 0.0, 0.0, 0.0, 0.3480999690532691, 0.0, 0.0, 0.0, 1.3923998762130765)",1
2018/07/18/15:56:56.748625,1315,1531943816,748118750,base_link,0,1,40.5919346,-79.8991115,367.532414707,"(0.3480999690532691, 0.0, 0.0, 0.0, 0.3480999690532691, 0.0, 0.0, 0.0, 1.3923998762130765)",1
2018/07/18/15:56:56.980996,1316,1531943816,980555017,base_link,0,1,40.5919502,-79.8991382,368.392380994,"(0.3480999690532691, 0.0, 0.0, 0.0, 0.3480999690532691, 0.0, 0.0, 0.0, 1.3923998762130765)",1
2018/07/18/15:56:57.146190,1317,1531943817,145082512,base_link,0,1,40.5919654,-79.8991644,369.092347961,"(0.3480999690532691, 0.0, 0.0, 0.0, 0.3480999690532691, 0.0, 0.0, 0.0, 1.3923998762130765)",1
2018/07/18/15:56:57.366558,1318,1531943817,366304845,base_link,0,1,40.5919809,-79.8991899,369.652315521,"(0.3480999690532691, 0.0, 0.0, 0.0, 0.3480999690532691, 0.0, 0.0, 0.0, 1.3923998762130765)",1
2018/07/18/15:56:57.533930,1319,1531943817,533435892,base_link,0,1,40.5919968,-79.8992139,370.172284448,"(0.3480999690532691, 0.0, 0.0, 0.0, 0.3480999690532691, 0.0, 0.0, 0.0, 1.3923998762130765)",1
2018/07/18/15:56:57.776155,1320,1531943817,775883367,base_link,0,1,40.5920129,-79.8992375,370.362253703,"(0.3480999690532691, 0.0, 0.0, 0.0, 0.3480999690532691, 0.0, 0.0, 0.0, 1.3923998762130765)",1
2018/07/18/15:56:57.974863,1321,1531943817,974557728,base_link,0,1,40.5920291,-79.8992612,370.332222818,"(0.3480999690532691, 0.0, 0.0, 0.0, 0.3480999690532691, 0.0, 0.0, 0.0, 1.3923998762130765)",1
2018/07/18/15:56:58.145076,1322,1531943818,144717477,base_link,0,1,40.5920457,-79.8992844,369.97219228,"(0.3480999690532691, 0.0, 0.0, 0.0, 0.3480999690532691, 0.0, 0.0, 0.0, 1.3923998762130765)",1
2018/07/18/15:56:58.351479,1323,1531943818,350992100,base_link,0,1,40.5920619,-79.8993077,369.61216181,"(0.3480999690532691, 0.0, 0.0, 0.0, 0.3480999690532691, 0.0, 0.0, 0.0, 1.3923998762130765)",1
2018/07/18/15:56:58.560045,1324,1531943818,559634150,base_link,0,1,40.5920785,-79.8993309,369.102131278,"(0.3480999690532691, 0.0, 0.0, 0.0, 0.3480999690532691, 0.0, 0.0, 0.0, 1.3923998762130765)",1
2018/07/18/15:56:58.737004,1325,1531943818,736755315,base_link,0,1,40.5920952,-79.8993543,368.472100505,"(0.3480999690532691, 0.0, 0.0, 0.0, 0.3480999690532691, 0.0, 0.0, 0.0, 1.3923998762130765)",1
2018/07/18/15:56:58.953637,1326,1531943818,953375184,base_link,0,1,40.5921122,-79.8993775,367.802069814,"(0.3480999690532691, 0.0, 0.0, 0.0, 0.3480999690532691, 0.0, 0.0, 0.0, 1.3923998762130765)",1
2018/07/18/15:56:59.129205,1327,1531943819,126234263,base_link,0,1,40.5921298,-79.899401,367.062038573,"(0.3480999690532691, 0.0, 0.0, 0.0, 0.3480999690532691, 0.0, 0.0, 0.0, 1.3923998762130765)",1
2018/07/18/15:56:59.357148,1328,1531943819,356766219,base_link,0,1,40.5921475,-79.8994247,366.34200709,"(0.3480999690532691, 0.0, 0.0, 0.0, 0.3480999690532691, 0.0, 0.0, 0.0, 1.3923998762130765)",1
2018/07/18/15:56:59.570228,1329,1531943819,569801659,base_link,0,1,40.5921655,-79.8994488,365.611975078,"(0.3480999690532691, 0.0, 0.0, 0.0, 0.3480999690532691, 0.0, 0.0, 0.0, 1.3923998762130765)",1
2018/07/18/15:56:59.768672,1330,1531943819,768368481,base_link,0,1,40.592184,-79.8994731,364.97194266,"(0.3480999690532691, 0.0, 0.0, 0.0, 0.3480999690532691, 0.0, 0.0, 0.0, 1.3923998762130765)",1
2018/07/18/15:56:59.937801,1331,1531943819,937415544,base_link,0,1,40.5922025,-79.8994978,364.391909838,"(0.3480999690532691, 0.0, 0.0, 0.0, 0.3480999690532691, 0.0, 0.0, 0.0, 1.3923998762130765)",1
2018/07/18/15:57:00.141037,1332,1531943820,139532053,base_link,0,1,40.5922212,-79.8995229,363.881876529,"(0.3480999690532691, 0.0, 0.0, 0.0, 0.3480999690532691, 0.0, 0.0, 0.0, 1.3923998762130765)",1
2018/07/18/15:57:00.338804,1333,1531943820,338432284,base_link,0,1,40.5922404,-79.899548,363.371843018,"(0.3480999690532691, 0.0, 0.0, 0.0, 0.3480999690532691, 0.0, 0.0, 0.0, 1.3923998762130765)",1
2018/07/18/15:57:00.526033,1334,1531943820,525594614,base_link,0,1,40.5922593,-79.8995731,362.981809634,"(0.3480999690532691, 0.0, 0.0, 0.0, 0.3480999690532691, 0.0, 0.0, 0.0, 1.3923998762130765)",1
2018/07/18/15:57:00.759433,1335,1531943820,759033965,base_link,0,1,40.5922786,-79.8995982,362.61177609,"(0.3480999690532691, 0.0, 0.0, 0.0, 0.3480999690532691, 0.0, 0.0, 0.0, 1.3923998762130765)",1
2018/07/18/15:57:00.930943,1336,1531943820,930625962,base_link,0,1,40.5922979,-79.8996232,362.321742651,"(0.3480999690532691, 0.0, 0.0, 0.0, 0.3480999690532691, 0.0, 0.0, 0.0, 1.3923998762130765)",1
2018/07/18/15:57:01.134334,1337,1531943821,133872254,base_link,0,1,40.5923171,-79.899648,362.111709462,"(0.3480999690532691, 0.0, 0.0, 0.0, 0.3480999690532691, 0.0, 0.0, 0.0, 1.3923998762130765)",1
2018/07/18/15:57:01.355262,1338,1531943821,354566042,base_link,0,1,40.5923362,-79.8996718,361.991677336,"(0.3480999690532691, 0.0, 0.0, 0.0, 0.3480999690532691, 0.0, 0.0, 0.0, 1.3923998762130765)",1
2018/07/18/15:57:01.514416,1339,1531943821,514106706,base_link,0,1,40.5923557,-79.8996949,361.831645763,"(0.3480999690532691, 0.0, 0.0, 0.0, 0.3480999690532691, 0.0, 0.0, 0.0, 1.3923998762130765)",1
2018/07/18/15:57:01.799899,1340,1531943821,799438311,base_link,0,1,40.5923758,-79.899717,361.721614965,"(0.3480999690532691, 0.0, 0.0, 0.0, 0.3480999690532691, 0.0, 0.0, 0.0, 1.3923998762130765)",1
2018/07/18/15:57:01.910019,1341,1531943821,909663238,base_link,0,1,40.5923961,-79.8997378,361.681585412,"(0.3480999690532691, 0.0, 0.0, 0.0, 0.3480999690532691, 0.0, 0.0, 0.0, 1.3923998762130765)",1
2018/07/18/15:57:02.178304,1342,1531943822,177827222,base_link,0,1,40.5924168,-79.8997575,361.57155682,"(0.3480999690532691, 0.0, 0.0, 0.0, 0.3480999690532691, 0.0, 0.0, 0.0, 1.3923998762130765)",1
2018/07/18/15:57:02.339063,1343,1531943822,338803424,base_link,0,1,40.592438,-79.8997762,361.361529043,"(0.3480999690532691, 0.0, 0.0, 0.0, 0.3480999690532691, 0.0, 0.0, 0.0, 1.3923998762130765)",1
2018/07/18/15:57:02.540298,1344,1531943822,539802616,base_link,0,1,40.5924595,-79.8997934,361.151502674,"(0.3480999690532691, 0.0, 0.0, 0.0, 0.3480999690532691, 0.0, 0.0, 0.0, 1.3923998762130765)",1
2018/07/18/15:57:02.744195,1345,1531943822,743661195,base_link,0,1,40.5924819,-79.8998087,360.881477874,"(0.3480999690532691, 0.0, 0.0, 0.0, 0.3480999690532691, 0.0, 0.0, 0.0, 1.3923998762130765)",1
2018/07/18/15:57:02.931393,1346,1531943822,931062796,base_link,0,1,40.5925053,-79.8998215,360.601455212,"(0.3480999690532691, 0.0, 0.0, 0.0, 0.3480999690532691, 0.0, 0.0, 0.0, 1.3923998762130765)",1
2018/07/18/15:57:03.129997,1347,1531943823,129532230,base_link,0,1,40.5925297,-79.8998315,360.341434994,"(0.3480999690532691, 0.0, 0.0, 0.0, 0.3480999690532691, 0.0, 0.0, 0.0, 1.3923998762130765)",1
2018/07/18/15:57:03.329549,1348,1531943823,329030293,base_link,0,1,40.5925551,-79.8998385,360.011417424,"(0.3480999690532691, 0.0, 0.0, 0.0, 0.3480999690532691, 0.0, 0.0, 0.0, 1.3923998762130765)",1
2018/07/18/15:57:03.529814,1349,1531943823,529367706,base_link,0,1,40.5925812,-79.8998426,359.621402522,"(0.3721000174522402, 0.0, 0.0, 0.0, 0.3721000174522402, 0.0, 0.0, 0.0, 1.4884000698089608)",1
2018/07/18/15:57:03.743098,1350,1531943823,742564671,base_link,0,1,40.5926078,-79.8998431,359.211391084,"(0.3480999690532691, 0.0, 0.0, 0.0, 0.3480999690532691, 0.0, 0.0, 0.0, 1.3923998762130765)",1
2018/07/18/15:57:03.975508,1351,1531943823,975213874,base_link,0,1,40.5926346,-79.89984,358.781383234,"(0.3480999690532691, 0.0, 0.0, 0.0, 0.3480999690532691, 0.0, 0.0, 0.0, 1.3923998762130765)",1
2018/07/18/15:57:04.124490,1352,1531943824,123615295,base_link,0,1,40.5926615,-79.8998326,358.341379723,"(0.3480999690532691, 0.0, 0.0, 0.0, 0.3480999690532691, 0.0, 0.0, 0.0, 1.3923998762130765)",1
2018/07/18/15:57:04.367719,1353,1531943824,366966163,base_link,0,1,40.5926876,-79.8998206,357.971381228,"(0.3480999690532691, 0.0, 0.0, 0.0, 0.3480999690532691, 0.0, 0.0, 0.0, 1.3923998762130765)",1
2018/07/18/15:57:04.538516,1354,1531943824,538330596,base_link,0,1,40.5927128,-79.8998042,357.661387584,"(0.3480999690532691, 0.0, 0.0, 0.0, 0.3480999690532691, 0.0, 0.0, 0.0, 1.3923998762130765)",1
2018/07/18/15:57:04.739135,1355,1531943824,738887594,base_link,0,1,40.5927365,-79.8997834,357.401399039,"(0.3480999690532691, 0.0, 0.0, 0.0, 0.3480999690532691, 0.0, 0.0, 0.0, 1.3923998762130765)",1
2018/07/18/15:57:04.934906,1356,1531943824,933904309,base_link,0,1,40.5927585,-79.8997585,357.201415368,"(0.3480999690532691, 0.0, 0.0, 0.0, 0.3480999690532691, 0.0, 0.0, 0.0, 1.3923998762130765)",1
2018/07/18/15:57:05.139428,1357,1531943825,138961960,base_link,0,1,40.5927783,-79.8997296,356.991436673,"(0.3480999690532691, 0.0, 0.0, 0.0, 0.3480999690532691, 0.0, 0.0, 0.0, 1.3923998762130765)",1
2018/07/18/15:57:05.402898,1358,1531943825,402272746,base_link,0,1,40.5927951,-79.8996966,356.941463386,"(0.3480999690532691, 0.0, 0.0, 0.0, 0.3480999690532691, 0.0, 0.0, 0.0, 1.3923998762130765)",1
2018/07/18/15:57:05.585643,1359,1531943825,584678359,base_link,0,1,40.5928092,-79.899661,356.911493855,"(0.3480999690532691, 0.0, 0.0, 0.0, 0.3480999690532691, 0.0, 0.0, 0.0, 1.3923998762130765)",1
2018/07/18/15:57:05.779607,1360,1531943825,778847441,base_link,0,1,40.5928201,-79.8996232,356.961527878,"(0.3480999690532691, 0.0, 0.0, 0.0, 0.3480999690532691, 0.0, 0.0, 0.0, 1.3923998762130765)",1
2018/07/18/15:57:06.046412,1361,1531943826,45994950,base_link,0,1,40.5928277,-79.8995838,357.121564886,"(0.3480999690532691, 0.0, 0.0, 0.0, 0.3480999690532691, 0.0, 0.0, 0.0, 1.3923998762130765)",1
2018/07/18/15:57:06.140576,1362,1531943826,140105114,base_link,0,1,40.5928325,-79.8995436,357.401603858,"(0.3480999690532691, 0.0, 0.0, 0.0, 0.3480999690532691, 0.0, 0.0, 0.0, 1.3923998762130765)",1
2018/07/18/15:57:06.369098,1363,1531943826,368794096,base_link,0,1,40.592835,-79.8995032,357.75164398,"(0.3480999690532691, 0.0, 0.0, 0.0, 0.3480999690532691, 0.0, 0.0, 0.0, 1.3923998762130765)",1
2018/07/18/15:57:06.542707,1364,1531943826,542445709,base_link,0,1,40.5928359,-79.899463,358.091684556,"(0.3480999690532691, 0.0, 0.0, 0.0, 0.3480999690532691, 0.0, 0.0, 0.0, 1.3923998762130765)",1
2018/07/18/15:57:06.733711,1365,1531943826,733406805,base_link,0,1,40.5928357,-79.8994234,358.431724976,"(0.3480999690532691, 0.0, 0.0, 0.0, 0.3480999690532691, 0.0, 0.0, 0.0, 1.3923998762130765)",1
2018/07/18/15:57:06.975969,1366,1531943826,975075113,base_link,0,1,40.5928347,-79.8993841,358.85176542,"(0.3480999690532691, 0.0, 0.0, 0.0, 0.3480999690532691, 0.0, 0.0, 0.0, 1.3923998762130765)",1
2018/07/18/15:57:07.178994,1367,1531943827,178577179,base_link,0,1,40.5928334,-79.8993455,359.271805277,"(0.3480999690532691, 0.0, 0.0, 0.0, 0.3480999690532691, 0.0, 0.0, 0.0, 1.3923998762130765)",1
2018/07/18/15:57:07.342647,1368,1531943827,342063194,base_link,0,1,40.5928318,-79.8993072,359.681844954,"(0.3480999690532691, 0.0, 0.0, 0.0, 0.3480999690532691, 0.0, 0.0, 0.0, 1.3923998762130765)",1
2018/07/18/15:57:07.563678,1369,1531943827,563218482,base_link,0,1,40.5928304,-79.8992694,360.011884042,"(0.3480999690532691, 0.0, 0.0, 0.0, 0.3480999690532691, 0.0, 0.0, 0.0, 1.3923998762130765)",1
2018/07/18/15:57:07.746307,1370,1531943827,745375979,base_link,0,1,40.5928293,-79.899232,360.371922603,"(0.3480999690532691, 0.0, 0.0, 0.0, 0.3480999690532691, 0.0, 0.0, 0.0, 1.3923998762130765)",1
2018/07/18/15:57:07.959308,1371,1531943827,958909122,base_link,0,1,40.5928284,-79.8991947,360.691960981,"(0.3480999690532691, 0.0, 0.0, 0.0, 0.3480999690532691, 0.0, 0.0, 0.0, 1.3923998762130765)",1
2018/07/18/15:57:08.172826,1372,1531943828,172188607,base_link,0,1,40.592828,-79.8991578,360.911998749,"(0.3480999690532691, 0.0, 0.0, 0.0, 0.3480999690532691, 0.0, 0.0, 0.0, 1.3923998762130765)",1
2018/07/18/15:57:08.359308,1373,1531943828,359021762,base_link,0,1,40.5928283,-79.899121,361.08203613,"(0.3480999690532691, 0.0, 0.0, 0.0, 0.3480999690532691, 0.0, 0.0, 0.0, 1.3923998762130765)",1
2018/07/18/15:57:08.536354,1374,1531943828,535958656,base_link,0,1,40.5928292,-79.8990841,361.242073369,"(0.3480999690532691, 0.0, 0.0, 0.0, 0.3480999690532691, 0.0, 0.0, 0.0, 1.3923998762130765)",1
2018/07/18/15:57:08.748274,1375,1531943828,747994701,base_link,0,1,40.5928308,-79.8990471,361.372110425,"(0.3480999690532691, 0.0, 0.0, 0.0, 0.3480999690532691, 0.0, 0.0, 0.0, 1.3923998762130765)",1
2018/07/18/15:57:08.989827,1376,1531943828,989527023,base_link,0,1,40.592833,-79.8990101,361.402147237,"(0.3480999690532691, 0.0, 0.0, 0.0, 0.3480999690532691, 0.0, 0.0, 0.0, 1.3923998762130765)",1
2018/07/18/15:57:09.195153,1377,1531943829,194859828,base_link,0,1,40.5928356,-79.8989728,361.402184192,"(0.3480999690532691, 0.0, 0.0, 0.0, 0.3480999690532691, 0.0, 0.0, 0.0, 1.3923998762130765)",1
2018/07/18/15:57:09.347097,1378,1531943829,346814793,base_link,0,1,40.5928387,-79.8989351,361.382221352,"(0.3480999690532691, 0.0, 0.0, 0.0, 0.3480999690532691, 0.0, 0.0, 0.0, 1.3923998762130765)",1
2018/07/18/15:57:09.537867,1379,1531943829,536664685,base_link,0,1,40.5928419,-79.8988971,361.442258779,"(0.3480999690532691, 0.0, 0.0, 0.0, 0.3480999690532691, 0.0, 0.0, 0.0, 1.3923998762130765)",1
2018/07/18/15:57:09.739392,1380,1531943829,739008599,base_link,0,1,40.5928453,-79.8988586,361.472296635,"(0.3480999690532691, 0.0, 0.0, 0.0, 0.3480999690532691, 0.0, 0.0, 0.0, 1.3923998762130765)",1
2018/07/18/15:57:09.935762,1381,1531943829,935155181,base_link,0,1,40.5928489,-79.8988198,361.412334718,"(0.3480999690532691, 0.0, 0.0, 0.0, 0.3480999690532691, 0.0, 0.0, 0.0, 1.3923998762130765)",1
2018/07/18/15:57:10.145759,1382,1531943830,145438969,base_link,0,1,40.5928524,-79.8987809,361.352372946,"(0.3480999690532691, 0.0, 0.0, 0.0, 0.3480999690532691, 0.0, 0.0, 0.0, 1.3923998762130765)",1
2018/07/18/15:57:10.338914,1383,1531943830,338572249,base_link,0,1,40.5928556,-79.8987413,361.352412014,"(0.3480999690532691, 0.0, 0.0, 0.0, 0.3480999690532691, 0.0, 0.0, 0.0, 1.3923998762130765)",1
2018/07/18/15:57:10.550395,1384,1531943830,550190391,base_link,0,1,40.5928587,-79.8987012,361.332451634,"(0.3844000059127808, 0.0, 0.0, 0.0, 0.3844000059127808, 0.0, 0.0, 0.0, 1.5376000236511231)",1
2018/07/18/15:57:10.746865,1385,1531943830,746306034,base_link,0,1,40.5928614,-79.8986612,361.30249132,"(0.3844000059127808, 0.0, 0.0, 0.0, 0.3844000059127808, 0.0, 0.0, 0.0, 1.5376000236511231)",1
2018/07/18/15:57:10.937213,1386,1531943830,936728180,base_link,0,1,40.5928637,-79.8986209,361.202531479,"(0.3844000059127808, 0.0, 0.0, 0.0, 0.3844000059127808, 0.0, 0.0, 0.0, 1.5376000236511231)",1
2018/07/18/15:57:11.162032,1387,1531943831,161834768,base_link,0,1,40.5928653,-79.8985806,361.122571927,"(0.3844000059127808, 0.0, 0.0, 0.0, 0.3844000059127808, 0.0, 0.0, 0.0, 1.5376000236511231)",1
2018/07/18/15:57:11.371730,1388,1531943831,371224365,base_link,0,1,40.592866,-79.8985399,361.092613157,"(0.3844000059127808, 0.0, 0.0, 0.0, 0.3844000059127808, 0.0, 0.0, 0.0, 1.5376000236511231)",1
2018/07/18/15:57:11.565137,1389,1531943831,564879915,base_link,0,1,40.5928661,-79.8984991,361.172654737,"(0.3844000059127808, 0.0, 0.0, 0.0, 0.3844000059127808, 0.0, 0.0, 0.0, 1.5376000236511231)",1
2018/07/18/15:57:11.768655,1390,1531943831,768284082,base_link,0,1,40.5928657,-79.8984579,361.392696935,"(0.3844000059127808, 0.0, 0.0, 0.0, 0.3844000059127808, 0.0, 0.0, 0.0, 1.5376000236511231)",1
2018/07/18/15:57:11.944501,1391,1531943831,943786414,base_link,0,1,40.5928654,-79.8984167,361.642739094,"(0.3844000059127808, 0.0, 0.0, 0.0, 0.3844000059127808, 0.0, 0.0, 0.0, 1.5376000236511231)",1
2018/07/18/15:57:12.123615,1392,1531943832,123228509,base_link,0,1,40.5928653,-79.8983757,361.832780969,"(0.3844000059127808, 0.0, 0.0, 0.0, 0.3844000059127808, 0.0, 0.0, 0.0, 1.5376000236511231)",1
2018/07/18/15:57:12.367992,1393,1531943832,367686580,base_link,0,1,40.5928653,-79.8983347,361.932822806,"(0.3844000059127808, 0.0, 0.0, 0.0, 0.3844000059127808, 0.0, 0.0, 0.0, 1.5376000236511231)",1
2018/07/18/15:57:12.518462,1394,1531943832,518211718,base_link,0,1,40.5928652,-79.8982937,361.992864688,"(0.3844000059127808, 0.0, 0.0, 0.0, 0.3844000059127808, 0.0, 0.0, 0.0, 1.5376000236511231)",1
2018/07/18/15:57:12.720079,1395,1531943832,719617643,base_link,0,1,40.5928651,-79.8982526,362.022906674,"(0.3844000059127808, 0.0, 0.0, 0.0, 0.3844000059127808, 0.0, 0.0, 0.0, 1.5376000236511231)",1
2018/07/18/15:57:12.941350,1396,1531943832,940520065,base_link,0,1,40.5928648,-79.8982113,362.102948949,"(0.3844000059127808, 0.0, 0.0, 0.0, 0.3844000059127808, 0.0, 0.0, 0.0, 1.5376000236511231)",1
2018/07/18/15:57:13.139645,1397,1531943833,138877294,base_link,0,1,40.5928646,-79.89817,362.212991187,"(0.3844000059127808, 0.0, 0.0, 0.0, 0.3844000059127808, 0.0, 0.0, 0.0, 1.5376000236511231)",1
2018/07/18/15:57:13.377379,1398,1531943833,377032343,base_link,0,1,40.5928642,-79.8981287,362.383033509,"(0.3844000059127808, 0.0, 0.0, 0.0, 0.3844000059127808, 0.0, 0.0, 0.0, 1.5376000236511231)",1
2018/07/18/15:57:13.542631,1399,1531943833,542340536,base_link,0,1,40.5928632,-79.8980874,362.683076081,"(0.3844000059127808, 0.0, 0.0, 0.0, 0.3844000059127808, 0.0, 0.0, 0.0, 1.5376000236511231)",1
2018/07/18/15:57:13.766150,1400,1531943833,765899475,base_link,0,1,40.5928628,-79.8980464,362.743118103,"(0.3844000059127808, 0.0, 0.0, 0.0, 0.3844000059127808, 0.0, 0.0, 0.0, 1.5376000236511231)",1
2018/07/18/15:57:13.939512,1401,1531943833,939060116,base_link,0,1,40.5928623,-79.8980054,362.803160169,"(0.3844000059127808, 0.0, 0.0, 0.0, 0.3844000059127808, 0.0, 0.0, 0.0, 1.5376000236511231)",1
2018/07/18/15:57:14.157144,1402,1531943834,156467773,base_link,0,1,40.592862,-79.8979646,362.903201952,"(0.3844000059127808, 0.0, 0.0, 0.0, 0.3844000059127808, 0.0, 0.0, 0.0, 1.5376000236511231)",1
2018/07/18/15:57:14.335942,1403,1531943834,335322077,base_link,0,1,40.592862,-79.8979236,362.943243818,"(0.3844000059127808, 0.0, 0.0, 0.0, 0.3844000059127808, 0.0, 0.0, 0.0, 1.5376000236511231)",1
2018/07/18/15:57:14.569199,1404,1531943834,568521192,base_link,0,1,40.5928622,-79.8978828,362.9532854,"(0.3844000059127808, 0.0, 0.0, 0.0, 0.3844000059127808, 0.0, 0.0, 0.0, 1.5376000236511231)",1
2018/07/18/15:57:14.748966,1405,1531943834,748664024,base_link,0,1,40.5928623,-79.8978421,363.013326924,"(0.3844000059127808, 0.0, 0.0, 0.0, 0.3844000059127808, 0.0, 0.0, 0.0, 1.5376000236511231)",1
2018/07/18/15:57:14.920197,1406,1531943834,919494298,base_link,0,1,40.5928624,-79.8978015,363.093368349,"(0.3844000059127808, 0.0, 0.0, 0.0, 0.3844000059127808, 0.0, 0.0, 0.0, 1.5376000236511231)",1
2018/07/18/15:57:15.116833,1407,1531943835,115947622,base_link,0,1,40.5928623,-79.897761,363.173409757,"(0.3844000059127808, 0.0, 0.0, 0.0, 0.3844000059127808, 0.0, 0.0, 0.0, 1.5376000236511231)",1
2018/07/18/15:57:15.378011,1408,1531943835,377768092,base_link,0,1,40.592862,-79.8977204,363.183451352,"(0.3844000059127808, 0.0, 0.0, 0.0, 0.3844000059127808, 0.0, 0.0, 0.0, 1.5376000236511231)",1
2018/07/18/15:57:15.545677,1409,1531943835,545049069,base_link,0,1,40.5928616,-79.8976795,363.213493297,"(0.4356000346183784, 0.0, 0.0, 0.0, 0.4356000346183784, 0.0, 0.0, 0.0, 1.7424001384735135)",1
2018/07/18/15:57:15.739524,1410,1531943835,738959547,base_link,0,1,40.592861,-79.8976385,363.22353543,"(0.4760999967098236, 0.0, 0.0, 0.0, 0.4760999967098236, 0.0, 0.0, 0.0, 1.9043999868392945)",1
2018/07/18/15:57:15.949963,1411,1531943835,949413183,base_link,0,1,40.5928599,-79.8975972,363.163578079,"(0.39689999399185183, 0.0, 0.0, 0.0, 0.39689999399185183, 0.0, 0.0, 0.0, 1.5875999759674073)",1
2018/07/18/15:57:16.182511,1412,1531943836,182032187,base_link,0,1,40.5928591,-79.8975559,362.913620607,"(0.3844000059127808, 0.0, 0.0, 0.0, 0.3844000059127808, 0.0, 0.0, 0.0, 1.5376000236511231)",1
2018/07/18/15:57:16.349274,1413,1531943836,348542105,base_link,0,1,40.5928584,-79.8975143,362.613663403,"(0.3844000059127808, 0.0, 0.0, 0.0, 0.3844000059127808, 0.0, 0.0, 0.0, 1.5376000236511231)",1
2018/07/18/15:57:16.545249,1414,1531943836,544727536,base_link,0,1,40.5928579,-79.8974722,362.323706631,"(0.3844000059127808, 0.0, 0.0, 0.0, 0.3844000059127808, 0.0, 0.0, 0.0, 1.5376000236511231)",1
2018/07/18/15:57:16.777198,1415,1531943836,776513079,base_link,0,1,40.5928577,-79.8974299,362.043749942,"(0.3844000059127808, 0.0, 0.0, 0.0, 0.3844000059127808, 0.0, 0.0, 0.0, 1.5376000236511231)",1
2018/07/18/15:57:16.926077,1416,1531943836,925651432,base_link,0,1,40.5928577,-79.8973869,361.813793889,"(0.3844000059127808, 0.0, 0.0, 0.0, 0.3844000059127808, 0.0, 0.0, 0.0, 1.5376000236511231)",1
2018/07/18/15:57:17.146705,1417,1531943837,146074044,base_link,0,1,40.5928579,-79.8973435,361.703838166,"(0.3844000059127808, 0.0, 0.0, 0.0, 0.3844000059127808, 0.0, 0.0, 0.0, 1.5376000236511231)",1
2018/07/18/15:57:17.350940,1418,1531943837,350515635,base_link,0,1,40.5928583,-79.8972997,361.623882773,"(0.3844000059127808, 0.0, 0.0, 0.0, 0.3844000059127808, 0.0, 0.0, 0.0, 1.5376000236511231)",1
2018/07/18/15:57:17.542030,1419,1531943837,541790569,base_link,0,1,40.592859,-79.8972558,361.653927361,"(0.3844000059127808, 0.0, 0.0, 0.0, 0.3844000059127808, 0.0, 0.0, 0.0, 1.5376000236511231)",1
2018/07/18/15:57:17.743643,1420,1531943837,739254997,base_link,0,1,40.5928599,-79.8972119,361.71397187,"(0.3844000059127808, 0.0, 0.0, 0.0, 0.3844000059127808, 0.0, 0.0, 0.0, 1.5376000236511231)",1
2018/07/18/15:57:17.968641,1421,1531943837,967957126,base_link,0,1,40.5928608,-79.8971677,361.864016689,"(0.3844000059127808, 0.0, 0.0, 0.0, 0.3844000059127808, 0.0, 0.0, 0.0, 1.5376000236511231)",1
2018/07/18/15:57:18.149313,1422,1531943838,149040987,base_link,0,1,40.592862,-79.8971241,362.054060774,"(0.3844000059127808, 0.0, 0.0, 0.0, 0.3844000059127808, 0.0, 0.0, 0.0, 1.5376000236511231)",1
2018/07/18/15:57:18.370555,1423,1531943838,369984079,base_link,0,1,40.5928632,-79.8970806,362.234104759,"(0.4356000346183784, 0.0, 0.0, 0.0, 0.4356000346183784, 0.0, 0.0, 0.0, 1.7424001384735135)",1
2018/07/18/15:57:18.572329,1424,1531943838,571963689,base_link,0,1,40.5928643,-79.8970372,362.414148687,"(0.3844000059127808, 0.0, 0.0, 0.0, 0.3844000059127808, 0.0, 0.0, 0.0, 1.5376000236511231)",1
2018/07/18/15:57:18.796345,1425,1531943838,796027287,base_link,0,1,40.5928654,-79.896994,362.534192413,"(0.3844000059127808, 0.0, 0.0, 0.0, 0.3844000059127808, 0.0, 0.0, 0.0, 1.5376000236511231)",1
2018/07/18/15:57:18.929358,1426,1531943838,928979698,base_link,0,1,40.5928664,-79.8969509,362.614236081,"(0.3844000059127808, 0.0, 0.0, 0.0, 0.3844000059127808, 0.0, 0.0, 0.0, 1.5376000236511231)",1
2018/07/18/15:57:19.112652,1427,1531943839,111588344,base_link,0,1,40.5928671,-79.8969079,362.694279774,"(0.3844000059127808, 0.0, 0.0, 0.0, 0.3844000059127808, 0.0, 0.0, 0.0, 1.5376000236511231)",1
2018/07/18/15:57:19.366695,1428,1531943839,366221275,base_link,0,1,40.5928675,-79.8968652,362.784323287,"(0.3844000059127808, 0.0, 0.0, 0.0, 0.3844000059127808, 0.0, 0.0, 0.0, 1.5376000236511231)",1
2018/07/18/15:57:19.538574,1429,1531943839,538203234,base_link,0,1,40.5928674,-79.8968224,362.904367112,"(0.3844000059127808, 0.0, 0.0, 0.0, 0.3844000059127808, 0.0, 0.0, 0.0, 1.5376000236511231)",1
2018/07/18/15:57:19.736599,1430,1531943839,736086450,base_link,0,1,40.592867,-79.8967797,362.894410962,"(0.3844000059127808, 0.0, 0.0, 0.0, 0.3844000059127808, 0.0, 0.0, 0.0, 1.5376000236511231)",1
2018/07/18/15:57:19.941985,1431,1531943839,941231273,base_link,0,1,40.5928661,-79.8967368,362.894455225,"(0.3844000059127808, 0.0, 0.0, 0.0, 0.3844000059127808, 0.0, 0.0, 0.0, 1.5376000236511231)",1
2018/07/18/15:57:20.169295,1432,1531943840,168934005,base_link,0,1,40.592865,-79.8966942,362.854499268,"(0.3844000059127808, 0.0, 0.0, 0.0, 0.3844000059127808, 0.0, 0.0, 0.0, 1.5376000236511231)",1
2018/07/18/15:57:20.340359,1433,1531943840,339880845,base_link,0,1,40.5928633,-79.8966516,362.774543562,"(0.3844000059127808, 0.0, 0.0, 0.0, 0.3844000059127808, 0.0, 0.0, 0.0, 1.5376000236511231)",1
2018/07/18/15:57:20.538243,1434,1531943840,538030973,base_link,0,1,40.5928608,-79.8966091,362.624588087,"(0.3844000059127808, 0.0, 0.0, 0.0, 0.3844000059127808, 0.0, 0.0, 0.0, 1.5376000236511231)",1
2018/07/18/15:57:20.751189,1435,1531943840,750594880,base_link,0,1,40.5928572,-79.8965666,362.474633071,"(0.4356000346183784, 0.0, 0.0, 0.0, 0.4356000346183784, 0.0, 0.0, 0.0, 1.7424001384735135)",1
2018/07/18/15:57:20.942823,1436,1531943840,942593723,base_link,0,1,40.5928521,-79.8965242,362.344678575,"(0.4356000346183784, 0.0, 0.0, 0.0, 0.4356000346183784, 0.0, 0.0, 0.0, 1.7424001384735135)",1
2018/07/18/15:57:21.170309,1437,1531943841,169157625,base_link,0,1,40.5928455,-79.8964818,362.224724704,"(0.4356000346183784, 0.0, 0.0, 0.0, 0.4356000346183784, 0.0, 0.0, 0.0, 1.7424001384735135)",1
2018/07/18/15:57:21.375595,1438,1531943841,375038833,base_link,0,1,40.5928373,-79.8964395,362.084771396,"(0.4356000346183784, 0.0, 0.0, 0.0, 0.4356000346183784, 0.0, 0.0, 0.0, 1.7424001384735135)",1
2018/07/18/15:57:21.532107,1439,1531943841,531797943,base_link,0,1,40.5928274,-79.8963974,361.94481859,"(0.4356000346183784, 0.0, 0.0, 0.0, 0.4356000346183784, 0.0, 0.0, 0.0, 1.7424001384735135)",1
2018/07/18/15:57:21.735241,1440,1531943841,734706355,base_link,0,1,40.592816,-79.8963558,361.714865898,"(0.3844000059127808, 0.0, 0.0, 0.0, 0.3844000059127808, 0.0, 0.0, 0.0, 1.5376000236511231)",1
2018/07/18/15:57:21.941940,1441,1531943841,941372641,base_link,0,1,40.5928025,-79.896315,361.424913261,"(0.4356000346183784, 0.0, 0.0, 0.0, 0.4356000346183784, 0.0, 0.0, 0.0, 1.7424001384735135)",1
2018/07/18/15:57:22.166070,1442,1531943842,165562177,base_link,0,1,40.5927864,-79.896275,361.244960885,"(0.4356000346183784, 0.0, 0.0, 0.0, 0.4356000346183784, 0.0, 0.0, 0.0, 1.7424001384735135)",1
2018/07/18/15:57:22.342071,1443,1531943842,341782625,base_link,0,1,40.5927673,-79.8962368,361.075007915,"(0.3844000059127808, 0.0, 0.0, 0.0, 0.3844000059127808, 0.0, 0.0, 0.0, 1.5376000236511231)",1
2018/07/18/15:57:22.573213,1444,1531943842,572853200,base_link,0,1,40.5927451,-79.8962004,361.025054391,"(0.3844000059127808, 0.0, 0.0, 0.0, 0.3844000059127808, 0.0, 0.0, 0.0, 1.5376000236511231)",1
2018/07/18/15:57:22.741719,1445,1531943842,740753684,base_link,0,1,40.5927215,-79.8961657,360.885099712,"(0.3844000059127808, 0.0, 0.0, 0.0, 0.3844000059127808, 0.0, 0.0, 0.0, 1.5376000236511231)",1
2018/07/18/15:57:22.951151,1446,1531943842,950794558,base_link,0,1,40.5926965,-79.8961329,360.645143675,"(0.3844000059127808, 0.0, 0.0, 0.0, 0.3844000059127808, 0.0, 0.0, 0.0, 1.5376000236511231)",1
2018/07/18/15:57:23.146822,1447,1531943843,146415033,base_link,0,1,40.5926694,-79.8961024,360.355186159,"(0.3844000059127808, 0.0, 0.0, 0.0, 0.3844000059127808, 0.0, 0.0, 0.0, 1.5376000236511231)",1
2018/07/18/15:57:23.342196,1448,1531943843,340933858,base_link,0,1,40.5926397,-79.8960751,360.145226451,"(0.3844000059127808, 0.0, 0.0, 0.0, 0.3844000059127808, 0.0, 0.0, 0.0, 1.5376000236511231)",1
2018/07/18/15:57:23.552615,1449,1531943843,552183811,base_link,0,1,40.592608,-79.8960517,359.945263585,"(0.3844000059127808, 0.0, 0.0, 0.0, 0.3844000059127808, 0.0, 0.0, 0.0, 1.5376000236511231)",1
2018/07/18/15:57:23.710474,1450,1531943843,709465802,base_link,0,1,40.5925751,-79.8960326,359.655296818,"(0.4356000346183784, 0.0, 0.0, 0.0, 0.4356000346183784, 0.0, 0.0, 0.0, 1.7424001384735135)",1
2018/07/18/15:57:23.945517,1451,1531943843,945226470,base_link,0,1,40.5925406,-79.8960182,359.595325908,"(0.3844000059127808, 0.0, 0.0, 0.0, 0.3844000059127808, 0.0, 0.0, 0.0, 1.5376000236511231)",1
2018/07/18/15:57:24.138718,1452,1531943844,138278308,base_link,0,1,40.5925052,-79.8960086,359.69535046,"(0.3844000059127808, 0.0, 0.0, 0.0, 0.3844000059127808, 0.0, 0.0, 0.0, 1.5376000236511231)",1
2018/07/18/15:57:24.340641,1453,1531943844,340326583,base_link,0,1,40.5924697,-79.8960022,359.795371782,"(0.3844000059127808, 0.0, 0.0, 0.0, 0.3844000059127808, 0.0, 0.0, 0.0, 1.5376000236511231)",1
2018/07/18/15:57:24.570950,1454,1531943844,570523803,base_link,0,1,40.5924346,-79.8959988,359.795389869,"(0.3480999690532691, 0.0, 0.0, 0.0, 0.3480999690532691, 0.0, 0.0, 0.0, 1.3923998762130765)",1
2018/07/18/15:57:24.751202,1455,1531943844,750975024,base_link,0,1,40.5923996,-79.8959982,359.855405051,"(0.3480999690532691, 0.0, 0.0, 0.0, 0.3480999690532691, 0.0, 0.0, 0.0, 1.3923998762130765)",1
2018/07/18/15:57:24.947973,1456,1531943844,947143530,base_link,0,1,40.592365,-79.8960003,360.005417305,"(0.3480999690532691, 0.0, 0.0, 0.0, 0.3480999690532691, 0.0, 0.0, 0.0, 1.3923998762130765)",1
2018/07/18/15:57:25.150691,1457,1531943845,148450794,base_link,0,1,40.5923302,-79.8960046,360.455427394,"(0.3480999690532691, 0.0, 0.0, 0.0, 0.3480999690532691, 0.0, 0.0, 0.0, 1.3923998762130765)",1
2018/07/18/15:57:25.319682,1458,1531943845,317547051,base_link,0,1,40.5922979,-79.8960114,360.635433883,"(0.3480999690532691, 0.0, 0.0, 0.0, 0.3480999690532691, 0.0, 0.0, 0.0, 1.3923998762130765)",1
2018/07/18/15:57:25.512960,1459,1531943845,512182267,base_link,0,1,40.5922657,-79.8960186,361.005439926,"(0.3480999690532691, 0.0, 0.0, 0.0, 0.3480999690532691, 0.0, 0.0, 0.0, 1.3923998762130765)",1
2018/07/18/15:57:25.741408,1460,1531943845,741077651,base_link,0,1,40.5922343,-79.8960263,361.305445127,"(0.3480999690532691, 0.0, 0.0, 0.0, 0.3480999690532691, 0.0, 0.0, 0.0, 1.3923998762130765)",1
2018/07/18/15:57:25.925999,1461,1531943845,923568564,base_link,0,1,40.5922032,-79.8960337,361.635450515,"(0.3480999690532691, 0.0, 0.0, 0.0, 0.3480999690532691, 0.0, 0.0, 0.0, 1.3923998762130765)",1
2018/07/18/15:57:26.168788,1462,1531943846,168467506,base_link,0,1,40.5921725,-79.8960409,361.885455945,"(0.3480999690532691, 0.0, 0.0, 0.0, 0.3480999690532691, 0.0, 0.0, 0.0, 1.3923998762130765)",1
2018/07/18/15:57:26.365222,1463,1531943846,364716467,base_link,0,1,40.592142,-79.8960474,362.095462014,"(0.3480999690532691, 0.0, 0.0, 0.0, 0.3480999690532691, 0.0, 0.0, 0.0, 1.3923998762130765)",1
2018/07/18/15:57:26.535634,1464,1531943846,535329190,base_link,0,1,40.5921118,-79.8960533,362.255468577,"(0.3480999690532691, 0.0, 0.0, 0.0, 0.3480999690532691, 0.0, 0.0, 0.0, 1.3923998762130765)",1
2018/07/18/15:57:26.790603,1465,1531943846,790282605,base_link,0,1,40.5920818,-79.8960583,362.325475983,"(0.3480999690532691, 0.0, 0.0, 0.0, 0.3480999690532691, 0.0, 0.0, 0.0, 1.3923998762130765)",1
2018/07/18/15:57:26.930912,1466,1531943846,930415146,base_link,0,1,40.5920516,-79.8960623,362.405484503,"(0.3480999690532691, 0.0, 0.0, 0.0, 0.3480999690532691, 0.0, 0.0, 0.0, 1.3923998762130765)",1
2018/07/18/15:57:27.169326,1467,1531943847,169152406,base_link,0,1,40.5920212,-79.8960651,362.53549434,"(0.3480999690532691, 0.0, 0.0, 0.0, 0.3480999690532691, 0.0, 0.0, 0.0, 1.3923998762130765)",1
2018/07/18/15:57:27.336174,1468,1531943847,335532895,base_link,0,1,40.5919906,-79.8960668,362.675505394,"(0.3480999690532691, 0.0, 0.0, 0.0, 0.3480999690532691, 0.0, 0.0, 0.0, 1.3923998762130765)",1
2018/07/18/15:57:27.574627,1469,1531943847,574375307,base_link,0,1,40.5919602,-79.8960674,362.665517496,"(0.3480999690532691, 0.0, 0.0, 0.0, 0.3480999690532691, 0.0, 0.0, 0.0, 1.3923998762130765)",1
2018/07/18/15:57:27.717830,1470,1531943847,717060525,base_link,0,1,40.5919296,-79.8960673,362.665530404,"(0.3480999690532691, 0.0, 0.0, 0.0, 0.3480999690532691, 0.0, 0.0, 0.0, 1.3923998762130765)",1
2018/07/18/15:57:27.960136,1471,1531943847,955641788,base_link,0,1,40.5918987,-79.8960667,362.565543956,"(0.3480999690532691, 0.0, 0.0, 0.0, 0.3480999690532691, 0.0, 0.0, 0.0, 1.3923998762130765)",1
2018/07/18/15:57:28.141204,1472,1531943848,133595838,base_link,0,1,40.5918677,-79.8960658,362.365557862,"(0.3480999690532691, 0.0, 0.0, 0.0, 0.3480999690532691, 0.0, 0.0, 0.0, 1.3923998762130765)",1
2018/07/18/15:57:28.337068,1473,1531943848,336766582,base_link,0,1,40.5918364,-79.8960646,362.195572206,"(0.3480999690532691, 0.0, 0.0, 0.0, 0.3480999690532691, 0.0, 0.0, 0.0, 1.3923998762130765)",1
2018/07/18/15:57:28.538306,1474,1531943848,537975141,base_link,0,1,40.5918047,-79.8960635,362.02558662,"(0.3480999690532691, 0.0, 0.0, 0.0, 0.3480999690532691, 0.0, 0.0, 0.0, 1.3923998762130765)",1
2018/07/18/15:57:28.787238,1475,1531943848,786916222,base_link,0,1,40.5917728,-79.8960623,361.845601226,"(0.3480999690532691, 0.0, 0.0, 0.0, 0.3480999690532691, 0.0, 0.0, 0.0, 1.3923998762130765)",1
2018/07/18/15:57:28.937662,1476,1531943848,934162156,base_link,0,1,40.5917406,-79.8960612,361.69561586,"(0.3480999690532691, 0.0, 0.0, 0.0, 0.3480999690532691, 0.0, 0.0, 0.0, 1.3923998762130765)",1
2018/07/18/15:57:29.135398,1477,1531943849,135126977,base_link,0,1,40.5917081,-79.8960603,361.58563042,"(0.3480999690532691, 0.0, 0.0, 0.0, 0.3480999690532691, 0.0, 0.0, 0.0, 1.3923998762130765)",1
2018/07/18/15:57:29.343867,1478,1531943849,343436256,base_link,0,1,40.5916754,-79.8960593,361.515645172,"(0.3480999690532691, 0.0, 0.0, 0.0, 0.3480999690532691, 0.0, 0.0, 0.0, 1.3923998762130765)",1
2018/07/18/15:57:29.544530,1479,1531943849,544109978,base_link,0,1,40.5916425,-79.8960586,361.465659706,"(0.3480999690532691, 0.0, 0.0, 0.0, 0.3480999690532691, 0.0, 0.0, 0.0, 1.3923998762130765)",1
2018/07/18/15:57:29.726802,1480,1531943849,725284986,base_link,0,1,40.5916095,-79.8960583,361.455673877,"(0.3480999690532691, 0.0, 0.0, 0.0, 0.3480999690532691, 0.0, 0.0, 0.0, 1.3923998762130765)",1
2018/07/18/15:57:29.934797,1481,1531943849,933856887,base_link,0,1,40.5915765,-79.8960587,361.565687336,"(0.3480999690532691, 0.0, 0.0, 0.0, 0.3480999690532691, 0.0, 0.0, 0.0, 1.3923998762130765)",1
2018/07/18/15:57:30.117026,1482,1531943850,116719398,base_link,0,1,40.5915435,-79.8960597,361.735700184,"(0.3480999690532691, 0.0, 0.0, 0.0, 0.3480999690532691, 0.0, 0.0, 0.0, 1.3923998762130765)",1
2018/07/18/15:57:30.304895,1483,1531943850,304662106,base_link,0,1,40.5915104,-79.896061,361.965712772,"(0.3480999690532691, 0.0, 0.0, 0.0, 0.3480999690532691, 0.0, 0.0, 0.0, 1.3923998762130765)",1
2018/07/18/15:57:30.510787,1484,1531943850,510092512,base_link,0,1,40.5914774,-79.8960626,362.205725016,"(0.3480999690532691, 0.0, 0.0, 0.0, 0.3480999690532691, 0.0, 0.0, 0.0, 1.3923998762130765)",1
2018/07/18/15:57:30.760134,1485,1531943850,759391616,base_link,0,1,40.5914446,-79.8960644,362.385736975,"(0.3480999690532691, 0.0, 0.0, 0.0, 0.3480999690532691, 0.0, 0.0, 0.0, 1.3923998762130765)",1
2018/07/18/15:57:30.945650,1486,1531943850,945115919,base_link,0,1,40.591412,-79.8960663,362.495748753,"(0.3480999690532691, 0.0, 0.0, 0.0, 0.3480999690532691, 0.0, 0.0, 0.0, 1.3923998762130765)",1
2018/07/18/15:57:31.123961,1487,1531943851,123587478,base_link,0,1,40.5913796,-79.8960683,362.53576035,"(0.3480999690532691, 0.0, 0.0, 0.0, 0.3480999690532691, 0.0, 0.0, 0.0, 1.3923998762130765)",1
2018/07/18/15:57:31.348721,1488,1531943851,348112670,base_link,0,1,40.5913471,-79.8960701,362.615772198,"(0.3480999690532691, 0.0, 0.0, 0.0, 0.3480999690532691, 0.0, 0.0, 0.0, 1.3923998762130765)",1
2018/07/18/15:57:31.577048,1489,1531943851,575774018,base_link,0,1,40.5913146,-79.8960716,362.71578436,"(0.3480999690532691, 0.0, 0.0, 0.0, 0.3480999690532691, 0.0, 0.0, 0.0, 1.3923998762130765)",1
2018/07/18/15:57:31.737266,1490,1531943851,736576570,base_link,0,1,40.5912821,-79.8960728,362.835796835,"(0.3480999690532691, 0.0, 0.0, 0.0, 0.3480999690532691, 0.0, 0.0, 0.0, 1.3923998762130765)",1
2018/07/18/15:57:31.947259,1491,1531943851,945751000,base_link,0,1,40.5912497,-79.8960738,362.925809478,"(0.3480999690532691, 0.0, 0.0, 0.0, 0.3480999690532691, 0.0, 0.0, 0.0, 1.3923998762130765)",1
2018/07/18/15:57:32.122587,1492,1531943852,121661440,base_link,0,1,40.5912173,-79.8960744,363.035822537,"(0.3480999690532691, 0.0, 0.0, 0.0, 0.3480999690532691, 0.0, 0.0, 0.0, 1.3923998762130765)",1
2018/07/18/15:57:32.357772,1493,1531943852,357493449,base_link,0,1,40.5911851,-79.896075,363.175835516,"(0.3480999690532691, 0.0, 0.0, 0.0, 0.3480999690532691, 0.0, 0.0, 0.0, 1.3923998762130765)",1
2018/07/18/15:57:32.538625,1494,1531943852,538118235,base_link,0,1,40.591153,-79.8960755,363.325848561,"(0.3480999690532691, 0.0, 0.0, 0.0, 0.3480999690532691, 0.0, 0.0, 0.0, 1.3923998762130765)",1
2018/07/18/15:57:32.750295,1495,1531943852,748591566,base_link,0,1,40.5911208,-79.8960764,363.475861243,"(0.3480999690532691, 0.0, 0.0, 0.0, 0.3480999690532691, 0.0, 0.0, 0.0, 1.3923998762130765)",1
2018/07/18/15:57:32.935932,1496,1531943852,935488151,base_link,0,1,40.5910887,-79.8960779,363.605873272,"(0.3480999690532691, 0.0, 0.0, 0.0, 0.3480999690532691, 0.0, 0.0, 0.0, 1.3923998762130765)",1
2018/07/18/15:57:33.117092,1497,1531943853,113561673,base_link,0,1,40.5910565,-79.8960803,363.735884424,"(0.3480999690532691, 0.0, 0.0, 0.0, 0.3480999690532691, 0.0, 0.0, 0.0, 1.3923998762130765)",1
2018/07/18/15:57:33.388197,1498,1531943853,387454359,base_link,0,1,40.5910244,-79.8960836,363.765894616,"(0.3480999690532691, 0.0, 0.0, 0.0, 0.3480999690532691, 0.0, 0.0, 0.0, 1.3923998762130765)",1
2018/07/18/15:57:33.554057,1499,1531943853,553072605,base_link,0,1,40.5909923,-79.896088,363.705903683,"(0.3480999690532691, 0.0, 0.0, 0.0, 0.3480999690532691, 0.0, 0.0, 0.0, 1.3923998762130765)",1
2018/07/18/15:57:33.731629,1500,1531943853,730820917,base_link,0,1,40.5909601,-79.8960938,363.495911361,"(0.3480999690532691, 0.0, 0.0, 0.0, 0.3480999690532691, 0.0, 0.0, 0.0, 1.3923998762130765)",1
2018/07/18/15:57:33.968489,1501,1531943853,968180752,base_link,0,1,40.5909279,-79.8961018,363.245916785,"(0.3480999690532691, 0.0, 0.0, 0.0, 0.3480999690532691, 0.0, 0.0, 0.0, 1.3923998762130765)",1
2018/07/18/15:57:34.138376,1502,1531943854,137950568,base_link,0,1,40.5908958,-79.8961123,362.985919605,"(0.3480999690532691, 0.0, 0.0, 0.0, 0.3480999690532691, 0.0, 0.0, 0.0, 1.3923998762130765)",1
2018/07/18/15:57:34.343292,1503,1531943854,342869381,base_link,0,1,40.590864,-79.8961253,362.715919736,"(0.3480999690532691, 0.0, 0.0, 0.0, 0.3480999690532691, 0.0, 0.0, 0.0, 1.3923998762130765)",1
2018/07/18/15:57:34.515046,1504,1531943854,514568199,base_link,0,1,40.5908326,-79.8961412,362.435916725,"(0.3480999690532691, 0.0, 0.0, 0.0, 0.3480999690532691, 0.0, 0.0, 0.0, 1.3923998762130765)",1
2018/07/18/15:57:34.749657,1505,1531943854,749193832,base_link,0,1,40.5908021,-79.8961603,362.155910052,"(0.3480999690532691, 0.0, 0.0, 0.0, 0.3480999690532691, 0.0, 0.0, 0.0, 1.3923998762130765)",1
2018/07/18/15:57:34.916327,1506,1531943854,916013443,base_link,0,1,40.5907726,-79.8961827,361.905899571,"(0.3480999690532691, 0.0, 0.0, 0.0, 0.3480999690532691, 0.0, 0.0, 0.0, 1.3923998762130765)",1
2018/07/18/15:57:35.152302,1507,1531943855,148243523,base_link,0,1,40.5907445,-79.8962083,361.685885214,"(0.3480999690532691, 0.0, 0.0, 0.0, 0.3480999690532691, 0.0, 0.0, 0.0, 1.3923998762130765)",1
2018/07/18/15:57:35.364976,1508,1531943855,364659037,base_link,0,1,40.5907182,-79.8962368,361.50586712,"(0.3480999690532691, 0.0, 0.0, 0.0, 0.3480999690532691, 0.0, 0.0, 0.0, 1.3923998762130765)",1
2018/07/18/15:57:35.567919,1509,1531943855,567533525,base_link,0,1,40.5906942,-79.8962683,361.365844974,"(0.3480999690532691, 0.0, 0.0, 0.0, 0.3480999690532691, 0.0, 0.0, 0.0, 1.3923998762130765)",1
2018/07/18/15:57:35.722036,1510,1531943855,721018032,base_link,0,1,40.5906727,-79.8963025,361.285818997,"(0.3480999690532691, 0.0, 0.0, 0.0, 0.3480999690532691, 0.0, 0.0, 0.0, 1.3923998762130765)",1
2018/07/18/15:57:35.928376,1511,1531943855,924141286,base_link,0,1,40.5906538,-79.8963388,361.215789763,"(0.3480999690532691, 0.0, 0.0, 0.0, 0.3480999690532691, 0.0, 0.0, 0.0, 1.3923998762130765)",1
2018/07/18/15:57:36.159150,1512,1531943856,158851501,base_link,0,1,40.5906375,-79.8963767,361.185757786,"(0.3480999690532691, 0.0, 0.0, 0.0, 0.3480999690532691, 0.0, 0.0, 0.0, 1.3923998762130765)",1
2018/07/18/15:57:36.350407,1513,1531943856,347288306,base_link,0,1,40.5906238,-79.8964158,361.155723475,"(0.3480999690532691, 0.0, 0.0, 0.0, 0.3480999690532691, 0.0, 0.0, 0.0, 1.3923998762130765)",1
2018/07/18/15:57:36.539921,1514,1531943856,539510763,base_link,0,1,40.5906129,-79.8964557,361.125687156,"(0.3480999690532691, 0.0, 0.0, 0.0, 0.3480999690532691, 0.0, 0.0, 0.0, 1.3923998762130765)",1
2018/07/18/15:57:36.737960,1515,1531943856,737740670,base_link,0,1,40.5906047,-79.8964961,361.165649179,"(0.3480999690532691, 0.0, 0.0, 0.0, 0.3480999690532691, 0.0, 0.0, 0.0, 1.3923998762130765)",1
2018/07/18/15:57:36.917354,1516,1531943856,917103533,base_link,0,1,40.5905993,-79.8965367,361.215609811,"(0.3480999690532691, 0.0, 0.0, 0.0, 0.3480999690532691, 0.0, 0.0, 0.0, 1.3923998762130765)",1
2018/07/18/15:57:37.143128,1517,1531943857,142754978,base_link,0,1,40.5905963,-79.8965771,361.305569631,"(0.3480999690532691, 0.0, 0.0, 0.0, 0.3480999690532691, 0.0, 0.0, 0.0, 1.3923998762130765)",1
2018/07/18/15:57:37.339641,1518,1531943857,338354488,base_link,0,1,40.5905954,-79.8966171,361.375528972,"(0.3480999690532691, 0.0, 0.0, 0.0, 0.3480999690532691, 0.0, 0.0, 0.0, 1.3923998762130765)",1
2018/07/18/15:57:37.543911,1519,1531943857,542150926,base_link,0,1,40.5905959,-79.8966565,361.515488336,"(0.3480999690532691, 0.0, 0.0, 0.0, 0.3480999690532691, 0.0, 0.0, 0.0, 1.3923998762130765)",1
2018/07/18/15:57:37.710421,1520,1531943857,709520429,base_link,0,1,40.5905978,-79.8966951,361.66544793,"(0.3480999690532691, 0.0, 0.0, 0.0, 0.3480999690532691, 0.0, 0.0, 0.0, 1.3923998762130765)",1
2018/07/18/15:57:37.948256,1521,1531943857,947878992,base_link,0,1,40.5906003,-79.8967328,361.975408195,"(0.3480999690532691, 0.0, 0.0, 0.0, 0.3480999690532691, 0.0, 0.0, 0.0, 1.3923998762130765)",1
2018/07/18/15:57:38.173882,1522,1531943858,173585194,base_link,0,1,40.5906032,-79.8967698,362.335369011,"(0.3480999690532691, 0.0, 0.0, 0.0, 0.3480999690532691, 0.0, 0.0, 0.0, 1.3923998762130765)",1
2018/07/18/15:57:38.361359,1523,1531943858,360627111,base_link,0,1,40.5906062,-79.8968061,362.625330506,"(0.3480999690532691, 0.0, 0.0, 0.0, 0.3480999690532691, 0.0, 0.0, 0.0, 1.3923998762130765)",1
2018/07/18/15:57:38.534091,1524,1531943858,530465100,base_link,0,1,40.5906092,-79.8968419,362.925292515,"(0.3480999690532691, 0.0, 0.0, 0.0, 0.3480999690532691, 0.0, 0.0, 0.0, 1.3923998762130765)",1
2018/07/18/15:57:38.743978,1525,1531943858,743137247,base_link,0,1,40.5906123,-79.8968771,363.1852551,"(0.3480999690532691, 0.0, 0.0, 0.0, 0.3480999690532691, 0.0, 0.0, 0.0, 1.3923998762130765)",1
2018/07/18/15:57:38.942852,1526,1531943858,942440941,base_link,0,1,40.5906152,-79.896912,363.39521808,"(0.3480999690532691, 0.0, 0.0, 0.0, 0.3480999690532691, 0.0, 0.0, 0.0, 1.3923998762130765)",1
2018/07/18/15:57:39.216358,1527,1531943859,215088393,base_link,0,1,40.5906178,-79.8969467,363.505181394,"(0.3480999690532691, 0.0, 0.0, 0.0, 0.3480999690532691, 0.0, 0.0, 0.0, 1.3923998762130765)",1
2018/07/18/15:57:39.340379,1528,1531943859,339844606,base_link,0,1,40.5906201,-79.8969812,363.535145043,"(0.3480999690532691, 0.0, 0.0, 0.0, 0.3480999690532691, 0.0, 0.0, 0.0, 1.3923998762130765)",1
2018/07/18/15:57:39.546490,1529,1531943859,546176702,base_link,0,1,40.5906219,-79.8970158,363.465108804,"(0.3480999690532691, 0.0, 0.0, 0.0, 0.3480999690532691, 0.0, 0.0, 0.0, 1.3923998762130765)",1
2018/07/18/15:57:39.744842,1530,1531943859,744471740,base_link,0,1,40.5906232,-79.8970506,363.375072573,"(0.3480999690532691, 0.0, 0.0, 0.0, 0.3480999690532691, 0.0, 0.0, 0.0, 1.3923998762130765)",1
2018/07/18/15:57:39.940779,1531,1531943859,939481312,base_link,0,1,40.590624,-79.8970857,363.28503625,"(0.3480999690532691, 0.0, 0.0, 0.0, 0.3480999690532691, 0.0, 0.0, 0.0, 1.3923998762130765)",1
2018/07/18/15:57:40.171072,1532,1531943860,170569604,base_link,0,1,40.5906243,-79.8971215,363.164999423,"(0.3844000059127808, 0.0, 0.0, 0.0, 0.3844000059127808, 0.0, 0.0, 0.0, 1.5376000236511231)",1
2018/07/18/15:57:40.371659,1533,1531943860,369155362,base_link,0,1,40.5906243,-79.8971578,362.944962212,"(0.3844000059127808, 0.0, 0.0, 0.0, 0.3844000059127808, 0.0, 0.0, 0.0, 1.5376000236511231)",1
2018/07/18/15:57:40.569291,1534,1531943860,568613974,base_link,0,1,40.5906239,-79.8971946,362.634924661,"(0.3844000059127808, 0.0, 0.0, 0.0, 0.3844000059127808, 0.0, 0.0, 0.0, 1.5376000236511231)",1
2018/07/18/15:57:40.755755,1535,1531943860,754569670,base_link,0,1,40.590623,-79.8972323,362.244886402,"(0.3844000059127808, 0.0, 0.0, 0.0, 0.3844000059127808, 0.0, 0.0, 0.0, 1.5376000236511231)",1
2018/07/18/15:57:40.974402,1536,1531943860,973840500,base_link,0,1,40.5906216,-79.8972708,361.844847537,"(0.3844000059127808, 0.0, 0.0, 0.0, 0.3844000059127808, 0.0, 0.0, 0.0, 1.5376000236511231)",1
2018/07/18/15:57:41.193847,1537,1531943861,193460642,base_link,0,1,40.5906198,-79.8973101,361.424808024,"(0.3844000059127808, 0.0, 0.0, 0.0, 0.3844000059127808, 0.0, 0.0, 0.0, 1.5376000236511231)",1
2018/07/18/15:57:41.313774,1538,1531943861,313415156,base_link,0,1,40.5906175,-79.8973503,361.044767803,"(0.4356000346183784, 0.0, 0.0, 0.0, 0.4356000346183784, 0.0, 0.0, 0.0, 1.7424001384735135)",1
2018/07/18/15:57:41.521563,1539,1531943861,516142534,base_link,0,1,40.5906147,-79.8973914,360.714726874,"(0.4356000346183784, 0.0, 0.0, 0.0, 0.4356000346183784, 0.0, 0.0, 0.0, 1.7424001384735135)",1
2018/07/18/15:57:41.747778,1540,1531943861,747442382,base_link,0,1,40.5906117,-79.8974328,360.524685725,"(0.4356000346183784, 0.0, 0.0, 0.0, 0.4356000346183784, 0.0, 0.0, 0.0, 1.7424001384735135)",1
2018/07/18/15:57:41.984561,1541,1531943861,983869210,base_link,0,1,40.5906086,-79.8974745,360.494644314,"(0.3844000059127808, 0.0, 0.0, 0.0, 0.3844000059127808, 0.0, 0.0, 0.0, 1.5376000236511231)",1
2018/07/18/15:57:42.205974,1542,1531943862,205578996,base_link,0,1,40.5906055,-79.8975159,360.544603213,"(0.3480999690532691, 0.0, 0.0, 0.0, 0.3480999690532691, 0.0, 0.0, 0.0, 1.3923998762130765)",1
2018/07/18/15:57:42.334063,1543,1531943862,333439597,base_link,0,1,40.5906027,-79.8975571,360.634562192,"(0.3480999690532691, 0.0, 0.0, 0.0, 0.3480999690532691, 0.0, 0.0, 0.0, 1.3923998762130765)",1
2018/07/18/15:57:42.547908,1544,1531943862,546877031,base_link,0,1,40.5906002,-79.8975981,360.774521252,"(0.3844000059127808, 0.0, 0.0, 0.0, 0.3844000059127808, 0.0, 0.0, 0.0, 1.5376000236511231)",1
2018/07/18/15:57:42.751004,1545,1531943862,750507923,base_link,0,1,40.590598,-79.897639,360.884480289,"(0.3844000059127808, 0.0, 0.0, 0.0, 0.3844000059127808, 0.0, 0.0, 0.0, 1.5376000236511231)",1
2018/07/18/15:57:42.936868,1546,1531943862,936188398,base_link,0,1,40.5905963,-79.8976798,360.98443922,"(0.3844000059127808, 0.0, 0.0, 0.0, 0.3844000059127808, 0.0, 0.0, 0.0, 1.5376000236511231)",1
2018/07/18/15:57:43.137238,1547,1531943863,136885055,base_link,0,1,40.5905951,-79.8977206,361.094397943,"(0.3844000059127808, 0.0, 0.0, 0.0, 0.3844000059127808, 0.0, 0.0, 0.0, 1.5376000236511231)",1
2018/07/18/15:57:43.405583,1548,1531943863,404659913,base_link,0,1,40.5905944,-79.8977613,361.204356558,"(0.3844000059127808, 0.0, 0.0, 0.0, 0.3844000059127808, 0.0, 0.0, 0.0, 1.5376000236511231)",1
2018/07/18/15:57:43.565568,1549,1531943863,565279722,base_link,0,1,40.5905942,-79.897802,361.304314965,"(0.3844000059127808, 0.0, 0.0, 0.0, 0.3844000059127808, 0.0, 0.0, 0.0, 1.5376000236511231)",1
2018/07/18/15:57:43.744036,1550,1531943863,743825403,base_link,0,1,40.5905943,-79.8978425,361.414273452,"(0.3844000059127808, 0.0, 0.0, 0.0, 0.3844000059127808, 0.0, 0.0, 0.0, 1.5376000236511231)",1
2018/07/18/15:57:43.911852,1551,1531943863,911471498,base_link,0,1,40.5905946,-79.8978829,361.59423196,"(0.3480999690532691, 0.0, 0.0, 0.0, 0.3480999690532691, 0.0, 0.0, 0.0, 1.3923998762130765)",1
2018/07/18/15:57:44.212924,1552,1531943864,212549496,base_link,0,1,40.5905952,-79.8979233,361.754190344,"(0.3844000059127808, 0.0, 0.0, 0.0, 0.3844000059127808, 0.0, 0.0, 0.0, 1.5376000236511231)",1
2018/07/18/15:57:44.329775,1553,1531943864,328921306,base_link,0,1,40.5905962,-79.8979635,361.924148766,"(0.3844000059127808, 0.0, 0.0, 0.0, 0.3844000059127808, 0.0, 0.0, 0.0, 1.5376000236511231)",1
2018/07/18/15:57:44.517310,1554,1531943864,516943681,base_link,0,1,40.5905973,-79.8980037,362.094107148,"(0.3844000059127808, 0.0, 0.0, 0.0, 0.3844000059127808, 0.0, 0.0, 0.0, 1.5376000236511231)",1
2018/07/18/15:57:44.717417,1555,1531943864,716820864,base_link,0,1,40.5905983,-79.8980435,362.294065985,"(0.3844000059127808, 0.0, 0.0, 0.0, 0.3844000059127808, 0.0, 0.0, 0.0, 1.5376000236511231)",1
2018/07/18/15:57:44.966492,1556,1531943864,966224868,base_link,0,1,40.5905995,-79.898083,362.464025048,"(0.3844000059127808, 0.0, 0.0, 0.0, 0.3844000059127808, 0.0, 0.0, 0.0, 1.5376000236511231)",1
2018/07/18/15:57:45.170992,1557,1531943865,170643601,base_link,0,1,40.5906007,-79.8981223,362.593984317,"(0.3844000059127808, 0.0, 0.0, 0.0, 0.3844000059127808, 0.0, 0.0, 0.0, 1.5376000236511231)",1
2018/07/18/15:57:45.375142,1558,1531943865,374622564,base_link,0,1,40.5906018,-79.8981615,362.703943735,"(0.3844000059127808, 0.0, 0.0, 0.0, 0.3844000059127808, 0.0, 0.0, 0.0, 1.5376000236511231)",1
2018/07/18/15:57:45.559059,1559,1531943865,558788955,base_link,0,1,40.5906025,-79.8982006,362.743903426,"(0.3844000059127808, 0.0, 0.0, 0.0, 0.3844000059127808, 0.0, 0.0, 0.0, 1.5376000236511231)",1
2018/07/18/15:57:45.757719,1560,1531943865,757402828,base_link,0,1,40.5906031,-79.8982399,362.723862957,"(0.3844000059127808, 0.0, 0.0, 0.0, 0.3844000059127808, 0.0, 0.0, 0.0, 1.5376000236511231)",1
2018/07/18/15:57:45.962863,1561,1531943865,962626289,base_link,0,1,40.5906035,-79.8982793,362.663822474,"(0.3844000059127808, 0.0, 0.0, 0.0, 0.3844000059127808, 0.0, 0.0, 0.0, 1.5376000236511231)",1
2018/07/18/15:57:46.164024,1562,1531943866,163655913,base_link,0,1,40.5906038,-79.8983189,362.59378183,"(0.3844000059127808, 0.0, 0.0, 0.0, 0.3844000059127808, 0.0, 0.0, 0.0, 1.5376000236511231)",1
2018/07/18/15:57:46.345863,1563,1531943866,345536735,base_link,0,1,40.590604,-79.8983586,362.54374113,"(0.3844000059127808, 0.0, 0.0, 0.0, 0.3844000059127808, 0.0, 0.0, 0.0, 1.5376000236511231)",1
2018/07/18/15:57:46.575806,1564,1531943866,575492427,base_link,0,1,40.5906042,-79.8983984,362.503700329,"(0.3844000059127808, 0.0, 0.0, 0.0, 0.3844000059127808, 0.0, 0.0, 0.0, 1.5376000236511231)",1
2018/07/18/15:57:46.766169,1565,1531943866,765878430,base_link,0,1,40.5906043,-79.8984382,362.503659574,"(0.3844000059127808, 0.0, 0.0, 0.0, 0.3844000059127808, 0.0, 0.0, 0.0, 1.5376000236511231)",1
2018/07/18/15:57:46.967143,1566,1531943866,966947191,base_link,0,1,40.5906042,-79.898478,362.503618906,"(0.3844000059127808, 0.0, 0.0, 0.0, 0.3844000059127808, 0.0, 0.0, 0.0, 1.5376000236511231)",1
2018/07/18/15:57:47.128155,1567,1531943867,127844383,base_link,0,1,40.5906041,-79.8985177,362.533578343,"(0.3844000059127808, 0.0, 0.0, 0.0, 0.3844000059127808, 0.0, 0.0, 0.0, 1.5376000236511231)",1
2018/07/18/15:57:47.391218,1568,1531943867,385682448,base_link,0,1,40.5906039,-79.8985573,362.583537926,"(0.3844000059127808, 0.0, 0.0, 0.0, 0.3844000059127808, 0.0, 0.0, 0.0, 1.5376000236511231)",1
2018/07/18/15:57:47.551425,1569,1531943867,551187972,base_link,0,1,40.5906037,-79.8985969,362.673497513,"(0.3844000059127808, 0.0, 0.0, 0.0, 0.3844000059127808, 0.0, 0.0, 0.0, 1.5376000236511231)",1
2018/07/18/15:57:47.739715,1570,1531943867,736608852,base_link,0,1,40.5906031,-79.8986363,362.833457475,"(0.3844000059127808, 0.0, 0.0, 0.0, 0.3844000059127808, 0.0, 0.0, 0.0, 1.5376000236511231)",1
2018/07/18/15:57:47.932068,1571,1531943867,931674773,base_link,0,1,40.5906023,-79.8986757,362.953417525,"(0.3844000059127808, 0.0, 0.0, 0.0, 0.3844000059127808, 0.0, 0.0, 0.0, 1.5376000236511231)",1
2018/07/18/15:57:48.137488,1572,1531943868,137274463,base_link,0,1,40.5906015,-79.8987151,363.043377577,"(0.3844000059127808, 0.0, 0.0, 0.0, 0.3844000059127808, 0.0, 0.0, 0.0, 1.5376000236511231)",1
2018/07/18/15:57:48.343453,1573,1531943868,343098248,base_link,0,1,40.5906004,-79.8987544,363.143337861,"(0.3844000059127808, 0.0, 0.0, 0.0, 0.3844000059127808, 0.0, 0.0, 0.0, 1.5376000236511231)",1
2018/07/18/15:57:48.539075,1574,1531943868,538900963,base_link,0,1,40.5905992,-79.8987938,363.293298087,"(0.3844000059127808, 0.0, 0.0, 0.0, 0.3844000059127808, 0.0, 0.0, 0.0, 1.5376000236511231)",1
2018/07/18/15:57:48.722197,1575,1531943868,721931377,base_link,0,1,40.590598,-79.8988331,363.493258417,"(0.3844000059127808, 0.0, 0.0, 0.0, 0.3844000059127808, 0.0, 0.0, 0.0, 1.5376000236511231)",1
2018/07/18/15:57:48.988102,1576,1531943868,987256976,base_link,0,1,40.590597,-79.8988724,363.713218666,"(0.3844000059127808, 0.0, 0.0, 0.0, 0.3844000059127808, 0.0, 0.0, 0.0, 1.5376000236511231)",1
2018/07/18/15:57:49.131773,1577,1531943869,131447902,base_link,0,1,40.5905962,-79.8989115,363.953179037,"(0.3844000059127808, 0.0, 0.0, 0.0, 0.3844000059127808, 0.0, 0.0, 0.0, 1.5376000236511231)",1
2018/07/18/15:57:49.379987,1578,1531943869,378987213,base_link,0,1,40.5905956,-79.8989504,364.233139531,"(0.3844000059127808, 0.0, 0.0, 0.0, 0.3844000059127808, 0.0, 0.0, 0.0, 1.5376000236511231)",1
2018/07/18/15:57:49.623440,1579,1531943869,622767943,base_link,0,1,40.5905953,-79.898989,364.463100208,"(0.3844000059127808, 0.0, 0.0, 0.0, 0.3844000059127808, 0.0, 0.0, 0.0, 1.5376000236511231)",1
2018/07/18/15:57:49.735903,1580,1531943869,735687547,base_link,0,1,40.5905952,-79.8990273,364.693061109,"(0.3844000059127808, 0.0, 0.0, 0.0, 0.3844000059127808, 0.0, 0.0, 0.0, 1.5376000236511231)",1
2018/07/18/15:57:49.936890,1581,1531943869,936569504,base_link,0,1,40.5905953,-79.8990653,364.913022235,"(0.3844000059127808, 0.0, 0.0, 0.0, 0.3844000059127808, 0.0, 0.0, 0.0, 1.5376000236511231)",1
2018/07/18/15:57:50.118426,1582,1531943870,118069637,base_link,0,1,40.5905957,-79.899103,365.052983543,"(0.3844000059127808, 0.0, 0.0, 0.0, 0.3844000059127808, 0.0, 0.0, 0.0, 1.5376000236511231)",1
2018/07/18/15:57:50.368686,1583,1531943870,368385881,base_link,0,1,40.5905965,-79.8991406,365.122944787,"(0.3844000059127808, 0.0, 0.0, 0.0, 0.3844000059127808, 0.0, 0.0, 0.0, 1.5376000236511231)",1
2018/07/18/15:57:50.543258,1584,1531943870,542535923,base_link,0,1,40.5905976,-79.899178,365.152906112,"(0.3844000059127808, 0.0, 0.0, 0.0, 0.3844000059127808, 0.0, 0.0, 0.0, 1.5376000236511231)",1
2018/07/18/15:57:50.728061,1585,1531943870,727296052,base_link,0,1,40.5905988,-79.8992154,365.042867397,"(0.3844000059127808, 0.0, 0.0, 0.0, 0.3844000059127808, 0.0, 0.0, 0.0, 1.5376000236511231)",1
2018/07/18/15:57:50.918737,1586,1531943870,918376781,base_link,0,1,40.5906002,-79.8992526,364.892828804,"(0.3844000059127808, 0.0, 0.0, 0.0, 0.3844000059127808, 0.0, 0.0, 0.0, 1.5376000236511231)",1
