time,.header.seq,.header.stamp.secs,.header.stamp.nsecs,.header.frame_id,.twist.linear.x,.twist.linear.y,.twist.linear.z,.twist.angular.x,.twist.angular.y,.twist.angular.z
2018/07/18/15:56:51.012728,555,1531943811,9802312,,3.45993999875,7.07451048153,0.0,0.0,0.0,0.0
2018/07/18/15:56:51.510976,556,1531943811,510416213,,3.24497417328,6.90117376447,0.0,0.0,0.0,0.0
2018/07/18/15:56:51.915157,557,1531943811,912879590,,3.12333040589,6.80696993402,0.0,0.0,0.0,0.0
2018/07/18/15:56:52.320500,558,1531943812,319600520,,3.00367320218,6.71031752985,0.0,0.0,0.0,0.0
2018/07/18/15:56:52.899739,559,1531943812,898891640,,2.77401324896,6.48978904248,0.0,0.0,0.0,0.0
2018/07/18/15:56:53.466609,560,1531943813,463954347,,2.57374355163,6.23922401413,0.0,0.0,0.0,0.0
2018/07/18/15:56:53.848181,561,1531943813,846420688,,2.47450405204,6.07317982136,0.0,0.0,0.0,0.0
2018/07/18/15:56:54.228780,562,1531943814,226998548,,2.36771093807,5.82213018874,0.0,0.0,0.0,0.0
2018/07/18/15:56:54.779171,563,1531943814,778837248,,2.28408706091,5.50577016796,0.0,0.0,0.0,0.0
2018/07/18/15:56:55.204522,564,1531943815,203839449,,2.27051341575,5.36517240439,0.0,0.0,0.0,0.0
2018/07/18/15:56:55.709584,565,1531943815,709233951,,2.27629119989,5.2676740069,0.0,0.0,0.0,0.0
2018/07/18/15:56:56.109061,566,1531943816,108717573,,2.28680425407,5.20144072523,0.0,0.0,0.0,0.0
2018/07/18/15:56:56.575880,567,1531943816,575462594,,2.29563805968,5.13785744974,0.0,0.0,0.0,0.0
2018/07/18/15:56:57.108777,568,1531943817,108373022,,2.31430402109,5.07862525186,0.0,0.0,0.0,0.0
2018/07/18/15:56:57.633828,569,1531943817,632121881,,2.33539982241,5.00760864253,0.0,0.0,0.0,0.0
2018/07/18/15:56:58.131104,570,1531943818,124896286,,2.35565585272,4.93844284659,0.0,0.0,0.0,0.0
2018/07/18/15:56:58.674699,571,1531943818,673809706,,2.37320736067,4.87218626328,0.0,0.0,0.0,0.0
2018/07/18/15:56:59.116136,572,1531943819,115638268,,2.38285754725,4.8363783142,0.0,0.0,0.0,0.0
2018/07/18/15:56:59.591429,573,1531943819,589793440,,2.38907452919,4.8108726025,0.0,0.0,0.0,0.0
2018/07/18/15:57:00.121936,574,1531943820,121661525,,2.39285637241,4.79698052861,0.0,0.0,0.0,0.0
2018/07/18/15:57:00.569196,575,1531943820,568786234,,2.39573182474,4.78588199687,0.0,0.0,0.0,0.0
2018/07/18/15:57:01.063216,576,1531943821,62065727,,2.39905153036,4.77411719234,0.0,0.0,0.0,0.0
2018/07/18/15:57:01.561966,577,1531943821,561605185,,2.40265597305,4.75807628964,0.0,0.0,0.0,0.0
2018/07/18/15:57:02.137915,578,1531943822,137574604,,2.40845003711,4.71477281847,0.0,0.0,0.0,0.0
2018/07/18/15:57:02.445247,579,1531943822,441737950,,2.41053057377,4.68004841313,0.0,0.0,0.0,0.0
2018/07/18/15:57:02.985442,580,1531943822,984974284,,2.40895261456,4.60836571695,0.0,0.0,0.0,0.0
2018/07/18/15:57:03.418116,581,1531943823,417714279,,2.39225085949,4.52787239198,0.0,0.0,0.0,0.0
2018/07/18/15:57:03.911584,582,1531943823,911249613,,2.35491382021,4.43184156993,0.0,0.0,0.0,0.0
2018/07/18/15:57:04.517220,583,1531943824,516628625,,2.28354945492,4.31801963995,0.0,0.0,0.0,0.0
2018/07/18/15:57:04.990794,584,1531943824,990308409,,2.20510662964,4.23396567446,0.0,0.0,0.0,0.0
2018/07/18/15:57:05.409045,585,1531943825,408645211,,2.1380045521,4.18182758816,0.0,0.0,0.0,0.0
2018/07/18/15:57:05.788425,586,1531943825,787588805,,2.08556768026,4.15153408011,0.0,0.0,0.0,0.0
2018/07/18/15:57:06.233937,587,1531943826,233506264,,2.03813460308,4.13223038284,0.0,0.0,0.0,0.0
2018/07/18/15:57:06.512138,588,1531943826,504337572,,1.99197404304,4.11712606524,0.0,0.0,0.0,0.0
2018/07/18/15:57:07.110746,589,1531943827,109964649,,1.88941323424,4.08682454869,0.0,0.0,0.0,0.0
2018/07/18/15:57:07.618727,590,1531943827,617423766,,1.78332509445,4.05498003035,0.0,0.0,0.0,0.0
2018/07/18/15:57:08.254406,591,1531943828,253754162,,1.64411744468,4.00886051525,0.0,0.0,0.0,0.0
2018/07/18/15:57:08.634134,592,1531943828,632324029,,1.55141237587,3.97435874904,0.0,0.0,0.0,0.0
2018/07/18/15:57:09.018602,593,1531943829,18120464,,1.44611925765,3.93007998987,0.0,0.0,0.0,0.0
2018/07/18/15:57:09.568249,594,1531943829,566453247,,1.30162702767,3.86489673305,0.0,0.0,0.0,0.0
2018/07/18/15:57:10.117538,595,1531943830,116883287,,1.20050080691,3.81912079409,0.0,0.0,0.0,0.0
2018/07/18/15:57:10.675292,596,1531943830,674754496,,1.09817316072,3.77550580752,0.0,0.0,0.0,0.0
2018/07/18/15:57:11.063199,597,1531943831,62896298,,1.03779566338,3.7521021438,0.0,0.0,0.0,0.0
2018/07/18/15:57:11.653629,598,1531943831,652951125,,0.932846356933,3.71743378821,0.0,0.0,0.0,0.0
2018/07/18/15:57:11.959431,599,1531943831,956973965,,0.880842827069,3.70227952398,0.0,0.0,0.0,0.0
2018/07/18/15:57:12.371881,600,1531943832,371613348,,0.81197512795,3.68206634104,0.0,0.0,0.0,0.0
2018/07/18/15:57:12.946616,601,1531943832,945532324,,0.723043135771,3.6563678821,0.0,0.0,0.0,0.0
2018/07/18/15:57:13.290134,602,1531943833,288854218,,0.678974142332,3.64422970929,0.0,0.0,0.0,0.0
2018/07/18/15:57:13.718120,603,1531943833,717765661,,0.630003957489,3.6307979655,0.0,0.0,0.0,0.0
2018/07/18/15:57:14.198281,604,1531943834,197921605,,0.580080768611,3.61715492314,0.0,0.0,0.0,0.0
2018/07/18/15:57:14.739994,605,1531943834,739517896,,0.533987460635,3.60386355768,0.0,0.0,0.0,0.0
2018/07/18/15:57:15.080502,606,1531943835,79519841,,0.492587784135,3.59218083211,0.0,0.0,0.0,0.0
2018/07/18/15:57:15.577802,607,1531943835,576418480,,0.447521958364,3.58021132362,0.0,0.0,0.0,0.0
2018/07/18/15:57:16.008733,608,1531943836,8373620,,0.373075057255,3.56214204499,0.0,0.0,0.0,0.0
2018/07/18/15:57:16.583899,609,1531943836,583356604,,0.299254429353,3.54436940138,0.0,0.0,0.0,0.0
2018/07/18/15:57:17.003504,610,1531943837,3093149,,0.238708997866,3.52866415553,0.0,0.0,0.0,0.0
2018/07/18/15:57:17.473179,611,1531943837,467439500,,0.188147521089,3.51467007527,0.0,0.0,0.0,0.0
2018/07/18/15:57:17.981289,612,1531943837,980504238,,0.144224503313,3.50170728127,0.0,0.0,0.0,0.0
2018/07/18/15:57:18.426729,613,1531943838,425430578,,0.0925004778796,3.48562787203,0.0,0.0,0.0,0.0
2018/07/18/15:57:18.899920,614,1531943838,899401559,,0.0351982363561,3.46766585254,0.0,0.0,0.0,0.0
2018/07/18/15:57:19.416179,615,1531943839,414628180,,-0.0156325173496,3.45292367409,0.0,0.0,0.0,0.0
2018/07/18/15:57:19.961473,616,1531943839,960046951,,-0.0585267244878,3.44272245515,0.0,0.0,0.0,0.0
2018/07/18/15:57:20.556305,617,1531943840,555941670,,-0.100913611977,3.43513304459,0.0,0.0,0.0,0.0
2018/07/18/15:57:20.934714,618,1531943840,934422653,,-0.117499081038,3.43410046931,0.0,0.0,0.0,0.0
2018/07/18/15:57:21.343137,619,1531943841,342855507,,-0.130985170141,3.4340138339,0.0,0.0,0.0,0.0
2018/07/18/15:57:21.849952,620,1531943841,849501680,,-0.137719922212,3.43474295145,0.0,0.0,0.0,0.0
2018/07/18/15:57:22.276821,621,1531943842,275273214,,-0.123958032199,3.42450696534,0.0,0.0,0.0,0.0
2018/07/18/15:57:22.609339,622,1531943842,608880256,,-0.102337249579,3.4018273685,0.0,0.0,0.0,0.0
2018/07/18/15:57:23.080192,623,1531943843,79550617,,-0.0831285688703,3.37356492942,0.0,0.0,0.0,0.0
2018/07/18/15:57:23.535686,624,1531943843,528872218,,-0.0606139323851,3.32600011449,0.0,0.0,0.0,0.0
2018/07/18/15:57:24.004850,625,1531943843,998240620,,-0.0274844243995,3.21319627462,0.0,0.0,0.0,0.0
2018/07/18/15:57:24.526853,626,1531943844,526363722,,-0.0167122706828,3.13803657173,0.0,0.0,0.0,0.0
2018/07/18/15:57:25.127825,627,1531943845,127247174,,-0.0144239035111,3.03646834153,0.0,0.0,0.0,0.0
2018/07/18/15:57:25.579799,628,1531943845,579071262,,-0.0190084615778,2.95937751613,0.0,0.0,0.0,0.0
2018/07/18/15:57:26.177441,629,1531943846,175969976,,-0.0261043609931,2.89183994148,0.0,0.0,0.0,0.0
2018/07/18/15:57:26.651759,630,1531943846,651321762,,-0.0292768549493,2.85840133529,0.0,0.0,0.0,0.0
2018/07/18/15:57:27.134225,631,1531943847,132353515,,-0.031260189331,2.82822046747,0.0,0.0,0.0,0.0
2018/07/18/15:57:27.586598,632,1531943847,586193439,,-0.0327133418837,2.80316553089,0.0,0.0,0.0,0.0
2018/07/18/15:57:28.153465,633,1531943848,150707539,,-0.0334576626866,2.79502108425,0.0,0.0,0.0,0.0
2018/07/18/15:57:28.643633,634,1531943848,642873545,,-0.0340528444935,2.7831469192,0.0,0.0,0.0,0.0
2018/07/18/15:57:29.172989,635,1531943849,172597702,,-0.0331104244204,2.75253123276,0.0,0.0,0.0,0.0
2018/07/18/15:57:29.658110,636,1531943849,657743834,,-0.0321523520186,2.72542752343,0.0,0.0,0.0,0.0
2018/07/18/15:57:30.286200,637,1531943850,282888059,,-0.0315056329212,2.67978626067,0.0,0.0,0.0,0.0
2018/07/18/15:57:30.894473,638,1531943850,894051882,,-0.0319598279896,2.6472813753,0.0,0.0,0.0,0.0
2018/07/18/15:57:31.450823,639,1531943851,450152779,,-0.0325388021672,2.62022605451,0.0,0.0,0.0,0.0
2018/07/18/15:57:31.768449,640,1531943851,767796490,,-0.0326567081749,2.60047125482,0.0,0.0,0.0,0.0
2018/07/18/15:57:32.114303,641,1531943852,113629567,,-0.0324795290524,2.58831365031,0.0,0.0,0.0,0.0
2018/07/18/15:57:32.617536,642,1531943852,615725578,,-0.0319927724311,2.56690592918,0.0,0.0,0.0,0.0
2018/07/18/15:57:33.211825,643,1531943853,211576106,,-0.032058288716,2.54735563632,0.0,0.0,0.0,0.0
2018/07/18/15:57:33.576714,644,1531943853,576148782,,-0.0323610877127,2.54153416225,0.0,0.0,0.0,0.0
2018/07/18/15:57:33.929863,645,1531943853,929364216,,-0.0338464618245,2.53203754829,0.0,0.0,0.0,0.0
2018/07/18/15:57:34.484234,646,1531943854,483089753,,-0.0453685013382,2.50020591172,0.0,0.0,0.0,0.0
2018/07/18/15:57:34.797283,647,1531943854,796724570,,-0.0592810975883,2.47588962404,0.0,0.0,0.0,0.0
2018/07/18/15:57:35.289252,648,1531943855,288827893,,-0.0948238694525,2.43683904516,0.0,0.0,0.0,0.0
2018/07/18/15:57:35.513551,649,1531943855,512849462,,-0.114989984227,2.42083829459,0.0,0.0,0.0,0.0
2018/07/18/15:57:35.865266,650,1531943855,864841884,,-0.148971161529,2.39900555762,0.0,0.0,0.0,0.0
2018/07/18/15:57:36.299295,651,1531943856,298940455,,-0.197256473277,2.38065533009,0.0,0.0,0.0,0.0
2018/07/18/15:57:36.702191,652,1531943856,699250815,,-0.231459892855,2.37312783479,0.0,0.0,0.0,0.0
2018/07/18/15:57:37.158620,653,1531943857,158316812,,-0.266164005802,2.36892290014,0.0,0.0,0.0,0.0
2018/07/18/15:57:37.771412,654,1531943857,770569029,,-0.30061246557,2.37073670152,0.0,0.0,0.0,0.0
2018/07/18/15:57:38.468367,655,1531943858,467638696,,-0.337624009511,2.37783171959,0.0,0.0,0.0,0.0
2018/07/18/15:57:38.977098,656,1531943858,976742014,,-0.351359440793,2.37959343513,0.0,0.0,0.0,0.0
2018/07/18/15:57:39.473749,657,1531943859,473358125,,-0.342411696521,2.3756533041,0.0,0.0,0.0,0.0
2018/07/18/15:57:39.979479,658,1531943859,978350492,,-0.332808644549,2.37286255414,0.0,0.0,0.0,0.0
2018/07/18/15:57:40.487374,659,1531943860,486925578,,-0.286698721795,2.36466541204,0.0,0.0,0.0,0.0
2018/07/18/15:57:40.940120,660,1531943860,939587618,,-0.25713771188,2.36061211302,0.0,0.0,0.0,0.0
2018/07/18/15:57:41.453125,661,1531943861,452397385,,-0.235016941629,2.35865377312,0.0,0.0,0.0,0.0
2018/07/18/15:57:41.993349,662,1531943861,989143453,,-0.224873973023,2.35874763618,0.0,0.0,0.0,0.0
2018/07/18/15:57:42.607186,663,1531943862,605718238,,-0.205311088287,2.35802066395,0.0,0.0,0.0,0.0
2018/07/18/15:57:43.115877,664,1531943863,114230436,,-0.183982479564,2.35574746041,0.0,0.0,0.0,0.0
2018/07/18/15:57:43.572608,665,1531943863,572342488,,-0.161925634633,2.35209816067,0.0,0.0,0.0,0.0
2018/07/18/15:57:43.966646,666,1531943863,966293137,,-0.149362562487,2.34955107012,0.0,0.0,0.0,0.0
2018/07/18/15:57:44.652402,667,1531943864,651581233,,-0.136953321765,2.3467607506,0.0,0.0,0.0,0.0
2018/07/18/15:57:45.092376,668,1531943865,92147993,,-0.123686082647,2.34355658298,0.0,0.0,0.0,0.0
2018/07/18/15:57:45.573054,669,1531943865,572524509,,-0.105643616201,2.33925810056,0.0,0.0,0.0,0.0
2018/07/18/15:57:46.035655,670,1531943866,34586421,,-0.0817860585633,2.33417442098,0.0,0.0,0.0,0.0
2018/07/18/15:57:46.580734,671,1531943866,580378579,,-0.0663080006736,2.33105092556,0.0,0.0,0.0,0.0
2018/07/18/15:57:47.253553,672,1531943867,253104289,,-0.0547580116118,2.3288481824,0.0,0.0,0.0,0.0
2018/07/18/15:57:47.778098,673,1531943867,777814555,,-0.0381396190971,2.32601704212,0.0,0.0,0.0,0.0
2018/07/18/15:57:48.369913,674,1531943868,368759778,,-0.020852214477,2.32344187296,0.0,0.0,0.0,0.0
2018/07/18/15:57:48.782915,675,1531943868,782647129,,-0.0180855079432,2.32297556779,0.0,0.0,0.0,0.0
2018/07/18/15:57:49.287102,676,1531943869,286204051,,-0.0216074442975,2.32350077861,0.0,0.0,0.0,0.0
2018/07/18/15:57:49.778631,677,1531943869,777936919,,-0.0273656424717,2.32459030519,0.0,0.0,0.0,0.0
2018/07/18/15:57:50.112290,678,1531943870,111917387,,-0.0284189013423,2.32480012848,0.0,0.0,0.0,0.0
2018/07/18/15:57:50.742879,679,1531943870,742502470,,-0.0272607287689,2.32445586839,0.0,0.0,0.0,0.0
2018/07/18/15:57:51.316916,680,1531943871,316406639,,-0.0398589591804,2.32807969064,0.0,0.0,0.0,0.0
2018/07/18/15:57:51.958294,681,1531943871,957818938,,-0.0625851062788,2.33453870404,0.0,0.0,0.0,0.0
2018/07/18/15:57:52.298929,682,1531943872,295168856,,-0.0766157367998,2.33821645285,0.0,0.0,0.0,0.0
2018/07/18/15:57:52.766850,683,1531943872,766490432,,-0.102492438155,2.34398722481,0.0,0.0,0.0,0.0
2018/07/18/15:57:53.146487,684,1531943873,145960161,,-0.118716355255,2.34710582699,0.0,0.0,0.0,0.0
2018/07/18/15:57:53.693967,685,1531943873,693321999,,-0.142194991486,2.35070657368,0.0,0.0,0.0,0.0
2018/07/18/15:57:54.248955,686,1531943874,248697735,,-0.150021302717,2.35211673336,0.0,0.0,0.0,0.0
2018/07/18/15:57:54.799834,687,1531943874,799186557,,-0.15225651386,2.35267480265,0.0,0.0,0.0,0.0
2018/07/18/15:57:55.401148,688,1531943875,398824874,,-0.154254259377,2.35292647496,0.0,0.0,0.0,0.0
2018/07/18/15:57:56.122220,689,1531943876,121487945,,-0.156369570166,2.35361311309,0.0,0.0,0.0,0.0
2018/07/18/15:57:56.558943,690,1531943876,558535861,,-0.170600838723,2.35896117103,0.0,0.0,0.0,0.0
2018/07/18/15:57:57.074916,691,1531943877,74456262,,-0.18690544791,2.3692613691,0.0,0.0,0.0,0.0
2018/07/18/15:57:57.531304,692,1531943877,530821792,,-0.200207069369,2.38109807734,0.0,0.0,0.0,0.0
2018/07/18/15:57:58.051151,693,1531943878,50549390,,-0.200362477395,2.38001550604,0.0,0.0,0.0,0.0
2018/07/18/15:57:58.681548,694,1531943878,680321481,,-0.194875046972,2.37040904579,0.0,0.0,0.0,0.0
2018/07/18/15:57:59.090528,695,1531943879,89569247,,-0.195689484791,2.37388851107,0.0,0.0,0.0,0.0
2018/07/18/15:57:59.371492,696,1531943879,371176218,,-0.19710117998,2.38046532153,0.0,0.0,0.0,0.0
2018/07/18/15:57:59.890271,697,1531943879,889632231,,-0.19746272468,2.38326409048,0.0,0.0,0.0,0.0
2018/07/18/15:58:00.273933,698,1531943880,273063499,,-0.19705075479,2.38067619432,0.0,0.0,0.0,0.0
2018/07/18/15:58:00.758030,699,1531943880,757675229,,-0.196783479622,2.39137002577,0.0,0.0,0.0,0.0
2018/07/18/15:58:01.296946,700,1531943881,296047702,,-0.196158686051,2.40541780667,0.0,0.0,0.0,0.0
2018/07/18/15:58:01.652886,701,1531943881,652413009,,-0.197256449616,2.39531897242,0.0,0.0,0.0,0.0
2018/07/18/15:58:02.041007,702,1531943882,40600711,,-0.200059283756,2.36948400441,0.0,0.0,0.0,0.0
2018/07/18/15:58:02.496615,703,1531943882,494104678,,-0.205047859187,2.32649789957,0.0,0.0,0.0,0.0
2018/07/18/15:58:03.028258,704,1531943883,27628036,,-0.210147587598,2.28041646651,0.0,0.0,0.0,0.0
2018/07/18/15:58:03.469294,705,1531943883,469018130,,-0.214066002607,2.24054788404,0.0,0.0,0.0,0.0
2018/07/18/15:58:03.922214,706,1531943883,921970110,,-0.216051928062,2.21026700104,0.0,0.0,0.0,0.0
2018/07/18/15:58:04.440080,707,1531943884,437569811,,-0.217461594197,2.18024284151,0.0,0.0,0.0,0.0
2018/07/18/15:58:04.843810,708,1531943884,843416949,,-0.217640362055,2.15819761913,0.0,0.0,0.0,0.0
2018/07/18/15:58:05.210431,709,1531943885,207490095,,-0.217852442097,2.1312884844,0.0,0.0,0.0,0.0
2018/07/18/15:58:05.885688,710,1531943885,885353273,,-0.219678067563,2.07931557872,0.0,0.0,0.0,0.0
2018/07/18/15:58:06.448555,711,1531943886,447933939,,-0.221952719581,2.04621585293,0.0,0.0,0.0,0.0
2018/07/18/15:58:06.904150,712,1531943886,903760949,,-0.224472063582,2.02167540657,0.0,0.0,0.0,0.0
2018/07/18/15:58:07.417333,713,1531943887,415487150,,-0.227996686002,1.99702235942,0.0,0.0,0.0,0.0
2018/07/18/15:58:07.963269,714,1531943887,962936858,,-0.233362914438,1.96162457712,0.0,0.0,0.0,0.0
2018/07/18/15:58:08.569525,715,1531943888,569216991,,-0.238262627191,1.91933817613,0.0,0.0,0.0,0.0
2018/07/18/15:58:08.975465,716,1531943888,975040987,,-0.240114523068,1.89656356071,0.0,0.0,0.0,0.0
2018/07/18/15:58:09.406202,717,1531943889,405979462,,-0.241190911191,1.87719491526,0.0,0.0,0.0,0.0
2018/07/18/15:58:09.931119,718,1531943889,926567500,,-0.241749655485,1.85819382314,0.0,0.0,0.0,0.0
2018/07/18/15:58:10.565838,719,1531943890,565365276,,-0.242598164774,1.83702773938,0.0,0.0,0.0,0.0
2018/07/18/15:58:11.012619,720,1531943891,11788036,,-0.244074414068,1.81706534171,0.0,0.0,0.0,0.0
2018/07/18/15:58:11.559205,721,1531943891,558862039,,-0.245884537672,1.80155334361,0.0,0.0,0.0,0.0
2018/07/18/15:58:12.025038,722,1531943892,24588943,,-0.248856164057,1.78666223979,0.0,0.0,0.0,0.0
2018/07/18/15:58:12.582500,723,1531943892,581897689,,-0.257080783893,1.7571696556,0.0,0.0,0.0,0.0
2018/07/18/15:58:13.060262,724,1531943893,58007878,,-0.266873769659,1.73137274789,0.0,0.0,0.0,0.0
2018/07/18/15:58:13.531686,725,1531943893,530330403,,-0.275041416937,1.71285662463,0.0,0.0,0.0,0.0
2018/07/18/15:58:14.072161,726,1531943894,67931024,,-0.277879064037,1.70648026836,0.0,0.0,0.0,0.0
2018/07/18/15:58:14.403134,727,1531943894,402751810,,-0.27215604318,1.71060204252,0.0,0.0,0.0,0.0
2018/07/18/15:58:14.860399,728,1531943894,859059991,,-0.261539842172,1.71742331265,0.0,0.0,0.0,0.0
2018/07/18/15:58:15.413079,729,1531943895,412345123,,-0.232810041982,1.73031480092,0.0,0.0,0.0,0.0
2018/07/18/15:58:15.955118,730,1531943895,954723755,,-0.217118943222,1.7349643097,0.0,0.0,0.0,0.0
2018/07/18/15:58:16.507422,731,1531943896,506980779,,-0.222139243374,1.73585955567,0.0,0.0,0.0,0.0
2018/07/18/15:58:17.217623,732,1531943897,216900391,,-0.265696873996,1.7355275595,0.0,0.0,0.0,0.0
2018/07/18/15:58:17.700071,733,1531943897,695111518,,-0.305920303836,1.73462072992,0.0,0.0,0.0,0.0
2018/07/18/15:58:18.193836,734,1531943898,189051338,,-0.328475290631,1.73319552757,0.0,0.0,0.0,0.0
2018/07/18/15:58:18.701854,735,1531943898,700244606,,-0.337078074716,1.73195797244,0.0,0.0,0.0,0.0
2018/07/18/15:58:19.100847,736,1531943899,98303662,,-0.33858099077,1.73100680518,0.0,0.0,0.0,0.0
2018/07/18/15:58:19.443907,737,1531943899,442948651,,-0.336786458948,1.7302710053,0.0,0.0,0.0,0.0
2018/07/18/15:58:20.055969,738,1531943900,55314962,,-0.340385684744,1.72854269385,0.0,0.0,0.0,0.0
2018/07/18/15:58:20.573418,739,1531943900,573240460,,-0.355342700217,1.7257866998,0.0,0.0,0.0,0.0
2018/07/18/15:58:21.236614,740,1531943901,236218036,,-0.370774594584,1.72343989774,0.0,0.0,0.0,0.0
2018/07/18/15:58:21.703699,741,1531943901,702995781,,-0.380459647467,1.72236416052,0.0,0.0,0.0,0.0
2018/07/18/15:58:22.180382,742,1531943902,180024615,,-0.396125355541,1.72070942063,0.0,0.0,0.0,0.0
2018/07/18/15:58:22.725289,743,1531943902,713949791,,-0.421776994329,1.71797114846,0.0,0.0,0.0,0.0
2018/07/18/15:58:23.131706,744,1531943903,131018965,,-0.439148359458,1.71604714633,0.0,0.0,0.0,0.0
2018/07/18/15:58:23.586189,745,1531943903,585861012,,-0.446383147437,1.71512154826,0.0,0.0,0.0,0.0
2018/07/18/15:58:24.162222,746,1531943904,159761955,,-0.461579731182,1.71298760967,0.0,0.0,0.0,0.0
2018/07/18/15:58:24.776468,747,1531943904,776177800,,-0.477775516572,1.71073772015,0.0,0.0,0.0,0.0
2018/07/18/15:58:25.339034,748,1531943905,338403231,,-0.487210695748,1.70947172316,0.0,0.0,0.0,0.0
2018/07/18/15:58:25.835541,749,1531943905,834970660,,-0.497663211461,1.70808918076,0.0,0.0,0.0,0.0
2018/07/18/15:58:26.144543,750,1531943906,143999747,,-0.508456443435,1.70681088364,0.0,0.0,0.0,0.0
2018/07/18/15:58:26.740338,751,1531943906,740004151,,-0.538216896792,1.70351142271,0.0,0.0,0.0,0.0
2018/07/18/15:58:27.276447,752,1531943907,272223075,,-0.562564044706,1.70158343982,0.0,0.0,0.0,0.0
2018/07/18/15:58:27.779452,753,1531943907,778739883,,-0.56666117321,1.70116956577,0.0,0.0,0.0,0.0
2018/07/18/15:58:28.248637,754,1531943908,247828427,,-0.565532002827,1.7012368746,0.0,0.0,0.0,0.0
2018/07/18/15:58:28.806134,755,1531943908,805645676,,-0.569405125825,1.70099681572,0.0,0.0,0.0,0.0
2018/07/18/15:58:29.258643,756,1531943909,258267909,,-0.58248359427,1.70004801676,0.0,0.0,0.0,0.0
2018/07/18/15:58:29.947438,757,1531943909,945666739,,-0.616787547356,1.69660818674,0.0,0.0,0.0,0.0
2018/07/18/15:58:30.410335,758,1531943910,409152318,,-0.635836825118,1.69480542907,0.0,0.0,0.0,0.0
2018/07/18/15:58:30.870223,759,1531943910,869544075,,-0.652775734286,1.69299156936,0.0,0.0,0.0,0.0
2018/07/18/15:58:31.424691,760,1531943911,424390305,,-0.67199828508,1.69111707233,0.0,0.0,0.0,0.0
2018/07/18/15:58:32.102110,761,1531943912,101613392,,-0.681007574253,1.69046126645,0.0,0.0,0.0,0.0
2018/07/18/15:58:32.585943,762,1531943912,584873171,,-0.6933934805,1.69053437492,0.0,0.0,0.0,0.0
2018/07/18/15:58:33.087245,763,1531943913,86698158,,-0.712090973382,1.69037909361,0.0,0.0,0.0,0.0
2018/07/18/15:58:33.621030,764,1531943913,620667155,,-0.737242207858,1.69042927686,0.0,0.0,0.0,0.0
2018/07/18/15:58:34.165235,765,1531943914,163394012,,-0.770358172593,1.69187621335,0.0,0.0,0.0,0.0
2018/07/18/15:58:34.604795,766,1531943914,603298814,,-0.812793652203,1.69861926312,0.0,0.0,0.0,0.0
2018/07/18/15:58:35.191117,767,1531943915,190668014,,-0.863242467232,1.7146778516,0.0,0.0,0.0,0.0
2018/07/18/15:58:35.738164,768,1531943915,736653696,,-0.880619651245,1.72408786881,0.0,0.0,0.0,0.0
2018/07/18/15:58:36.110069,769,1531943916,109733335,,-0.888584299674,1.72923062777,0.0,0.0,0.0,0.0
2018/07/18/15:58:36.448593,770,1531943916,447452621,,-0.890450170235,1.72732817049,0.0,0.0,0.0,0.0
2018/07/18/15:58:36.884333,771,1531943916,883856703,,-0.888324647694,1.71594672316,0.0,0.0,0.0,0.0
2018/07/18/15:58:37.474114,772,1531943917,473702408,,-0.888254112434,1.70308746869,0.0,0.0,0.0,0.0
2018/07/18/15:58:37.926859,773,1531943917,926285970,,-0.888504874313,1.69111014395,0.0,0.0,0.0,0.0
2018/07/18/15:58:38.302564,774,1531943918,302092951,,-0.888795048502,1.69150885419,0.0,0.0,0.0,0.0
2018/07/18/15:58:38.760761,775,1531943918,759718064,,-0.888906377786,1.69709752862,0.0,0.0,0.0,0.0
2018/07/18/15:58:39.174014,776,1531943919,172890503,,-0.887723742285,1.70545377853,0.0,0.0,0.0,0.0
2018/07/18/15:58:39.776363,777,1531943919,776062351,,-0.879664857743,1.7485314281,0.0,0.0,0.0,0.0
2018/07/18/15:58:40.304492,778,1531943920,302027830,,-0.872618237077,1.7917657501,0.0,0.0,0.0,0.0
2018/07/18/15:58:40.774289,779,1531943920,772738127,,-0.867658853874,1.83739750671,0.0,0.0,0.0,0.0
2018/07/18/15:58:41.164309,780,1531943921,162968166,,-0.863166727887,1.88313094231,0.0,0.0,0.0,0.0
2018/07/18/15:58:41.799586,781,1531943921,799233181,,-0.859318867768,1.93936894769,0.0,0.0,0.0,0.0
2018/07/18/15:58:42.302228,782,1531943922,301901577,,-0.85806645847,1.97533852949,0.0,0.0,0.0,0.0
2018/07/18/15:58:42.834878,783,1531943922,834348315,,-0.857609775908,2.00481894573,0.0,0.0,0.0,0.0
2018/07/18/15:58:43.352280,784,1531943923,350941305,,-0.857491783964,2.02814671893,0.0,0.0,0.0,0.0
2018/07/18/15:58:43.971071,785,1531943923,968412454,,-0.857267897516,2.04965170123,0.0,0.0,0.0,0.0
2018/07/18/15:58:44.513277,786,1531943924,512987457,,-0.857051885273,2.0564107849,0.0,0.0,0.0,0.0
2018/07/18/15:58:45.117243,787,1531943925,116889672,,-0.856839546667,2.0487955785,0.0,0.0,0.0,0.0
2018/07/18/15:58:45.669452,788,1531943925,668930268,,-0.856691870549,2.04356306866,0.0,0.0,0.0,0.0
2018/07/18/15:58:46.102337,789,1531943926,98468136,,-0.856931001366,2.03993051824,0.0,0.0,0.0,0.0
2018/07/18/15:58:46.680185,790,1531943926,679736429,,-0.859494252896,2.02866072195,0.0,0.0,0.0,0.0
2018/07/18/15:58:47.172741,791,1531943927,171668968,,-0.865386187036,2.01464123308,0.0,0.0,0.0,0.0
2018/07/18/15:58:47.604448,792,1531943927,602210385,,-0.873533689916,2.00120766012,0.0,0.0,0.0,0.0
2018/07/18/15:58:48.059448,793,1531943928,58911686,,-0.884939625281,1.98814555116,0.0,0.0,0.0,0.0
2018/07/18/15:58:48.605764,794,1531943928,605323145,,-0.904006119373,1.97521838778,0.0,0.0,0.0,0.0
2018/07/18/15:58:49.024049,795,1531943929,23686489,,-0.92350662634,1.96842003799,0.0,0.0,0.0,0.0
2018/07/18/15:58:49.367560,796,1531943929,367378851,,-0.934254026825,1.96559492077,0.0,0.0,0.0,0.0
2018/07/18/15:58:49.849758,797,1531943929,846864977,,-0.935311582827,1.96311718548,0.0,0.0,0.0,0.0
2018/07/18/15:58:50.333329,798,1531943930,332880445,,-0.931520912236,1.95867993372,0.0,0.0,0.0,0.0
2018/07/18/15:58:50.749682,799,1531943930,748501362,,-0.919787211138,1.95291375569,0.0,0.0,0.0,0.0
2018/07/18/15:58:51.162886,800,1531943931,162549435,,-0.899179247595,1.94429314474,0.0,0.0,0.0,0.0
2018/07/18/15:58:51.616336,801,1531943931,612591274,,-0.86839225456,1.93307950723,0.0,0.0,0.0,0.0
2018/07/18/15:58:52.095296,802,1531943932,94931269,,-0.828628068101,1.9215088007,0.0,0.0,0.0,0.0
2018/07/18/15:58:52.651711,803,1531943932,649624296,,-0.78504231348,1.91310764446,0.0,0.0,0.0,0.0
2018/07/18/15:58:53.100638,804,1531943933,100041082,,-0.741485400043,1.90874068353,0.0,0.0,0.0,0.0
2018/07/18/15:58:53.548659,805,1531943933,548200646,,-0.716531199704,1.90827347348,0.0,0.0,0.0,0.0
2018/07/18/15:58:53.992312,806,1531943933,991800995,,-0.701252641968,1.90879914909,0.0,0.0,0.0,0.0
2018/07/18/15:58:54.408284,807,1531943934,405253281,,-0.695501539865,1.90997656629,0.0,0.0,0.0,0.0
2018/07/18/15:58:54.866550,808,1531943934,865572049,,-0.683954756175,1.91088732688,0.0,0.0,0.0,0.0
2018/07/18/15:58:55.199479,809,1531943935,198814622,,-0.684745912551,1.91132095367,0.0,0.0,0.0,0.0
2018/07/18/15:58:55.625131,810,1531943935,624801500,,-0.682912664424,1.91118986601,0.0,0.0,0.0,0.0
2018/07/18/15:58:56.323567,811,1531943936,321872250,,-0.664050608559,1.90695851594,0.0,0.0,0.0,0.0
2018/07/18/15:58:56.921913,812,1531943936,920168843,,-0.635849769783,1.8978587204,0.0,0.0,0.0,0.0
2018/07/18/15:58:57.471134,813,1531943937,470622743,,-0.610102422834,1.88854700038,0.0,0.0,0.0,0.0
2018/07/18/15:58:57.892325,814,1531943937,889533770,,-0.589357357765,1.88092076675,0.0,0.0,0.0,0.0
2018/07/18/15:58:58.320140,815,1531943938,319828872,,-0.571824677952,1.87525242396,0.0,0.0,0.0,0.0
2018/07/18/15:58:58.852173,816,1531943938,851881884,,-0.549636464616,1.86991859591,0.0,0.0,0.0,0.0
2018/07/18/15:58:59.262558,817,1531943939,262078290,,-0.533607168702,1.86782981575,0.0,0.0,0.0,0.0
2018/07/18/15:58:59.712631,818,1531943939,711889418,,-0.511231264821,1.86687318782,0.0,0.0,0.0,0.0
2018/07/18/15:59:00.266594,819,1531943940,265681538,,-0.48196785945,1.86935401135,0.0,0.0,0.0,0.0
2018/07/18/15:59:00.767978,820,1531943940,763435848,,-0.460139498159,1.87279451105,0.0,0.0,0.0,0.0
2018/07/18/15:59:01.153969,821,1531943941,153645845,,-0.444797024802,1.87503660914,0.0,0.0,0.0,0.0
2018/07/18/15:59:01.707234,822,1531943941,706743965,,-0.414640954469,1.87877592444,0.0,0.0,0.0,0.0
2018/07/18/15:59:02.202648,823,1531943942,197559475,,-0.405615386904,1.87932170651,0.0,0.0,0.0,0.0
2018/07/18/15:59:02.719279,824,1531943942,718896909,,-0.410416748269,1.88018176888,0.0,0.0,0.0,0.0
