%time,field.header.seq,field.header.stamp,field.header.frame_id,field.child_frame_id,field.pose.pose.position.x,field.pose.pose.position.y,field.pose.pose.position.z,field.pose.pose.orientation.x,field.pose.pose.orientation.y,field.pose.pose.orientation.z,field.pose.pose.orientation.w,field.pose.covariance0,field.pose.covariance1,field.pose.covariance2,field.pose.covariance3,field.pose.covariance4,field.pose.covariance5,field.pose.covariance6,field.pose.covariance7,field.pose.covariance8,field.pose.covariance9,field.pose.covariance10,field.pose.covariance11,field.pose.covariance12,field.pose.covariance13,field.pose.covariance14,field.pose.covariance15,field.pose.covariance16,field.pose.covariance17,field.pose.covariance18,field.pose.covariance19,field.pose.covariance20,field.pose.covariance21,field.pose.covariance22,field.pose.covariance23,field.pose.covariance24,field.pose.covariance25,field.pose.covariance26,field.pose.covariance27,field.pose.covariance28,field.pose.covariance29,field.pose.covariance30,field.pose.covariance31,field.pose.covariance32,field.pose.covariance33,field.pose.covariance34,field.pose.covariance35,field.twist.twist.linear.x,field.twist.twist.linear.y,field.twist.twist.linear.z,field.twist.twist.angular.x,field.twist.twist.angular.y,field.twist.twist.angular.z,field.twist.covariance0,field.twist.covariance1,field.twist.covariance2,field.twist.covariance3,field.twist.covariance4,field.twist.covariance5,field.twist.covariance6,field.twist.covariance7,field.twist.covariance8,field.twist.covariance9,field.twist.covariance10,field.twist.covariance11,field.twist.covariance12,field.twist.covariance13,field.twist.covariance14,field.twist.covariance15,field.twist.covariance16,field.twist.covariance17,field.twist.covariance18,field.twist.covariance19,field.twist.covariance20,field.twist.covariance21,field.twist.covariance22,field.twist.covariance23,field.twist.covariance24,field.twist.covariance25,field.twist.covariance26,field.twist.covariance27,field.twist.covariance28,field.twist.covariance29,field.twist.covariance30,field.twist.covariance31,field.twist.covariance32,field.twist.covariance33,field.twist.covariance34,field.twist.covariance35
1531943810885663324,998,1531943810884418155,map,base_link,-111.645811304,50.3962563716,35.605,0.430355280624,0.0100020537959,-0.00634773302409,-0.902581850939,0.435600034618,0.0,0.0,0.0,0.0,0.0,0.0,0.435600034618,0.0,0.0,0.0,0.0,0.0,0.0,1.74240013847,0.0,0.0,0.0,0.0,0.0,0.0,99999.0,0.0,0.0,0.0,0.0,0.0,0.0,99999.0,0.0,0.0,0.0,0.0,0.0,0.0,99999.0,-0.39,19.49,0.04,0.0,0.0,0.0,-1.0,0.0,0.0,0.0,0.0,0.0,0.0,0.0,0.0,0.0,0.0,0.0,0.0,0.0,0.0,0.0,0.0,0.0,0.0,0.0,0.0,0.0,0.0,0.0,0.0,0.0,0.0,0.0,0.0,0.0,0.0,0.0,0.0,0.0,0.0,0.0
1531943811114672270,999,1531943811112639880,map,base_link,-107.243643616,50.5183510675,35.869,0.192815652867,0.0357816614945,-0.0586542927737,-0.978826578434,0.435600034618,0.0,0.0,0.0,0.0,0.0,0.0,0.435600034618,0.0,0.0,0.0,0.0,0.0,0.0,1.74240013847,0.0,0.0,0.0,0.0,0.0,0.0,99999.0,0.0,0.0,0.0,0.0,0.0,0.0,99999.0,0.0,0.0,0.0,0.0,0.0,0.0,99999.0,0.62,19.26,-1.0,0.0,0.0,0.0,-1.0,0.0,0.0,0.0,0.0,0.0,0.0,0.0,0.0,0.0,0.0,0.0,0.0,0.0,0.0,0.0,0.0,0.0,0.0,0.0,0.0,0.0,0.0,0.0,0.0,0.0,0.0,0.0,0.0,0.0,0.0,0.0,0.0,0.0,0.0,0.0
1531943811369291261,1000,1531943811368075341,map,base_link,-102.833014969,50.6071348639,36.408,0.192815652867,0.0357816614945,-0.0586542927737,-0.978826578434,0.396899993992,0.0,0.0,0.0,0.0,0.0,0.0,0.396899993992,0.0,0.0,0.0,0.0,0.0,0.0,1.58759997597,0.0,0.0,0.0,0.0,0.0,0.0,99999.0,0.0,0.0,0.0,0.0,0.0,0.0,99999.0,0.0,0.0,0.0,0.0,0.0,0.0,99999.0,0.36,18.87,-1.83,0.0,0.0,0.0,-1.0,0.0,0.0,0.0,0.0,0.0,0.0,0.0,0.0,0.0,0.0,0.0,0.0,0.0,0.0,0.0,0.0,0.0,0.0,0.0,0.0,0.0,0.0,0.0,0.0,0.0,0.0,0.0,0.0,0.0,0.0,0.0,0.0,0.0,0.0,0.0
1531943811635825621,1001,1531943811634012524,map,base_link,-97.8297936802,50.4404960829,37.247,-0.115040466481,0.0463108334785,-0.108915435493,-0.986285164486,0.396899993992,0.0,0.0,0.0,0.0,0.0,0.0,0.396899993992,0.0,0.0,0.0,0.0,0.0,0.0,1.58759997597,0.0,0.0,0.0,0.0,0.0,0.0,99999.0,0.0,0.0,0.0,0.0,0.0,0.0,99999.0,0.0,0.0,0.0,0.0,0.0,0.0,99999.0,-0.09,18.1,-2.72,0.0,0.0,0.0,-1.0,0.0,0.0,0.0,0.0,0.0,0.0,0.0,0.0,0.0,0.0,0.0,0.0,0.0,0.0,0.0,0.0,0.0,0.0,0.0,0.0,0.0,0.0,0.0,0.0,0.0,0.0,0.0,0.0,0.0,0.0,0.0,0.0,0.0,0.0,0.0
1531943811883607419,1002,1531943811882505033,map,base_link,-93.6731425728,50.3071871527,38.126,0.0893909549218,0.0853818927019,-0.110568628532,-0.986150986392,0.396899993992,0.0,0.0,0.0,0.0,0.0,0.0,0.396899993992,0.0,0.0,0.0,0.0,0.0,0.0,1.58759997597,0.0,0.0,0.0,0.0,0.0,0.0,99999.0,0.0,0.0,0.0,0.0,0.0,0.0,99999.0,0.0,0.0,0.0,0.0,0.0,0.0,99999.0,0.39,17.38,-3.12,0.0,0.0,0.0,-1.0,0.0,0.0,0.0,0.0,0.0,0.0,0.0,0.0,0.0,0.0,0.0,0.0,0.0,0.0,0.0,0.0,0.0,0.0,0.0,0.0,0.0,0.0,0.0,0.0,0.0,0.0,0.0,0.0,0.0,0.0,0.0,0.0,0.0,0.0,0.0
1531943812110607918,1003,1531943812109279103,map,base_link,-89.6265416792,50.3959859735,38.993,0.222648565727,0.0928291957041,-0.0904932205825,-0.966240825899,0.396899993992,0.0,0.0,0.0,0.0,0.0,0.0,0.396899993992,0.0,0.0,0.0,0.0,0.0,0.0,1.58759997597,0.0,0.0,0.0,0.0,0.0,0.0,99999.0,0.0,0.0,0.0,0.0,0.0,0.0,99999.0,0.0,0.0,0.0,0.0,0.0,0.0,99999.0,1.29,16.89,-3.03,0.0,0.0,0.0,-1.0,0.0,0.0,0.0,0.0,0.0,0.0,0.0,0.0,0.0,0.0,0.0,0.0,0.0,0.0,0.0,0.0,0.0,0.0,0.0,0.0,0.0,0.0,0.0,0.0,0.0,0.0,0.0,0.0,0.0,0.0,0.0,0.0,0.0,0.0,0.0
1531943812391683731,1004,1531943812390208837,map,base_link,-85.6137969353,50.7957320876,39.708,0.222648565727,0.0928291957041,-0.0904932205825,-0.966240825899,0.435600034618,0.0,0.0,0.0,0.0,0.0,0.0,0.435600034618,0.0,0.0,0.0,0.0,0.0,0.0,1.74240013847,0.0,0.0,0.0,0.0,0.0,0.0,99999.0,0.0,0.0,0.0,0.0,0.0,0.0,99999.0,0.0,0.0,0.0,0.0,0.0,0.0,99999.0,2.33,16.71,-2.49,0.0,0.0,0.0,-1.0,0.0,0.0,0.0,0.0,0.0,0.0,0.0,0.0,0.0,0.0,0.0,0.0,0.0,0.0,0.0,0.0,0.0,0.0,0.0,0.0,0.0,0.0,0.0,0.0,0.0,0.0,0.0,0.0,0.0,0.0,0.0,0.0,0.0,0.0,0.0
1531943812625448114,1005,1531943812622984241,map,base_link,-81.3132104134,51.5730527935,40.191,0.297462736201,0.099476162262,-0.109967832473,-0.943147649912,0.372100017452,0.0,0.0,0.0,0.0,0.0,0.0,0.372100017452,0.0,0.0,0.0,0.0,0.0,0.0,1.48840006981,0.0,0.0,0.0,0.0,0.0,0.0,99999.0,0.0,0.0,0.0,0.0,0.0,0.0,99999.0,0.0,0.0,0.0,0.0,0.0,0.0,99999.0,3.7,16.21,-1.81,0.0,0.0,0.0,-1.0,0.0,0.0,0.0,0.0,0.0,0.0,0.0,0.0,0.0,0.0,0.0,0.0,0.0,0.0,0.0,0.0,0.0,0.0,0.0,0.0,0.0,0.0,0.0,0.0,0.0,0.0,0.0,0.0,0.0,0.0,0.0,0.0,0.0,0.0,0.0
1531943812863221310,1006,1531943812860496001,map,base_link,-77.4359044426,52.6946408059,40.521,0.352863325419,0.136949070677,-0.177656852116,-0.908388941209,0.372100017452,0.0,0.0,0.0,0.0,0.0,0.0,0.372100017452,0.0,0.0,0.0,0.0,0.0,0.0,1.48840006981,0.0,0.0,0.0,0.0,0.0,0.0,99999.0,0.0,0.0,0.0,0.0,0.0,0.0,99999.0,0.0,0.0,0.0,0.0,0.0,0.0,99999.0,5.48,15.55,-1.49,0.0,0.0,0.0,-1.0,0.0,0.0,0.0,0.0,0.0,0.0,0.0,0.0,0.0,0.0,0.0,0.0,0.0,0.0,0.0,0.0,0.0,0.0,0.0,0.0,0.0,0.0,0.0,0.0,0.0,0.0,0.0,0.0,0.0,0.0,0.0,0.0,0.0,0.0,0.0
1531943813108394160,1007,1531943813107751800,map,base_link,-73.7448393419,54.3270722418,40.803,0.352863325419,0.136949070677,-0.177656852116,-0.908388941209,0.372100017452,0.0,0.0,0.0,0.0,0.0,0.0,0.372100017452,0.0,0.0,0.0,0.0,0.0,0.0,1.48840006981,0.0,0.0,0.0,0.0,0.0,0.0,99999.0,0.0,0.0,0.0,0.0,0.0,0.0,99999.0,0.0,0.0,0.0,0.0,0.0,0.0,99999.0,7.8,14.64,-1.58,0.0,0.0,0.0,-1.0,0.0,0.0,0.0,0.0,0.0,0.0,0.0,0.0,0.0,0.0,0.0,0.0,0.0,0.0,0.0,0.0,0.0,0.0,0.0,0.0,0.0,0.0,0.0,0.0,0.0,0.0,0.0,0.0,0.0,0.0,0.0,0.0,0.0,0.0,0.0
1531943813388588680,1008,1531943813387689876,map,base_link,-69.7913291095,57.0367096848,41.151,0.374671410681,0.217356371889,-0.299898862849,-0.849963654328,0.372100017452,0.0,0.0,0.0,0.0,0.0,0.0,0.372100017452,0.0,0.0,0.0,0.0,0.0,0.0,1.48840006981,0.0,0.0,0.0,0.0,0.0,0.0,99999.0,0.0,0.0,0.0,0.0,0.0,0.0,99999.0,0.0,0.0,0.0,0.0,0.0,0.0,99999.0,10.91,12.74,-1.86,0.0,0.0,0.0,-1.0,0.0,0.0,0.0,0.0,0.0,0.0,0.0,0.0,0.0,0.0,0.0,0.0,0.0,0.0,0.0,0.0,0.0,0.0,0.0,0.0,0.0,0.0,0.0,0.0,0.0,0.0,0.0,0.0,0.0,0.0,0.0,0.0,0.0,0.0,0.0
1531943813609833422,1009,1531943813608992153,map,base_link,-66.8452374297,60.0906200054,41.483,0.374671410681,0.217356371889,-0.299898862849,-0.849963654328,0.372100017452,0.0,0.0,0.0,0.0,0.0,0.0,0.372100017452,0.0,0.0,0.0,0.0,0.0,0.0,1.48840006981,0.0,0.0,0.0,0.0,0.0,0.0,99999.0,0.0,0.0,0.0,0.0,0.0,0.0,99999.0,0.0,0.0,0.0,0.0,0.0,0.0,99999.0,13.35,10.6,-2.15,0.0,0.0,0.0,-1.0,0.0,0.0,0.0,0.0,0.0,0.0,0.0,0.0,0.0,0.0,0.0,0.0,0.0,0.0,0.0,0.0,0.0,0.0,0.0,0.0,0.0,0.0,0.0,0.0,0.0,0.0,0.0,0.0,0.0,0.0,0.0,0.0,0.0,0.0,0.0
1531943813895060230,1010,1531943813893765239,map,base_link,-64.144644616,64.3438989304,41.976,0.350326033984,0.275605336072,-0.383530294025,-0.808837364497,0.372100017452,0.0,0.0,0.0,0.0,0.0,0.0,0.372100017452,0.0,0.0,0.0,0.0,0.0,0.0,1.48840006981,0.0,0.0,0.0,0.0,0.0,0.0,99999.0,0.0,0.0,0.0,0.0,0.0,0.0,99999.0,0.0,0.0,0.0,0.0,0.0,0.0,99999.0,15.6,7.65,-2.33,0.0,0.0,0.0,-1.0,0.0,0.0,0.0,0.0,0.0,0.0,0.0,0.0,0.0,0.0,0.0,0.0,0.0,0.0,0.0,0.0,0.0,0.0,0.0,0.0,0.0,0.0,0.0,0.0,0.0,0.0,0.0,0.0,0.0,0.0,0.0,0.0,0.0,0.0,0.0
1531943814120477434,1011,1531943814118171095,map,base_link,-62.7393132328,67.6865612822,42.358,0.328264529387,0.322558127562,-0.472648891994,-0.751532885499,0.372100017452,0.0,0.0,0.0,0.0,0.0,0.0,0.372100017452,0.0,0.0,0.0,0.0,0.0,0.0,1.48840006981,0.0,0.0,0.0,0.0,0.0,0.0,99999.0,0.0,0.0,0.0,0.0,0.0,0.0,99999.0,0.0,0.0,0.0,0.0,0.0,0.0,99999.0,16.85,5.19,-2.41,0.0,0.0,0.0,-1.0,0.0,0.0,0.0,0.0,0.0,0.0,0.0,0.0,0.0,0.0,0.0,0.0,0.0,0.0,0.0,0.0,0.0,0.0,0.0,0.0,0.0,0.0,0.0,0.0,0.0,0.0,0.0,0.0,0.0,0.0,0.0,0.0,0.0,0.0,0.0
1531943814359549859,1012,1531943814358612015,map,base_link,-61.6387385147,72.3840653902,42.903,0.288277570057,0.367327244058,-0.551564230681,-0.691190015703,0.372100017452,0.0,0.0,0.0,0.0,0.0,0.0,0.372100017452,0.0,0.0,0.0,0.0,0.0,0.0,1.48840006981,0.0,0.0,0.0,0.0,0.0,0.0,99999.0,0.0,0.0,0.0,0.0,0.0,0.0,99999.0,0.0,0.0,0.0,0.0,0.0,0.0,99999.0,17.79,1.72,-2.54,0.0,0.0,0.0,-1.0,0.0,0.0,0.0,0.0,0.0,0.0,0.0,0.0,0.0,0.0,0.0,0.0,0.0,0.0,0.0,0.0,0.0,0.0,0.0,0.0,0.0,0.0,0.0,0.0,0.0,0.0,0.0,0.0,0.0,0.0,0.0,0.0,0.0,0.0,0.0
1531943814605949232,1013,1531943814604922781,map,base_link,-61.4778592332,76.8483691905,43.503,0.288277570057,0.367327244058,-0.551564230681,-0.691190015703,0.372100017452,0.0,0.0,0.0,0.0,0.0,0.0,0.372100017452,0.0,0.0,0.0,0.0,0.0,0.0,1.48840006981,0.0,0.0,0.0,0.0,0.0,0.0,99999.0,0.0,0.0,0.0,0.0,0.0,0.0,99999.0,0.0,0.0,0.0,0.0,0.0,0.0,99999.0,17.98,-1.99,-2.95,0.0,0.0,0.0,-1.0,0.0,0.0,0.0,0.0,0.0,0.0,0.0,0.0,0.0,0.0,0.0,0.0,0.0,0.0,0.0,0.0,0.0,0.0,0.0,0.0,0.0,0.0,0.0,0.0,0.0,0.0,0.0,0.0,0.0,0.0,0.0,0.0,0.0,0.0,0.0
1531943814857348988,1014,1531943814856207019,map,base_link,-62.3497936153,81.5903153904,44.295,0.226108829297,0.40992685242,-0.650250186156,-0.598338924342,0.372100017452,0.0,0.0,0.0,0.0,0.0,0.0,0.372100017452,0.0,0.0,0.0,0.0,0.0,0.0,1.48840006981,0.0,0.0,0.0,0.0,0.0,0.0,99999.0,0.0,0.0,0.0,0.0,0.0,0.0,99999.0,0.0,0.0,0.0,0.0,0.0,0.0,99999.0,17.38,-5.75,-3.26,0.0,0.0,0.0,-1.0,0.0,0.0,0.0,0.0,0.0,0.0,0.0,0.0,0.0,0.0,0.0,0.0,0.0,0.0,0.0,0.0,0.0,0.0,0.0,0.0,0.0,0.0,0.0,0.0,0.0,0.0,0.0,0.0,0.0,0.0,0.0,0.0,0.0,0.0,0.0
1531943815106344139,1015,1531943815102901142,map,base_link,-63.9243842069,85.7325871456,45.106,0.162997675495,0.416341107835,-0.721099750799,-0.529251347762,0.372100017452,0.0,0.0,0.0,0.0,0.0,0.0,0.372100017452,0.0,0.0,0.0,0.0,0.0,0.0,1.48840006981,0.0,0.0,0.0,0.0,0.0,0.0,99999.0,0.0,0.0,0.0,0.0,0.0,0.0,99999.0,0.0,0.0,0.0,0.0,0.0,0.0,99999.0,16.08,-8.72,-3.45,0.0,0.0,0.0,-1.0,0.0,0.0,0.0,0.0,0.0,0.0,0.0,0.0,0.0,0.0,0.0,0.0,0.0,0.0,0.0,0.0,0.0,0.0,0.0,0.0,0.0,0.0,0.0,0.0,0.0,0.0,0.0,0.0,0.0,0.0,0.0,0.0,0.0,0.0,0.0
1531943815376607183,1016,1531943815375462174,map,base_link,-66.5656512071,90.0636635268,46.265,0.162997675495,0.416341107835,-0.721099750799,-0.529251347762,0.372100017452,0.0,0.0,0.0,0.0,0.0,0.0,0.372100017452,0.0,0.0,0.0,0.0,0.0,0.0,1.48840006981,0.0,0.0,0.0,0.0,0.0,0.0,99999.0,0.0,0.0,0.0,0.0,0.0,0.0,99999.0,0.0,0.0,0.0,0.0,0.0,0.0,99999.0,13.63,-11.65,-4.23,0.0,0.0,0.0,-1.0,0.0,0.0,0.0,0.0,0.0,0.0,0.0,0.0,0.0,0.0,0.0,0.0,0.0,0.0,0.0,0.0,0.0,0.0,0.0,0.0,0.0,0.0,0.0,0.0,0.0,0.0,0.0,0.0,0.0,0.0,0.0,0.0,0.0,0.0,0.0
1531943815637348045,1017,1531943815633082467,map,base_link,-69.3423790816,93.2064859039,47.52,0.0330060528884,0.385235395776,-0.816158322496,-0.429406430941,0.348099969053,0.0,0.0,0.0,0.0,0.0,0.0,0.348099969053,0.0,0.0,0.0,0.0,0.0,0.0,1.39239987621,0.0,0.0,0.0,0.0,0.0,0.0,99999.0,0.0,0.0,0.0,0.0,0.0,0.0,99999.0,0.0,0.0,0.0,0.0,0.0,0.0,99999.0,11.45,-13.08,-4.72,0.0,0.0,0.0,-1.0,0.0,0.0,0.0,0.0,0.0,0.0,0.0,0.0,0.0,0.0,0.0,0.0,0.0,0.0,0.0,0.0,0.0,0.0,0.0,0.0,0.0,0.0,0.0,0.0,0.0,0.0,0.0,0.0,0.0,0.0,0.0,0.0,0.0,0.0,0.0
1531943815872215057,1018,1531943815871283453,map,base_link,-72.584723522,96.0938989009,49.055,0.0330060528884,0.385235395776,-0.816158322496,-0.429406430941,0.372100017452,0.0,0.0,0.0,0.0,0.0,0.0,0.372100017452,0.0,0.0,0.0,0.0,0.0,0.0,1.48840006981,0.0,0.0,0.0,0.0,0.0,0.0,99999.0,0.0,0.0,0.0,0.0,0.0,0.0,99999.0,0.0,0.0,0.0,0.0,0.0,0.0,99999.0,9.58,-13.65,-5.0,0.0,0.0,0.0,-1.0,0.0,0.0,0.0,0.0,0.0,0.0,0.0,0.0,0.0,0.0,0.0,0.0,0.0,0.0,0.0,0.0,0.0,0.0,0.0,0.0,0.0,0.0,0.0,0.0,0.0,0.0,0.0,0.0,0.0,0.0,0.0,0.0,0.0,0.0,0.0
1531943816102097272,1019,1531943816100951463,map,base_link,-75.3360631526,98.2483617656,50.414,-0.0612180059232,0.252949559137,-0.893310599603,-0.366421954745,0.348099969053,0.0,0.0,0.0,0.0,0.0,0.0,0.348099969053,0.0,0.0,0.0,0.0,0.0,0.0,1.39239987621,0.0,0.0,0.0,0.0,0.0,0.0,99999.0,0.0,0.0,0.0,0.0,0.0,0.0,99999.0,0.0,0.0,0.0,0.0,0.0,0.0,99999.0,8.56,-13.48,-5.14,0.0,0.0,0.0,-1.0,0.0,0.0,0.0,0.0,0.0,0.0,0.0,0.0,0.0,0.0,0.0,0.0,0.0,0.0,0.0,0.0,0.0,0.0,0.0,0.0,0.0,0.0,0.0,0.0,0.0,0.0,0.0,0.0,0.0,0.0,0.0,0.0,0.0,0.0,0.0
1531943816380135875,1020,1531943816376534608,map,base_link,-78.6800008257,100.824838848,52.222,-0.11635226086,0.138773124259,-0.923312717668,-0.338670631689,0.348099969053,0.0,0.0,0.0,0.0,0.0,0.0,0.348099969053,0.0,0.0,0.0,0.0,0.0,0.0,1.39239987621,0.0,0.0,0.0,0.0,0.0,0.0,99999.0,0.0,0.0,0.0,0.0,0.0,0.0,99999.0,0.0,0.0,0.0,0.0,0.0,0.0,99999.0,7.84,-12.81,-5.23,0.0,0.0,0.0,-1.0,0.0,0.0,0.0,0.0,0.0,0.0,0.0,0.0,0.0,0.0,0.0,0.0,0.0,0.0,0.0,0.0,0.0,0.0,0.0,0.0,0.0,0.0,0.0,0.0,0.0,0.0,0.0,0.0,0.0,0.0,0.0,0.0,0.0,0.0,0.0
1531943816604210519,1021,1531943816601476249,map,base_link,-81.1689056981,102.779408758,53.578,-0.135001096802,0.00524643866948,-0.943464530681,-0.302691027436,0.348099969053,0.0,0.0,0.0,0.0,0.0,0.0,0.348099969053,0.0,0.0,0.0,0.0,0.0,0.0,1.39239987621,0.0,0.0,0.0,0.0,0.0,0.0,99999.0,0.0,0.0,0.0,0.0,0.0,0.0,99999.0,0.0,0.0,0.0,0.0,0.0,0.0,99999.0,7.67,-12.29,-4.69,0.0,0.0,0.0,-1.0,0.0,0.0,0.0,0.0,0.0,0.0,0.0,0.0,0.0,0.0,0.0,0.0,0.0,0.0,0.0,0.0,0.0,0.0,0.0,0.0,0.0,0.0,0.0,0.0,0.0,0.0,0.0,0.0,0.0,0.0,0.0,0.0,0.0,0.0,0.0
1531943816828994178,1022,1531943816820825993,map,base_link,-83.5816163479,104.722870458,54.699,-0.135001096802,0.00524643866948,-0.943464530681,-0.302691027436,0.348099969053,0.0,0.0,0.0,0.0,0.0,0.0,0.348099969053,0.0,0.0,0.0,0.0,0.0,0.0,1.39239987621,0.0,0.0,0.0,0.0,0.0,0.0,99999.0,0.0,0.0,0.0,0.0,0.0,0.0,99999.0,0.0,0.0,0.0,0.0,0.0,0.0,99999.0,7.72,-11.88,-3.69,0.0,0.0,0.0,-1.0,0.0,0.0,0.0,0.0,0.0,0.0,0.0,0.0,0.0,0.0,0.0,0.0,0.0,0.0,0.0,0.0,0.0,0.0,0.0,0.0,0.0,0.0,0.0,0.0,0.0,0.0,0.0,0.0,0.0,0.0,0.0,0.0,0.0,0.0,0.0
1531943817059906017,1023,1531943817058233110,map,base_link,-86.1297731809,106.855121779,55.661,-0.120410275198,-0.078030566597,-0.938085196585,-0.315291548017,0.348099969053,0.0,0.0,0.0,0.0,0.0,0.0,0.348099969053,0.0,0.0,0.0,0.0,0.0,0.0,1.39239987621,0.0,0.0,0.0,0.0,0.0,0.0,99999.0,0.0,0.0,0.0,0.0,0.0,0.0,99999.0,0.0,0.0,0.0,0.0,0.0,0.0,99999.0,7.89,-11.33,-3.03,0.0,0.0,0.0,-1.0,0.0,0.0,0.0,0.0,0.0,0.0,0.0,0.0,0.0,0.0,0.0,0.0,0.0,0.0,0.0,0.0,0.0,0.0,0.0,0.0,0.0,0.0,0.0,0.0,0.0,0.0,0.0,0.0,0.0,0.0,0.0,0.0,0.0,0.0,0.0
1531943817327248697,1024,1531943817321907869,map,base_link,-88.7964445783,109.198373601,56.513,-0.120410275198,-0.078030566597,-0.938085196585,-0.315291548017,0.348099969053,0.0,0.0,0.0,0.0,0.0,0.0,0.348099969053,0.0,0.0,0.0,0.0,0.0,0.0,1.39239987621,0.0,0.0,0.0,0.0,0.0,0.0,99999.0,0.0,0.0,0.0,0.0,0.0,0.0,99999.0,0.0,0.0,0.0,0.0,0.0,0.0,99999.0,8.21,-10.75,-2.17,0.0,0.0,0.0,-1.0,0.0,0.0,0.0,0.0,0.0,0.0,0.0,0.0,0.0,0.0,0.0,0.0,0.0,0.0,0.0,0.0,0.0,0.0,0.0,0.0,0.0,0.0,0.0,0.0,0.0,0.0,0.0,0.0,0.0,0.0,0.0,0.0,0.0,0.0,0.0
1531943817594223255,1025,1531943817593108741,map,base_link,-91.5392983361,111.808148367,57.058,-0.0556786382508,-0.127272692989,-0.926922025484,-0.348593042866,0.348099969053,0.0,0.0,0.0,0.0,0.0,0.0,0.348099969053,0.0,0.0,0.0,0.0,0.0,0.0,1.39239987621,0.0,0.0,0.0,0.0,0.0,0.0,99999.0,0.0,0.0,0.0,0.0,0.0,0.0,99999.0,0.0,0.0,0.0,0.0,0.0,0.0,99999.0,8.53,-10.35,-0.57,0.0,0.0,0.0,-1.0,0.0,0.0,0.0,0.0,0.0,0.0,0.0,0.0,0.0,0.0,0.0,0.0,0.0,0.0,0.0,0.0,0.0,0.0,0.0,0.0,0.0,0.0,0.0,0.0,0.0,0.0,0.0,0.0,0.0,0.0,0.0,0.0,0.0,0.0,0.0
1531943817828174004,1026,1531943817825960144,map,base_link,-93.638760346,113.851540943,57.147,-0.0556786382508,-0.127272692989,-0.926922025484,-0.348593042866,0.348099969053,0.0,0.0,0.0,0.0,0.0,0.0,0.348099969053,0.0,0.0,0.0,0.0,0.0,0.0,1.39239987621,0.0,0.0,0.0,0.0,0.0,0.0,99999.0,0.0,0.0,0.0,0.0,0.0,0.0,99999.0,0.0,0.0,0.0,0.0,0.0,0.0,99999.0,8.72,-10.16,0.57,0.0,0.0,0.0,-1.0,0.0,0.0,0.0,0.0,0.0,0.0,0.0,0.0,0.0,0.0,0.0,0.0,0.0,0.0,0.0,0.0,0.0,0.0,0.0,0.0,0.0,0.0,0.0,0.0,0.0,0.0,0.0,0.0,0.0,0.0,0.0,0.0,0.0,0.0,0.0
1531943818040680000,1027,1531943818039791948,map,base_link,-95.7551485772,115.939351179,57.001,-0.00197314584217,-0.123409281308,-0.929073440411,-0.348695853583,0.348099969053,0.0,0.0,0.0,0.0,0.0,0.0,0.348099969053,0.0,0.0,0.0,0.0,0.0,0.0,1.39239987621,0.0,0.0,0.0,0.0,0.0,0.0,99999.0,0.0,0.0,0.0,0.0,0.0,0.0,99999.0,0.0,0.0,0.0,0.0,0.0,0.0,99999.0,8.91,-10.03,1.52,0.0,0.0,0.0,-1.0,0.0,0.0,0.0,0.0,0.0,0.0,0.0,0.0,0.0,0.0,0.0,0.0,0.0,0.0,0.0,0.0,0.0,0.0,0.0,0.0,0.0,0.0,0.0,0.0,0.0,0.0,0.0,0.0,0.0,0.0,0.0,0.0,0.0,0.0,0.0
1531943818269544196,1028,1531943818267702555,map,base_link,-98.0577738065,118.215948876,56.618,-0.00197314584217,-0.123409281308,-0.929073440411,-0.348695853583,0.348099969053,0.0,0.0,0.0,0.0,0.0,0.0,0.348099969053,0.0,0.0,0.0,0.0,0.0,0.0,1.39239987621,0.0,0.0,0.0,0.0,0.0,0.0,99999.0,0.0,0.0,0.0,0.0,0.0,0.0,99999.0,0.0,0.0,0.0,0.0,0.0,0.0,99999.0,9.11,-9.99,2.39,0.0,0.0,0.0,-1.0,0.0,0.0,0.0,0.0,0.0,0.0,0.0,0.0,0.0,0.0,0.0,0.0,0.0,0.0,0.0,0.0,0.0,0.0,0.0,0.0,0.0,0.0,0.0,0.0,0.0,0.0,0.0,0.0,0.0,0.0,0.0,0.0,0.0,0.0,0.0
1531943818536597927,1029,1531943818535321015,map,base_link,-100.555101387,120.725756129,56.031,0.0653923579899,-0.0776975450902,-0.920358733498,-0.377659545991,0.348099969053,0.0,0.0,0.0,0.0,0.0,0.0,0.348099969053,0.0,0.0,0.0,0.0,0.0,0.0,1.39239987621,0.0,0.0,0.0,0.0,0.0,0.0,99999.0,0.0,0.0,0.0,0.0,0.0,0.0,99999.0,0.0,0.0,0.0,0.0,0.0,0.0,99999.0,9.41,-10.02,2.96,0.0,0.0,0.0,-1.0,0.0,0.0,0.0,0.0,0.0,0.0,0.0,0.0,0.0,0.0,0.0,0.0,0.0,0.0,0.0,0.0,0.0,0.0,0.0,0.0,0.0,0.0,0.0,0.0,0.0,0.0,0.0,0.0,0.0,0.0,0.0,0.0,0.0,0.0,0.0
1531943818808579276,1030,1531943818807633016,map,base_link,-103.280992618,123.513194277,55.268,0.0814520408563,-0.0719549181385,-0.910180871773,-0.399698430638,0.348099969053,0.0,0.0,0.0,0.0,0.0,0.0,0.348099969053,0.0,0.0,0.0,0.0,0.0,0.0,1.39239987621,0.0,0.0,0.0,0.0,0.0,0.0,99999.0,0.0,0.0,0.0,0.0,0.0,0.0,99999.0,0.0,0.0,0.0,0.0,0.0,0.0,99999.0,9.78,-10.06,3.4,0.0,0.0,0.0,-1.0,0.0,0.0,0.0,0.0,0.0,0.0,0.0,0.0,0.0,0.0,0.0,0.0,0.0,0.0,0.0,0.0,0.0,0.0,0.0,0.0,0.0,0.0,0.0,0.0,0.0,0.0,0.0,0.0,0.0,0.0,0.0,0.0,0.0,0.0,0.0
1531943818987967390,1031,1531943818986468881,map,base_link,-105.033348688,125.334467655,54.727,0.0814520408563,-0.0719549181385,-0.910180871773,-0.399698430638,0.348099969053,0.0,0.0,0.0,0.0,0.0,0.0,0.348099969053,0.0,0.0,0.0,0.0,0.0,0.0,1.39239987621,0.0,0.0,0.0,0.0,0.0,0.0,99999.0,0.0,0.0,0.0,0.0,0.0,0.0,99999.0,0.0,0.0,0.0,0.0,0.0,0.0,99999.0,10.01,-10.12,3.53,0.0,0.0,0.0,-1.0,0.0,0.0,0.0,0.0,0.0,0.0,0.0,0.0,0.0,0.0,0.0,0.0,0.0,0.0,0.0,0.0,0.0,0.0,0.0,0.0,0.0,0.0,0.0,0.0,0.0,0.0,0.0,0.0,0.0,0.0,0.0,0.0,0.0,0.0,0.0
1531943819238499575,1032,1531943819237648546,map,base_link,-107.378286764,127.788744474,53.997,0.0814520408563,-0.0719549181385,-0.910180871773,-0.399698430638,0.348099969053,0.0,0.0,0.0,0.0,0.0,0.0,0.348099969053,0.0,0.0,0.0,0.0,0.0,0.0,1.39239987621,0.0,0.0,0.0,0.0,0.0,0.0,99999.0,0.0,0.0,0.0,0.0,0.0,0.0,99999.0,0.0,0.0,0.0,0.0,0.0,0.0,99999.0,10.29,-10.27,3.49,0.0,0.0,0.0,-1.0,0.0,0.0,0.0,0.0,0.0,0.0,0.0,0.0,0.0,0.0,0.0,0.0,0.0,0.0,0.0,0.0,0.0,0.0,0.0,0.0,0.0,0.0,0.0,0.0,0.0,0.0,0.0,0.0,0.0,0.0,0.0,0.0,0.0,0.0,0.0
1531943819460244825,1033,1531943819459180903,map,base_link,-109.401535535,129.898757034,53.399,0.0863112826833,-0.0558918428228,-0.913955466735,-0.392570846107,0.348099969053,0.0,0.0,0.0,0.0,0.0,0.0,0.348099969053,0.0,0.0,0.0,0.0,0.0,0.0,1.39239987621,0.0,0.0,0.0,0.0,0.0,0.0,99999.0,0.0,0.0,0.0,0.0,0.0,0.0,99999.0,0.0,0.0,0.0,0.0,0.0,0.0,99999.0,10.49,-10.43,3.39,0.0,0.0,0.0,-1.0,0.0,0.0,0.0,0.0,0.0,0.0,0.0,0.0,0.0,0.0,0.0,0.0,0.0,0.0,0.0,0.0,0.0,0.0,0.0,0.0,0.0,0.0,0.0,0.0,0.0,0.0,0.0,0.0,0.0,0.0,0.0,0.0,0.0,0.0,0.0
1531943819738412952,1034,1531943819736714894,map,base_link,-112.52529562,133.108199921,52.561,0.0768037873199,-0.0448940891266,-0.913821740625,-0.396251845897,0.348099969053,0.0,0.0,0.0,0.0,0.0,0.0,0.348099969053,0.0,0.0,0.0,0.0,0.0,0.0,1.39239987621,0.0,0.0,0.0,0.0,0.0,0.0,99999.0,0.0,0.0,0.0,0.0,0.0,0.0,99999.0,0.0,0.0,0.0,0.0,0.0,0.0,99999.0,10.73,-10.66,3.05,0.0,0.0,0.0,-1.0,0.0,0.0,0.0,0.0,0.0,0.0,0.0,0.0,0.0,0.0,0.0,0.0,0.0,0.0,0.0,0.0,0.0,0.0,0.0,0.0,0.0,0.0,0.0,0.0,0.0,0.0,0.0,0.0,0.0,0.0,0.0,0.0,0.0,0.0,0.0
1531943819968599089,1035,1531943819965838868,map,base_link,-114.810972973,135.440322945,52.025,0.0768037873199,-0.0448940891266,-0.913821740625,-0.396251845897,0.348099969053,0.0,0.0,0.0,0.0,0.0,0.0,0.348099969053,0.0,0.0,0.0,0.0,0.0,0.0,1.39239987621,0.0,0.0,0.0,0.0,0.0,0.0,99999.0,0.0,0.0,0.0,0.0,0.0,0.0,99999.0,0.0,0.0,0.0,0.0,0.0,0.0,99999.0,10.84,-10.79,2.73,0.0,0.0,0.0,-1.0,0.0,0.0,0.0,0.0,0.0,0.0,0.0,0.0,0.0,0.0,0.0,0.0,0.0,0.0,0.0,0.0,0.0,0.0,0.0,0.0,0.0,0.0,0.0,0.0,0.0,0.0,0.0,0.0,0.0,0.0,0.0,0.0,0.0,0.0,0.0
1531943820165881931,1036,1531943820164565692,map,base_link,-117.164374358,137.827975467,51.571,0.051835994526,-0.0299329499903,-0.911901219173,-0.406021199751,0.348099969053,0.0,0.0,0.0,0.0,0.0,0.0,0.348099969053,0.0,0.0,0.0,0.0,0.0,0.0,1.39239987621,0.0,0.0,0.0,0.0,0.0,0.0,99999.0,0.0,0.0,0.0,0.0,0.0,0.0,99999.0,0.0,0.0,0.0,0.0,0.0,0.0,99999.0,10.97,-10.85,2.23,0.0,0.0,0.0,-1.0,0.0,0.0,0.0,0.0,0.0,0.0,0.0,0.0,0.0,0.0,0.0,0.0,0.0,0.0,0.0,0.0,0.0,0.0,0.0,0.0,0.0,0.0,0.0,0.0,0.0,0.0,0.0,0.0,0.0,0.0,0.0,0.0,0.0,0.0,0.0
1531943820422327170,1037,1531943820420710519,map,base_link,-119.712481155,140.437737756,51.198,0.051835994526,-0.0299329499903,-0.911901219173,-0.406021199751,0.348099969053,0.0,0.0,0.0,0.0,0.0,0.0,0.348099969053,0.0,0.0,0.0,0.0,0.0,0.0,1.39239987621,0.0,0.0,0.0,0.0,0.0,0.0,99999.0,0.0,0.0,0.0,0.0,0.0,0.0,99999.0,0.0,0.0,0.0,0.0,0.0,0.0,99999.0,11.06,-10.78,1.79,0.0,0.0,0.0,-1.0,0.0,0.0,0.0,0.0,0.0,0.0,0.0,0.0,0.0,0.0,0.0,0.0,0.0,0.0,0.0,0.0,0.0,0.0,0.0,0.0,0.0,0.0,0.0,0.0,0.0,0.0,0.0,0.0,0.0,0.0,0.0,0.0,0.0,0.0,0.0
1531943820727510968,1038,1531943820721700288,map,base_link,-122.878566425,143.713825694,50.859,0.0122765907784,-0.052398385312,-0.913086877537,-0.404198031421,0.348099969053,0.0,0.0,0.0,0.0,0.0,0.0,0.348099969053,0.0,0.0,0.0,0.0,0.0,0.0,1.39239987621,0.0,0.0,0.0,0.0,0.0,0.0,99999.0,0.0,0.0,0.0,0.0,0.0,0.0,99999.0,0.0,0.0,0.0,0.0,0.0,0.0,99999.0,11.14,-10.59,1.23,0.0,0.0,0.0,-1.0,0.0,0.0,0.0,0.0,0.0,0.0,0.0,0.0,0.0,0.0,0.0,0.0,0.0,0.0,0.0,0.0,0.0,0.0,0.0,0.0,0.0,0.0,0.0,0.0,0.0,0.0,0.0,0.0,0.0,0.0,0.0,0.0,0.0,0.0,0.0
1531943820981109266,1039,1531943820980117055,map,base_link,-125.325085041,146.334697667,50.688,-0.0100312075736,-0.0644028404225,-0.909754500285,-0.409998046619,0.348099969053,0.0,0.0,0.0,0.0,0.0,0.0,0.348099969053,0.0,0.0,0.0,0.0,0.0,0.0,1.39239987621,0.0,0.0,0.0,0.0,0.0,0.0,99999.0,0.0,0.0,0.0,0.0,0.0,0.0,99999.0,0.0,0.0,0.0,0.0,0.0,0.0,99999.0,11.21,-10.33,0.93,0.0,0.0,0.0,-1.0,0.0,0.0,0.0,0.0,0.0,0.0,0.0,0.0,0.0,0.0,0.0,0.0,0.0,0.0,0.0,0.0,0.0,0.0,0.0,0.0,0.0,0.0,0.0,0.0,0.0,0.0,0.0,0.0,0.0,0.0,0.0,0.0,0.0,0.0,0.0
1531943821168344496,1040,1531943821167245725,map,base_link,-127.526102846,148.755672613,50.546,-0.0100312075736,-0.0644028404225,-0.909754500285,-0.409998046619,0.348099969053,0.0,0.0,0.0,0.0,0.0,0.0,0.348099969053,0.0,0.0,0.0,0.0,0.0,0.0,1.39239987621,0.0,0.0,0.0,0.0,0.0,0.0,99999.0,0.0,0.0,0.0,0.0,0.0,0.0,99999.0,0.0,0.0,0.0,0.0,0.0,0.0,99999.0,11.31,-10.0,0.87,0.0,0.0,0.0,-1.0,0.0,0.0,0.0,0.0,0.0,0.0,0.0,0.0,0.0,0.0,0.0,0.0,0.0,0.0,0.0,0.0,0.0,0.0,0.0,0.0,0.0,0.0,0.0,0.0,0.0,0.0,0.0,0.0,0.0,0.0,0.0,0.0,0.0,0.0,0.0
1531943821450299183,1041,1531943821449380570,map,base_link,-129.989545322,151.631967239,50.406,-0.0359607367602,-0.0930630747422,-0.894863034326,-0.435047398943,0.348099969053,0.0,0.0,0.0,0.0,0.0,0.0,0.348099969053,0.0,0.0,0.0,0.0,0.0,0.0,1.39239987621,0.0,0.0,0.0,0.0,0.0,0.0,99999.0,0.0,0.0,0.0,0.0,0.0,0.0,99999.0,0.0,0.0,0.0,0.0,0.0,0.0,99999.0,11.57,-9.47,0.52,0.0,0.0,0.0,-1.0,0.0,0.0,0.0,0.0,0.0,0.0,0.0,0.0,0.0,0.0,0.0,0.0,0.0,0.0,0.0,0.0,0.0,0.0,0.0,0.0,0.0,0.0,0.0,0.0,0.0,0.0,0.0,0.0,0.0,0.0,0.0,0.0,0.0,0.0,0.0
1531943821656204803,1042,1531943821655378126,map,base_link,-131.78421459,153.908570073,50.347,-0.0359607367602,-0.0930630747422,-0.894863034326,-0.435047398943,0.348099969053,0.0,0.0,0.0,0.0,0.0,0.0,0.348099969053,0.0,0.0,0.0,0.0,0.0,0.0,1.39239987621,0.0,0.0,0.0,0.0,0.0,0.0,99999.0,0.0,0.0,0.0,0.0,0.0,0.0,99999.0,0.0,0.0,0.0,0.0,0.0,0.0,99999.0,11.79,-8.97,0.41,0.0,0.0,0.0,-1.0,0.0,0.0,0.0,0.0,0.0,0.0,0.0,0.0,0.0,0.0,0.0,0.0,0.0,0.0,0.0,0.0,0.0,0.0,0.0,0.0,0.0,0.0,0.0,0.0,0.0,0.0,0.0,0.0,0.0,0.0,0.0,0.0,0.0,0.0,0.0
1531943821954683988,1043,1531943821952701261,map,base_link,-134.289971839,157.373445012,50.245,-0.0693332454536,-0.131677714354,-0.87977736302,-0.451492715484,0.348099969053,0.0,0.0,0.0,0.0,0.0,0.0,0.348099969053,0.0,0.0,0.0,0.0,0.0,0.0,1.39239987621,0.0,0.0,0.0,0.0,0.0,0.0,99999.0,0.0,0.0,0.0,0.0,0.0,0.0,99999.0,0.0,0.0,0.0,0.0,0.0,0.0,99999.0,12.03,-8.29,0.59,0.0,0.0,0.0,-1.0,0.0,0.0,0.0,0.0,0.0,0.0,0.0,0.0,0.0,0.0,0.0,0.0,0.0,0.0,0.0,0.0,0.0,0.0,0.0,0.0,0.0,0.0,0.0,0.0,0.0,0.0,0.0,0.0,0.0,0.0,0.0,0.0,0.0,0.0,0.0
1531943822133386528,1044,1531943822132452716,map,base_link,-135.686756942,159.461251078,50.127,-0.0788608710061,-0.155485473236,-0.861064977945,-0.4776738787,0.348099969053,0.0,0.0,0.0,0.0,0.0,0.0,0.348099969053,0.0,0.0,0.0,0.0,0.0,0.0,1.39239987621,0.0,0.0,0.0,0.0,0.0,0.0,99999.0,0.0,0.0,0.0,0.0,0.0,0.0,99999.0,0.0,0.0,0.0,0.0,0.0,0.0,99999.0,12.19,-7.89,0.88,0.0,0.0,0.0,-1.0,0.0,0.0,0.0,0.0,0.0,0.0,0.0,0.0,0.0,0.0,0.0,0.0,0.0,0.0,0.0,0.0,0.0,0.0,0.0,0.0,0.0,0.0,0.0,0.0,0.0,0.0,0.0,0.0,0.0,0.0,0.0,0.0,0.0,0.0,0.0
1531943822371602408,1045,1531943822370562837,map,base_link,-137.396752901,162.248689433,49.872,-0.0788608710061,-0.155485473236,-0.861064977945,-0.4776738787,0.348099969053,0.0,0.0,0.0,0.0,0.0,0.0,0.348099969053,0.0,0.0,0.0,0.0,0.0,0.0,1.39239987621,0.0,0.0,0.0,0.0,0.0,0.0,99999.0,0.0,0.0,0.0,0.0,0.0,0.0,99999.0,0.0,0.0,0.0,0.0,0.0,0.0,99999.0,12.54,-7.17,1.27,0.0,0.0,0.0,-1.0,0.0,0.0,0.0,0.0,0.0,0.0,0.0,0.0,0.0,0.0,0.0,0.0,0.0,0.0,0.0,0.0,0.0,0.0,0.0,0.0,0.0,0.0,0.0,0.0,0.0,0.0,0.0,0.0,0.0,0.0,0.0,0.0,0.0,0.0,0.0
1531943822609830255,1046,1531943822608058437,map,base_link,-138.920498337,165.236016076,49.523,-0.109862275803,-0.218550198799,-0.821868478427,-0.514488381917,0.348099969053,0.0,0.0,0.0,0.0,0.0,0.0,0.348099969053,0.0,0.0,0.0,0.0,0.0,0.0,1.39239987621,0.0,0.0,0.0,0.0,0.0,0.0,99999.0,0.0,0.0,0.0,0.0,0.0,0.0,99999.0,0.0,0.0,0.0,0.0,0.0,0.0,99999.0,13.11,-6.04,1.54,0.0,0.0,0.0,-1.0,0.0,0.0,0.0,0.0,0.0,0.0,0.0,0.0,0.0,0.0,0.0,0.0,0.0,0.0,0.0,0.0,0.0,0.0,0.0,0.0,0.0,0.0,0.0,0.0,0.0,0.0,0.0,0.0,0.0,0.0,0.0,0.0,0.0,0.0,0.0
1531943822889983276,1047,1531943822889009368,map,base_link,-140.266449689,168.889650056,49.05,-0.175076457204,-0.280464773769,-0.766780525503,-0.550213931591,0.348099969053,0.0,0.0,0.0,0.0,0.0,0.0,0.348099969053,0.0,0.0,0.0,0.0,0.0,0.0,1.39239987621,0.0,0.0,0.0,0.0,0.0,0.0,99999.0,0.0,0.0,0.0,0.0,0.0,0.0,99999.0,0.0,0.0,0.0,0.0,0.0,0.0,99999.0,13.91,-4.36,1.67,0.0,0.0,0.0,-1.0,0.0,0.0,0.0,0.0,0.0,0.0,0.0,0.0,0.0,0.0,0.0,0.0,0.0,0.0,0.0,0.0,0.0,0.0,0.0,0.0,0.0,0.0,0.0,0.0,0.0,0.0,0.0,0.0,0.0,0.0,0.0,0.0,0.0,0.0,0.0
1531943823167088531,1048,1531943823166139455,map,base_link,-141.087528462,172.743167138,48.559,-0.175076457204,-0.280464773769,-0.766780525503,-0.550213931591,0.348099969053,0.0,0.0,0.0,0.0,0.0,0.0,0.348099969053,0.0,0.0,0.0,0.0,0.0,0.0,1.39239987621,0.0,0.0,0.0,0.0,0.0,0.0,99999.0,0.0,0.0,0.0,0.0,0.0,0.0,99999.0,0.0,0.0,0.0,0.0,0.0,0.0,99999.0,14.62,-2.56,1.75,0.0,0.0,0.0,-1.0,0.0,0.0,0.0,0.0,0.0,0.0,0.0,0.0,0.0,0.0,0.0,0.0,0.0,0.0,0.0,0.0,0.0,0.0,0.0,0.0,0.0,0.0,0.0,0.0,0.0,0.0,0.0,0.0,0.0,0.0,0.0,0.0,0.0,0.0,0.0
1531943823370648464,1049,1531943823369897977,map,base_link,-141.366822783,175.952572343,48.131,-0.202447951103,-0.284013785223,-0.70997486401,-0.611789742781,0.348099969053,0.0,0.0,0.0,0.0,0.0,0.0,0.348099969053,0.0,0.0,0.0,0.0,0.0,0.0,1.39239987621,0.0,0.0,0.0,0.0,0.0,0.0,99999.0,0.0,0.0,0.0,0.0,0.0,0.0,99999.0,0.0,0.0,0.0,0.0,0.0,0.0,99999.0,15.05,-1.0,1.93,0.0,0.0,0.0,-1.0,0.0,0.0,0.0,0.0,0.0,0.0,0.0,0.0,0.0,0.0,0.0,0.0,0.0,0.0,0.0,0.0,0.0,0.0,0.0,0.0,0.0,0.0,0.0,0.0,0.0,0.0,0.0,0.0,0.0,0.0,0.0,0.0,0.0,0.0,0.0
1531943823602787337,1050,1531943823602003987,map,base_link,-141.290559797,179.228600085,47.651,-0.222732750323,-0.278384418963,-0.639194795186,-0.681411953974,0.372100017452,0.0,0.0,0.0,0.0,0.0,0.0,0.372100017452,0.0,0.0,0.0,0.0,0.0,0.0,1.48840006981,0.0,0.0,0.0,0.0,0.0,0.0,99999.0,0.0,0.0,0.0,0.0,0.0,0.0,99999.0,0.0,0.0,0.0,0.0,0.0,0.0,99999.0,15.3,0.68,2.13,0.0,0.0,0.0,-1.0,0.0,0.0,0.0,0.0,0.0,0.0,0.0,0.0,0.0,0.0,0.0,0.0,0.0,0.0,0.0,0.0,0.0,0.0,0.0,0.0,0.0,0.0,0.0,0.0,0.0,0.0,0.0,0.0,0.0,0.0,0.0,0.0,0.0,0.0,0.0
1531943823873063560,1051,1531943823871784312,map,base_link,-140.621685758,183.404134712,47.001,-0.222732750323,-0.278384418963,-0.639194795186,-0.681411953974,0.348099969053,0.0,0.0,0.0,0.0,0.0,0.0,0.348099969053,0.0,0.0,0.0,0.0,0.0,0.0,1.39239987621,0.0,0.0,0.0,0.0,0.0,0.0,99999.0,0.0,0.0,0.0,0.0,0.0,0.0,99999.0,0.0,0.0,0.0,0.0,0.0,0.0,99999.0,15.26,3.19,2.17,0.0,0.0,0.0,-1.0,0.0,0.0,0.0,0.0,0.0,0.0,0.0,0.0,0.0,0.0,0.0,0.0,0.0,0.0,0.0,0.0,0.0,0.0,0.0,0.0,0.0,0.0,0.0,0.0,0.0,0.0,0.0,0.0,0.0,0.0,0.0,0.0,0.0,0.0,0.0
1531943824117707785,1052,1531943824117042161,map,base_link,-139.444893248,186.924454212,46.472,-0.287166219124,-0.250010375907,-0.552910122932,-0.741161770798,0.348099969053,0.0,0.0,0.0,0.0,0.0,0.0,0.348099969053,0.0,0.0,0.0,0.0,0.0,0.0,1.39239987621,0.0,0.0,0.0,0.0,0.0,0.0,99999.0,0.0,0.0,0.0,0.0,0.0,0.0,99999.0,0.0,0.0,0.0,0.0,0.0,0.0,99999.0,14.85,5.6,1.98,0.0,0.0,0.0,-1.0,0.0,0.0,0.0,0.0,0.0,0.0,0.0,0.0,0.0,0.0,0.0,0.0,0.0,0.0,0.0,0.0,0.0,0.0,0.0,0.0,0.0,0.0,0.0,0.0,0.0,0.0,0.0,0.0,0.0,0.0,0.0,0.0,0.0,0.0,0.0
1531943824396233031,1053,1531943824395246580,map,base_link,-137.31995246,190.811229161,45.976,-0.287166219124,-0.250010375907,-0.552910122932,-0.741161770798,0.348099969053,0.0,0.0,0.0,0.0,0.0,0.0,0.348099969053,0.0,0.0,0.0,0.0,0.0,0.0,1.39239987621,0.0,0.0,0.0,0.0,0.0,0.0,99999.0,0.0,0.0,0.0,0.0,0.0,0.0,99999.0,0.0,0.0,0.0,0.0,0.0,0.0,99999.0,13.89,8.4,1.53,0.0,0.0,0.0,-1.0,0.0,0.0,0.0,0.0,0.0,0.0,0.0,0.0,0.0,0.0,0.0,0.0,0.0,0.0,0.0,0.0,0.0,0.0,0.0,0.0,0.0,0.0,0.0,0.0,0.0,0.0,0.0,0.0,0.0,0.0,0.0,0.0,0.0,0.0,0.0
1531943824609171988,1054,1531943824608107425,map,base_link,-135.37281967,193.376492246,45.696,-0.334036320489,-0.200836844244,-0.468174497615,-0.793030225383,0.348099969053,0.0,0.0,0.0,0.0,0.0,0.0,0.348099969053,0.0,0.0,0.0,0.0,0.0,0.0,1.39239987621,0.0,0.0,0.0,0.0,0.0,0.0,99999.0,0.0,0.0,0.0,0.0,0.0,0.0,99999.0,0.0,0.0,0.0,0.0,0.0,0.0,99999.0,12.92,10.21,1.38,0.0,0.0,0.0,-1.0,0.0,0.0,0.0,0.0,0.0,0.0,0.0,0.0,0.0,0.0,0.0,0.0,0.0,0.0,0.0,0.0,0.0,0.0,0.0,0.0,0.0,0.0,0.0,0.0,0.0,0.0,0.0,0.0,0.0,0.0,0.0,0.0,0.0,0.0,0.0
1531943824884750424,1055,1531943824883812931,map,base_link,-132.316691932,196.352627951,45.378,-0.334036320489,-0.200836844244,-0.468174497615,-0.793030225383,0.348099969053,0.0,0.0,0.0,0.0,0.0,0.0,0.348099969053,0.0,0.0,0.0,0.0,0.0,0.0,1.39239987621,0.0,0.0,0.0,0.0,0.0,0.0,99999.0,0.0,0.0,0.0,0.0,0.0,0.0,99999.0,0.0,0.0,0.0,0.0,0.0,0.0,99999.0,11.22,12.62,1.19,0.0,0.0,0.0,-1.0,0.0,0.0,0.0,0.0,0.0,0.0,0.0,0.0,0.0,0.0,0.0,0.0,0.0,0.0,0.0,0.0,0.0,0.0,0.0,0.0,0.0,0.0,0.0,0.0,0.0,0.0,0.0,0.0,0.0,0.0,0.0,0.0,0.0,0.0,0.0
1531943825114243994,1056,1531943825113539138,map,base_link,-128.693385355,198.817917296,45.142,-0.377779402925,-0.150180297242,-0.364711062948,-0.837683974783,0.348099969053,0.0,0.0,0.0,0.0,0.0,0.0,0.348099969053,0.0,0.0,0.0,0.0,0.0,0.0,1.39239987621,0.0,0.0,0.0,0.0,0.0,0.0,99999.0,0.0,0.0,0.0,0.0,0.0,0.0,99999.0,0.0,0.0,0.0,0.0,0.0,0.0,99999.0,9.08,14.72,0.81,0.0,0.0,0.0,-1.0,0.0,0.0,0.0,0.0,0.0,0.0,0.0,0.0,0.0,0.0,0.0,0.0,0.0,0.0,0.0,0.0,0.0,0.0,0.0,0.0,0.0,0.0,0.0,0.0,0.0,0.0,0.0,0.0,0.0,0.0,0.0,0.0,0.0,0.0,0.0
1531943825330834911,1057,1531943825330160935,map,base_link,-125.594964168,200.317066006,45.026,-0.377779402925,-0.150180297242,-0.364711062948,-0.837683974783,0.348099969053,0.0,0.0,0.0,0.0,0.0,0.0,0.348099969053,0.0,0.0,0.0,0.0,0.0,0.0,1.39239987621,0.0,0.0,0.0,0.0,0.0,0.0,99999.0,0.0,0.0,0.0,0.0,0.0,0.0,99999.0,0.0,0.0,0.0,0.0,0.0,0.0,99999.0,7.33,15.91,0.56,0.0,0.0,0.0,-1.0,0.0,0.0,0.0,0.0,0.0,0.0,0.0,0.0,0.0,0.0,0.0,0.0,0.0,0.0,0.0,0.0,0.0,0.0,0.0,0.0,0.0,0.0,0.0,0.0,0.0,0.0,0.0,0.0,0.0,0.0,0.0,0.0,0.0,0.0,0.0
1531943825606692966,1058,1531943825601493350,map,base_link,-120.955816255,201.816194917,45.03,-0.369282210772,-0.0819867090152,-0.27319136168,-0.884463288247,0.348099969053,0.0,0.0,0.0,0.0,0.0,0.0,0.348099969053,0.0,0.0,0.0,0.0,0.0,0.0,1.39239987621,0.0,0.0,0.0,0.0,0.0,0.0,99999.0,0.0,0.0,0.0,0.0,0.0,0.0,99999.0,0.0,0.0,0.0,0.0,0.0,0.0,99999.0,4.61,17.16,-0.18,0.0,0.0,0.0,-1.0,0.0,0.0,0.0,0.0,0.0,0.0,0.0,0.0,0.0,0.0,0.0,0.0,0.0,0.0,0.0,0.0,0.0,0.0,0.0,0.0,0.0,0.0,0.0,0.0,0.0,0.0,0.0,0.0,0.0,0.0,0.0,0.0,0.0,0.0,0.0
1531943825853239448,1059,1531943825851511181,map,base_link,-116.824618012,202.560184488,45.207,-0.327582733336,-0.0186024538567,-0.197462556324,-0.923770556134,0.348099969053,0.0,0.0,0.0,0.0,0.0,0.0,0.348099969053,0.0,0.0,0.0,0.0,0.0,0.0,1.39239987621,0.0,0.0,0.0,0.0,0.0,0.0,99999.0,0.0,0.0,0.0,0.0,0.0,0.0,99999.0,0.0,0.0,0.0,0.0,0.0,0.0,99999.0,2.5,17.62,-0.8,0.0,0.0,0.0,-1.0,0.0,0.0,0.0,0.0,0.0,0.0,0.0,0.0,0.0,0.0,0.0,0.0,0.0,0.0,0.0,0.0,0.0,0.0,0.0,0.0,0.0,0.0,0.0,0.0,0.0,0.0,0.0,0.0,0.0,0.0,0.0,0.0,0.0,0.0,0.0
1531943826073600496,1060,1531943826070323609,map,base_link,-113.091310509,202.859977871,45.514,-0.28279444154,0.0270577565659,-0.154935634879,-0.94619772283,0.348099969053,0.0,0.0,0.0,0.0,0.0,0.0,0.348099969053,0.0,0.0,0.0,0.0,0.0,0.0,1.39239987621,0.0,0.0,0.0,0.0,0.0,0.0,99999.0,0.0,0.0,0.0,0.0,0.0,0.0,99999.0,0.0,0.0,0.0,0.0,0.0,0.0,99999.0,0.92,17.62,-1.32,0.0,0.0,0.0,-1.0,0.0,0.0,0.0,0.0,0.0,0.0,0.0,0.0,0.0,0.0,0.0,0.0,0.0,0.0,0.0,0.0,0.0,0.0,0.0,0.0,0.0,0.0,0.0,0.0,0.0,0.0,0.0,0.0,0.0,0.0,0.0,0.0,0.0,0.0,0.0
1531943826328509185,1061,1531943826327550125,map,base_link,-109.01938681,202.904352145,45.951,-0.28279444154,0.0270577565659,-0.154935634879,-0.94619772283,0.348099969053,0.0,0.0,0.0,0.0,0.0,0.0,0.348099969053,0.0,0.0,0.0,0.0,0.0,0.0,1.39239987621,0.0,0.0,0.0,0.0,0.0,0.0,99999.0,0.0,0.0,0.0,0.0,0.0,0.0,99999.0,0.0,0.0,0.0,0.0,0.0,0.0,99999.0,-0.23,17.35,-1.57,0.0,0.0,0.0,-1.0,0.0,0.0,0.0,0.0,0.0,0.0,0.0,0.0,0.0,0.0,0.0,0.0,0.0,0.0,0.0,0.0,0.0,0.0,0.0,0.0,0.0,0.0,0.0,0.0,0.0,0.0,0.0,0.0,0.0,0.0,0.0,0.0,0.0,0.0,0.0
1531943826567290810,1062,1531943826566314022,map,base_link,-104.380274822,202.771040559,46.507,-0.15794653605,0.0581509896241,-0.0963330542547,-0.98101544168,0.348099969053,0.0,0.0,0.0,0.0,0.0,0.0,0.348099969053,0.0,0.0,0.0,0.0,0.0,0.0,1.39239987621,0.0,0.0,0.0,0.0,0.0,0.0,99999.0,0.0,0.0,0.0,0.0,0.0,0.0,99999.0,0.0,0.0,0.0,0.0,0.0,0.0,99999.0,-0.94,16.94,-1.62,0.0,0.0,0.0,-1.0,0.0,0.0,0.0,0.0,0.0,0.0,0.0,0.0,0.0,0.0,0.0,0.0,0.0,0.0,0.0,0.0,0.0,0.0,0.0,0.0,0.0,0.0,0.0,0.0,0.0,0.0,0.0,0.0,0.0,0.0,0.0,0.0,0.0,0.0,0.0
1531943826805915860,1063,1531943826804055403,map,base_link,-100.790889795,202.59332218,46.964,-0.15794653605,0.0581509896241,-0.0963330542547,-0.98101544168,0.348099969053,0.0,0.0,0.0,0.0,0.0,0.0,0.348099969053,0.0,0.0,0.0,0.0,0.0,0.0,1.39239987621,0.0,0.0,0.0,0.0,0.0,0.0,99999.0,0.0,0.0,0.0,0.0,0.0,0.0,99999.0,0.0,0.0,0.0,0.0,0.0,0.0,99999.0,-1.22,16.57,-1.97,0.0,0.0,0.0,-1.0,0.0,0.0,0.0,0.0,0.0,0.0,0.0,0.0,0.0,0.0,0.0,0.0,0.0,0.0,0.0,0.0,0.0,0.0,0.0,0.0,0.0,0.0,0.0,0.0,0.0,0.0,0.0,0.0,0.0,0.0,0.0,0.0,0.0,0.0,0.0
1531943827070969226,1064,1531943827066613280,map,base_link,-96.6427796874,202.382286367,47.547,-0.0449488463651,0.0697503208853,-0.0551096638347,-0.995026340807,0.348099969053,0.0,0.0,0.0,0.0,0.0,0.0,0.348099969053,0.0,0.0,0.0,0.0,0.0,0.0,1.39239987621,0.0,0.0,0.0,0.0,0.0,0.0,99999.0,0.0,0.0,0.0,0.0,0.0,0.0,99999.0,0.0,0.0,0.0,0.0,0.0,0.0,99999.0,-1.22,16.22,-1.97,0.0,0.0,0.0,-1.0,0.0,0.0,0.0,0.0,0.0,0.0,0.0,0.0,0.0,0.0,0.0,0.0,0.0,0.0,0.0,0.0,0.0,0.0,0.0,0.0,0.0,0.0,0.0,0.0,0.0,0.0,0.0,0.0,0.0,0.0,0.0,0.0,0.0,0.0,0.0
1531943827329199641,1065,1531943827327174194,map,base_link,-92.5623916219,202.21567268,48.069,0.0228263635623,0.0679611159993,-0.0406595458038,-0.996597734883,0.348099969053,0.0,0.0,0.0,0.0,0.0,0.0,0.348099969053,0.0,0.0,0.0,0.0,0.0,0.0,1.39239987621,0.0,0.0,0.0,0.0,0.0,0.0,99999.0,0.0,0.0,0.0,0.0,0.0,0.0,99999.0,0.0,0.0,0.0,0.0,0.0,0.0,99999.0,-1.03,15.94,-1.76,0.0,0.0,0.0,-1.0,0.0,0.0,0.0,0.0,0.0,0.0,0.0,0.0,0.0,0.0,0.0,0.0,0.0,0.0,0.0,0.0,0.0,0.0,0.0,0.0,0.0,0.0,0.0,0.0,0.0,0.0,0.0,0.0,0.0,0.0,0.0,0.0,0.0,0.0,0.0
1531943827571890599,1066,1531943827570534040,map,base_link,-88.8121578011,202.104589053,48.512,0.0228263635623,0.0679611159993,-0.0406595458038,-0.996597734883,0.348099969053,0.0,0.0,0.0,0.0,0.0,0.0,0.348099969053,0.0,0.0,0.0,0.0,0.0,0.0,1.39239987621,0.0,0.0,0.0,0.0,0.0,0.0,99999.0,0.0,0.0,0.0,0.0,0.0,0.0,99999.0,0.0,0.0,0.0,0.0,0.0,0.0,99999.0,-0.76,15.71,-1.76,0.0,0.0,0.0,-1.0,0.0,0.0,0.0,0.0,0.0,0.0,0.0,0.0,0.0,0.0,0.0,0.0,0.0,0.0,0.0,0.0,0.0,0.0,0.0,0.0,0.0,0.0,0.0,0.0,0.0,0.0,0.0,0.0,0.0,0.0,0.0,0.0,0.0,0.0,0.0
1531943827819847829,1067,1531943827810326378,map,base_link,-85.0957838843,202.0712424,48.903,0.0660374103262,0.0583754813027,-0.050313769036,-0.994836613854,0.348099969053,0.0,0.0,0.0,0.0,0.0,0.0,0.348099969053,0.0,0.0,0.0,0.0,0.0,0.0,1.39239987621,0.0,0.0,0.0,0.0,0.0,0.0,99999.0,0.0,0.0,0.0,0.0,0.0,0.0,99999.0,0.0,0.0,0.0,0.0,0.0,0.0,99999.0,-0.42,15.59,-1.46,0.0,0.0,0.0,-1.0,0.0,0.0,0.0,0.0,0.0,0.0,0.0,0.0,0.0,0.0,0.0,0.0,0.0,0.0,0.0,0.0,0.0,0.0,0.0,0.0,0.0,0.0,0.0,0.0,0.0,0.0,0.0,0.0,0.0,0.0,0.0,0.0,0.0,0.0,0.0
1531943828012803049,1068,1531943828011740182,map,base_link,-81.6926328561,202.09342305,49.16,0.0660374103262,0.0583754813027,-0.050313769036,-0.994836613854,0.348099969053,0.0,0.0,0.0,0.0,0.0,0.0,0.348099969053,0.0,0.0,0.0,0.0,0.0,0.0,1.39239987621,0.0,0.0,0.0,0.0,0.0,0.0,99999.0,0.0,0.0,0.0,0.0,0.0,0.0,99999.0,0.0,0.0,0.0,0.0,0.0,0.0,99999.0,-0.07,15.52,-1.02,0.0,0.0,0.0,-1.0,0.0,0.0,0.0,0.0,0.0,0.0,0.0,0.0,0.0,0.0,0.0,0.0,0.0,0.0,0.0,0.0,0.0,0.0,0.0,0.0,0.0,0.0,0.0,0.0,0.0,0.0,0.0,0.0,0.0,0.0,0.0,0.0,0.0,0.0,0.0
1531943828295079702,1069,1531943828290816714,map,base_link,-77.7222871552,202.204438319,49.333,0.0842481858079,0.0452104414144,-0.0707723061237,-0.992899561819,0.348099969053,0.0,0.0,0.0,0.0,0.0,0.0,0.348099969053,0.0,0.0,0.0,0.0,0.0,0.0,1.39239987621,0.0,0.0,0.0,0.0,0.0,0.0,99999.0,0.0,0.0,0.0,0.0,0.0,0.0,99999.0,0.0,0.0,0.0,0.0,0.0,0.0,99999.0,0.4,15.49,-0.75,0.0,0.0,0.0,-1.0,0.0,0.0,0.0,0.0,0.0,0.0,0.0,0.0,0.0,0.0,0.0,0.0,0.0,0.0,0.0,0.0,0.0,0.0,0.0,0.0,0.0,0.0,0.0,0.0,0.0,0.0,0.0,0.0,0.0,0.0,0.0,0.0,0.0,0.0,0.0
1531943828520001796,1070,1531943828518151355,map,base_link,-74.0143717514,202.437613957,49.442,0.0842481858079,0.0452104414144,-0.0707723061237,-0.992899561819,0.348099969053,0.0,0.0,0.0,0.0,0.0,0.0,0.348099969053,0.0,0.0,0.0,0.0,0.0,0.0,1.39239987621,0.0,0.0,0.0,0.0,0.0,0.0,99999.0,0.0,0.0,0.0,0.0,0.0,0.0,99999.0,0.0,0.0,0.0,0.0,0.0,0.0,99999.0,1.0,15.49,-0.5,0.0,0.0,0.0,-1.0,0.0,0.0,0.0,0.0,0.0,0.0,0.0,0.0,0.0,0.0,0.0,0.0,0.0,0.0,0.0,0.0,0.0,0.0,0.0,0.0,0.0,0.0,0.0,0.0,0.0,0.0,0.0,0.0,0.0,0.0,0.0,0.0,0.0,0.0,0.0
1531943828791923952,1071,1531943828790713055,map,base_link,-69.9678317047,202.837364198,49.471,0.110580212483,0.0254510013005,-0.0868808235329,-0.9897353109,0.348099969053,0.0,0.0,0.0,0.0,0.0,0.0,0.348099969053,0.0,0.0,0.0,0.0,0.0,0.0,1.39239987621,0.0,0.0,0.0,0.0,0.0,0.0,99999.0,0.0,0.0,0.0,0.0,0.0,0.0,99999.0,0.0,0.0,0.0,0.0,0.0,0.0,99999.0,1.45,15.57,-0.02,0.0,0.0,0.0,-1.0,0.0,0.0,0.0,0.0,0.0,0.0,0.0,0.0,0.0,0.0,0.0,0.0,0.0,0.0,0.0,0.0,0.0,0.0,0.0,0.0,0.0,0.0,0.0,0.0,0.0,0.0,0.0,0.0,0.0,0.0,0.0,0.0,0.0,0.0,0.0
1531943828996576345,1072,1531943828994993836,map,base_link,-66.8525029853,203.192701767,49.435,0.0636345595785,0.0149446024873,-0.105159367404,-0.992304796487,0.348099969053,0.0,0.0,0.0,0.0,0.0,0.0,0.348099969053,0.0,0.0,0.0,0.0,0.0,0.0,1.39239987621,0.0,0.0,0.0,0.0,0.0,0.0,99999.0,0.0,0.0,0.0,0.0,0.0,0.0,99999.0,0.0,0.0,0.0,0.0,0.0,0.0,99999.0,1.75,15.65,0.11,0.0,0.0,0.0,-1.0,0.0,0.0,0.0,0.0,0.0,0.0,0.0,0.0,0.0,0.0,0.0,0.0,0.0,0.0,0.0,0.0,0.0,0.0,0.0,0.0,0.0,0.0,0.0,0.0,0.0,0.0,0.0,0.0,0.0,0.0,0.0,0.0,0.0,0.0,0.0
1531943829207977555,1073,1531943829207011903,map,base_link,-63.1191880406,203.659087697,49.391,0.0636345595785,0.0149446024873,-0.105159367404,-0.992304796487,0.348099969053,0.0,0.0,0.0,0.0,0.0,0.0,0.348099969053,0.0,0.0,0.0,0.0,0.0,0.0,1.39239987621,0.0,0.0,0.0,0.0,0.0,0.0,99999.0,0.0,0.0,0.0,0.0,0.0,0.0,99999.0,0.0,0.0,0.0,0.0,0.0,0.0,99999.0,2.01,15.78,0.15,0.0,0.0,0.0,-1.0,0.0,0.0,0.0,0.0,0.0,0.0,0.0,0.0,0.0,0.0,0.0,0.0,0.0,0.0,0.0,0.0,0.0,0.0,0.0,0.0,0.0,0.0,0.0,0.0,0.0,0.0,0.0,0.0,0.0,0.0,0.0,0.0,0.0,0.0,0.0
1531943829457255420,1074,1531943829456506310,map,base_link,-59.5805814799,204.114371813,49.352,4.95975664359e-05,-0.00818831984887,-0.128623831466,-0.991659648739,0.348099969053,0.0,0.0,0.0,0.0,0.0,0.0,0.348099969053,0.0,0.0,0.0,0.0,0.0,0.0,1.39239987621,0.0,0.0,0.0,0.0,0.0,0.0,99999.0,0.0,0.0,0.0,0.0,0.0,0.0,99999.0,0.0,0.0,0.0,0.0,0.0,0.0,99999.0,2.14,15.98,0.1,0.0,0.0,0.0,-1.0,0.0,0.0,0.0,0.0,0.0,0.0,0.0,0.0,0.0,0.0,0.0,0.0,0.0,0.0,0.0,0.0,0.0,0.0,0.0,0.0,0.0,0.0,0.0,0.0,0.0,0.0,0.0,0.0,0.0,0.0,0.0,0.0,0.0,0.0,0.0
1531943829672024622,1075,1531943829671032826,map,base_link,-55.7118184116,204.614076056,49.312,4.95975664359e-05,-0.00818831984887,-0.128623831466,-0.991659648739,0.348099969053,0.0,0.0,0.0,0.0,0.0,0.0,0.348099969053,0.0,0.0,0.0,0.0,0.0,0.0,1.39239987621,0.0,0.0,0.0,0.0,0.0,0.0,99999.0,0.0,0.0,0.0,0.0,0.0,0.0,99999.0,0.0,0.0,0.0,0.0,0.0,0.0,99999.0,2.18,16.17,0.34,0.0,0.0,0.0,-1.0,0.0,0.0,0.0,0.0,0.0,0.0,0.0,0.0,0.0,0.0,0.0,0.0,0.0,0.0,0.0,0.0,0.0,0.0,0.0,0.0,0.0,0.0,0.0,0.0,0.0,0.0,0.0,0.0,0.0,0.0,0.0,0.0,0.0,0.0,0.0
1531943829945728363,1076,1531943829944622425,map,base_link,-51.4621054822,205.135988837,49.239,-0.0411953023505,-0.0196113052937,-0.12295935401,-0.991362366156,0.348099969053,0.0,0.0,0.0,0.0,0.0,0.0,0.348099969053,0.0,0.0,0.0,0.0,0.0,0.0,1.39239987621,0.0,0.0,0.0,0.0,0.0,0.0,99999.0,0.0,0.0,0.0,0.0,0.0,0.0,99999.0,0.0,0.0,0.0,0.0,0.0,0.0,99999.0,2.09,16.41,0.17,0.0,0.0,0.0,-1.0,0.0,0.0,0.0,0.0,0.0,0.0,0.0,0.0,0.0,0.0,0.0,0.0,0.0,0.0,0.0,0.0,0.0,0.0,0.0,0.0,0.0,0.0,0.0,0.0,0.0,0.0,0.0,0.0,0.0,0.0,0.0,0.0,0.0,0.0,0.0
1531943830166012413,1077,1531943830164818763,map,base_link,-47.7541892587,205.557960068,49.143,-0.0411953023505,-0.0196113052937,-0.12295935401,-0.991362366156,0.348099969053,0.0,0.0,0.0,0.0,0.0,0.0,0.348099969053,0.0,0.0,0.0,0.0,0.0,0.0,1.39239987621,0.0,0.0,0.0,0.0,0.0,0.0,99999.0,0.0,0.0,0.0,0.0,0.0,0.0,99999.0,0.0,0.0,0.0,0.0,0.0,0.0,99999.0,2.04,16.52,0.43,0.0,0.0,0.0,-1.0,0.0,0.0,0.0,0.0,0.0,0.0,0.0,0.0,0.0,0.0,0.0,0.0,0.0,0.0,0.0,0.0,0.0,0.0,0.0,0.0,0.0,0.0,0.0,0.0,0.0,0.0,0.0,0.0,0.0,0.0,0.0,0.0,0.0,0.0,0.0
1531943830368645257,1078,1531943830367019484,map,base_link,-44.3341031128,205.913305068,49.107,-0.0705203179902,-0.0128141969661,-0.0836716188944,-0.993912340852,0.348099969053,0.0,0.0,0.0,0.0,0.0,0.0,0.348099969053,0.0,0.0,0.0,0.0,0.0,0.0,1.39239987621,0.0,0.0,0.0,0.0,0.0,0.0,99999.0,0.0,0.0,0.0,0.0,0.0,0.0,99999.0,0.0,0.0,0.0,0.0,0.0,0.0,99999.0,1.82,16.66,0.11,0.0,0.0,0.0,-1.0,0.0,0.0,0.0,0.0,0.0,0.0,0.0,0.0,0.0,0.0,0.0,0.0,0.0,0.0,0.0,0.0,0.0,0.0,0.0,0.0,0.0,0.0,0.0,0.0,0.0,0.0,0.0,0.0,0.0,0.0,0.0,0.0,0.0,0.0,0.0
1531943830624313546,1079,1531943830622593567,map,base_link,-39.9404788766,206.279752556,49.091,-0.0705203179902,-0.0128141969661,-0.0836716188944,-0.993912340852,0.384400005913,0.0,0.0,0.0,0.0,0.0,0.0,0.384400005913,0.0,0.0,0.0,0.0,0.0,0.0,1.53760002365,0.0,0.0,0.0,0.0,0.0,0.0,99999.0,0.0,0.0,0.0,0.0,0.0,0.0,99999.0,0.0,0.0,0.0,0.0,0.0,0.0,99999.0,1.46,16.8,0.28,0.0,0.0,0.0,-1.0,0.0,0.0,0.0,0.0,0.0,0.0,0.0,0.0,0.0,0.0,0.0,0.0,0.0,0.0,0.0,0.0,0.0,0.0,0.0,0.0,0.0,0.0,0.0,0.0,0.0,0.0,0.0,0.0,0.0,0.0,0.0,0.0,0.0,0.0,0.0
1531943830871440308,1080,1531943830869708457,map,base_link,-35.4368029904,206.546252753,49.01,-0.0766937688667,-0.0201003599378,-0.0179994952454,-0.99668955022,0.384400005913,0.0,0.0,0.0,0.0,0.0,0.0,0.384400005913,0.0,0.0,0.0,0.0,0.0,0.0,1.53760002365,0.0,0.0,0.0,0.0,0.0,0.0,99999.0,0.0,0.0,0.0,0.0,0.0,0.0,99999.0,0.0,0.0,0.0,0.0,0.0,0.0,99999.0,0.98,16.89,0.48,0.0,0.0,0.0,-1.0,0.0,0.0,0.0,0.0,0.0,0.0,0.0,0.0,0.0,0.0,0.0,0.0,0.0,0.0,0.0,0.0,0.0,0.0,0.0,0.0,0.0,0.0,0.0,0.0,0.0,0.0,0.0,0.0,0.0,0.0,0.0,0.0,0.0,0.0,0.0
1531943831138816681,1081,1531943831137766582,map,base_link,-30.950059145,206.668387076,48.917,-0.0941950445477,-0.00460902482526,-0.00685058555384,-0.995519522636,0.384400005913,0.0,0.0,0.0,0.0,0.0,0.0,0.384400005913,0.0,0.0,0.0,0.0,0.0,0.0,1.53760002365,0.0,0.0,0.0,0.0,0.0,0.0,99999.0,0.0,0.0,0.0,0.0,0.0,0.0,99999.0,0.0,0.0,0.0,0.0,0.0,0.0,99999.0,0.39,16.97,0.33,0.0,0.0,0.0,-1.0,0.0,0.0,0.0,0.0,0.0,0.0,0.0,0.0,0.0,0.0,0.0,0.0,0.0,0.0,0.0,0.0,0.0,0.0,0.0,0.0,0.0,0.0,0.0,0.0,0.0,0.0,0.0,0.0,0.0,0.0,0.0,0.0,0.0,0.0,0.0
1531943831347561615,1082,1531943831345741605,map,base_link,-27.5723038672,206.646163356,48.919,-0.0941950445477,-0.00460902482526,-0.00685058555384,-0.995519522636,0.384400005913,0.0,0.0,0.0,0.0,0.0,0.0,0.384400005913,0.0,0.0,0.0,0.0,0.0,0.0,1.53760002365,0.0,0.0,0.0,0.0,0.0,0.0,99999.0,0.0,0.0,0.0,0.0,0.0,0.0,99999.0,0.0,0.0,0.0,0.0,0.0,0.0,99999.0,-0.01,17.04,-0.12,0.0,0.0,0.0,-1.0,0.0,0.0,0.0,0.0,0.0,0.0,0.0,0.0,0.0,0.0,0.0,0.0,0.0,0.0,0.0,0.0,0.0,0.0,0.0,0.0,0.0,0.0,0.0,0.0,0.0,0.0,0.0,0.0,0.0,0.0,0.0,0.0,0.0,0.0,0.0
1531943831576689947,1083,1531943831576000131,map,base_link,-23.7120127834,206.57952356,49.066,-0.0544891368912,0.0212331967645,-0.0324654352626,-0.997760532808,0.384400005913,0.0,0.0,0.0,0.0,0.0,0.0,0.384400005913,0.0,0.0,0.0,0.0,0.0,0.0,1.53760002365,0.0,0.0,0.0,0.0,0.0,0.0,99999.0,0.0,0.0,0.0,0.0,0.0,0.0,99999.0,0.0,0.0,0.0,0.0,0.0,0.0,99999.0,-0.17,17.09,-0.72,0.0,0.0,0.0,-1.0,0.0,0.0,0.0,0.0,0.0,0.0,0.0,0.0,0.0,0.0,0.0,0.0,0.0,0.0,0.0,0.0,0.0,0.0,0.0,0.0,0.0,0.0,0.0,0.0,0.0,0.0,0.0,0.0,0.0,0.0,0.0,0.0,0.0,0.0,0.0
1531943831828720238,1084,1531943831825881137,map,base_link,-19.1490810438,206.523994673,49.384,0.0085846498301,0.0184710876475,-0.0368389020588,-0.999113616164,0.384400005913,0.0,0.0,0.0,0.0,0.0,0.0,0.384400005913,0.0,0.0,0.0,0.0,0.0,0.0,1.53760002365,0.0,0.0,0.0,0.0,0.0,0.0,99999.0,0.0,0.0,0.0,0.0,0.0,0.0,99999.0,0.0,0.0,0.0,0.0,0.0,0.0,99999.0,0.0,17.08,-0.91,0.0,0.0,0.0,-1.0,0.0,0.0,0.0,0.0,0.0,0.0,0.0,0.0,0.0,0.0,0.0,0.0,0.0,0.0,0.0,0.0,0.0,0.0,0.0,0.0,0.0,0.0,0.0,0.0,0.0,0.0,0.0,0.0,0.0,0.0,0.0,0.0,0.0,0.0,0.0
1531943832075842112,1085,1531943832074912395,map,base_link,-15.0263572168,206.523992366,49.603,0.0085846498301,0.0184710876475,-0.0368389020588,-0.999113616164,0.384400005913,0.0,0.0,0.0,0.0,0.0,0.0,0.384400005913,0.0,0.0,0.0,0.0,0.0,0.0,1.53760002365,0.0,0.0,0.0,0.0,0.0,0.0,99999.0,0.0,0.0,0.0,0.0,0.0,0.0,99999.0,0.0,0.0,0.0,0.0,0.0,0.0,99999.0,0.03,17.11,-0.53,0.0,0.0,0.0,-1.0,0.0,0.0,0.0,0.0,0.0,0.0,0.0,0.0,0.0,0.0,0.0,0.0,0.0,0.0,0.0,0.0,0.0,0.0,0.0,0.0,0.0,0.0,0.0,0.0,0.0,0.0,0.0,0.0,0.0,0.0,0.0,0.0,0.0,0.0,0.0
1531943832335253760,1086,1531943832333398551,map,base_link,-10.1332675633,206.512882448,49.712,0.000571770916874,0.00336108071606,-0.00943639218232,-0.999949664092,0.384400005913,0.0,0.0,0.0,0.0,0.0,0.0,0.384400005913,0.0,0.0,0.0,0.0,0.0,0.0,1.53760002365,0.0,0.0,0.0,0.0,0.0,0.0,99999.0,0.0,0.0,0.0,0.0,0.0,0.0,99999.0,0.0,0.0,0.0,0.0,0.0,0.0,99999.0,-0.05,17.16,-0.05,0.0,0.0,0.0,-1.0,0.0,0.0,0.0,0.0,0.0,0.0,0.0,0.0,0.0,0.0,0.0,0.0,0.0,0.0,0.0,0.0,0.0,0.0,0.0,0.0,0.0,0.0,0.0,0.0,0.0,0.0,0.0,0.0,0.0,0.0,0.0,0.0,0.0,0.0,0.0
1531943832525778218,1087,1531943832524864981,map,base_link,-6.95868500461,206.501773577,49.719,-0.00961954650897,-0.00428181037559,-0.0148627383833,-0.999834100955,0.384400005913,0.0,0.0,0.0,0.0,0.0,0.0,0.384400005913,0.0,0.0,0.0,0.0,0.0,0.0,1.53760002365,0.0,0.0,0.0,0.0,0.0,0.0,99999.0,0.0,0.0,0.0,0.0,0.0,0.0,99999.0,0.0,0.0,0.0,0.0,0.0,0.0,99999.0,-0.08,17.18,-0.06,0.0,0.0,0.0,-1.0,0.0,0.0,0.0,0.0,0.0,0.0,0.0,0.0,0.0,0.0,0.0,0.0,0.0,0.0,0.0,0.0,0.0,0.0,0.0,0.0,0.0,0.0,0.0,0.0,0.0,0.0,0.0,0.0,0.0,0.0,0.0,0.0,0.0,0.0,0.0
1531943832795815560,1088,1531943832788958524,map,base_link,-2.09945731217,206.468457525,49.792,-0.0199080765306,0.00452644778712,-0.0258803766909,-0.999456545259,0.384400005913,0.0,0.0,0.0,0.0,0.0,0.0,0.384400005913,0.0,0.0,0.0,0.0,0.0,0.0,1.53760002365,0.0,0.0,0.0,0.0,0.0,0.0,99999.0,0.0,0.0,0.0,0.0,0.0,0.0,99999.0,0.0,0.0,0.0,0.0,0.0,0.0,99999.0,-0.11,17.25,-0.41,0.0,0.0,0.0,-1.0,0.0,0.0,0.0,0.0,0.0,0.0,0.0,0.0,0.0,0.0,0.0,0.0,0.0,0.0,0.0,0.0,0.0,0.0,0.0,0.0,0.0,0.0,0.0,0.0,0.0,0.0,0.0,0.0,0.0,0.0,0.0,0.0,0.0,0.0,0.0
1531943833027324989,1089,1531943833024618302,map,base_link,1.76930075914,206.435145635,49.914,-0.0199080765306,0.00452644778712,-0.0258803766909,-0.999456545259,0.384400005913,0.0,0.0,0.0,0.0,0.0,0.0,0.384400005913,0.0,0.0,0.0,0.0,0.0,0.0,1.53760002365,0.0,0.0,0.0,0.0,0.0,0.0,99999.0,0.0,0.0,0.0,0.0,0.0,0.0,99999.0,0.0,0.0,0.0,0.0,0.0,0.0,99999.0,-0.13,17.26,-0.51,0.0,0.0,0.0,-1.0,0.0,0.0,0.0,0.0,0.0,0.0,0.0,0.0,0.0,0.0,0.0,0.0,0.0,0.0,0.0,0.0,0.0,0.0,0.0,0.0,0.0,0.0,0.0,0.0,0.0,0.0,0.0,0.0,0.0,0.0,0.0,0.0,0.0,0.0,0.0
1531943833257606310,1090,1531943833254346062,map,base_link,5.67192124547,206.412941983,50.067,-0.00803591337437,0.00922100910135,-0.0208721848059,-0.999707331667,0.384400005913,0.0,0.0,0.0,0.0,0.0,0.0,0.384400005913,0.0,0.0,0.0,0.0,0.0,0.0,1.53760002365,0.0,0.0,0.0,0.0,0.0,0.0,99999.0,0.0,0.0,0.0,0.0,0.0,0.0,99999.0,0.0,0.0,0.0,0.0,0.0,0.0,99999.0,-0.16,17.24,-0.63,0.0,0.0,0.0,-1.0,0.0,0.0,0.0,0.0,0.0,0.0,0.0,0.0,0.0,0.0,0.0,0.0,0.0,0.0,0.0,0.0,0.0,0.0,0.0,0.0,0.0,0.0,0.0,0.0,0.0,0.0,0.0,0.0,0.0,0.0,0.0,0.0,0.0,0.0,0.0
1531943833476607801,1091,1531943833475971393,map,base_link,9.88776750799,206.368530966,50.232,-0.00803591337437,0.00922100910135,-0.0208721848059,-0.999707331667,0.384400005913,0.0,0.0,0.0,0.0,0.0,0.0,0.384400005913,0.0,0.0,0.0,0.0,0.0,0.0,1.53760002365,0.0,0.0,0.0,0.0,0.0,0.0,99999.0,0.0,0.0,0.0,0.0,0.0,0.0,99999.0,0.0,0.0,0.0,0.0,0.0,0.0,99999.0,-0.21,17.23,-0.41,0.0,0.0,0.0,-1.0,0.0,0.0,0.0,0.0,0.0,0.0,0.0,0.0,0.0,0.0,0.0,0.0,0.0,0.0,0.0,0.0,0.0,0.0,0.0,0.0,0.0,0.0,0.0,0.0,0.0,0.0,0.0,0.0,0.0,0.0,0.0,0.0,0.0,0.0,0.0
1531943833730289893,1092,1531943833729329585,map,base_link,14.0528205387,206.301908522,50.304,-0.0184991119388,-0.00415731623699,-0.0278165808122,-0.999433208079,0.384400005913,0.0,0.0,0.0,0.0,0.0,0.0,0.384400005913,0.0,0.0,0.0,0.0,0.0,0.0,1.53760002365,0.0,0.0,0.0,0.0,0.0,0.0,99999.0,0.0,0.0,0.0,0.0,0.0,0.0,99999.0,0.0,0.0,0.0,0.0,0.0,0.0,99999.0,-0.18,17.18,-0.1,0.0,0.0,0.0,-1.0,0.0,0.0,0.0,0.0,0.0,0.0,0.0,0.0,0.0,0.0,0.0,0.0,0.0,0.0,0.0,0.0,0.0,0.0,0.0,0.0,0.0,0.0,0.0,0.0,0.0,0.0,0.0,0.0,0.0,0.0,0.0,0.0,0.0,0.0,0.0
1531943833962530326,1093,1531943833961601537,map,base_link,18.2940635615,206.268603321,50.342,0.0205092757256,-0.00715729215932,-0.0306804079299,-0.999293177875,0.384400005913,0.0,0.0,0.0,0.0,0.0,0.0,0.384400005913,0.0,0.0,0.0,0.0,0.0,0.0,1.53760002365,0.0,0.0,0.0,0.0,0.0,0.0,99999.0,0.0,0.0,0.0,0.0,0.0,0.0,99999.0,0.0,0.0,0.0,0.0,0.0,0.0,99999.0,-0.02,17.17,-0.03,0.0,0.0,0.0,-1.0,0.0,0.0,0.0,0.0,0.0,0.0,0.0,0.0,0.0,0.0,0.0,0.0,0.0,0.0,0.0,0.0,0.0,0.0,0.0,0.0,0.0,0.0,0.0,0.0,0.0,0.0,0.0,0.0,0.0,0.0,0.0,0.0,0.0,0.0,0.0
1531943834230267484,1094,1531943834229259496,map,base_link,22.840066508,206.279722394,50.381,0.0205092757256,-0.00715729215932,-0.0306804079299,-0.999293177875,0.384400005913,0.0,0.0,0.0,0.0,0.0,0.0,0.384400005913,0.0,0.0,0.0,0.0,0.0,0.0,1.53760002365,0.0,0.0,0.0,0.0,0.0,0.0,99999.0,0.0,0.0,0.0,0.0,0.0,0.0,99999.0,0.0,0.0,0.0,0.0,0.0,0.0,99999.0,0.16,17.17,-0.03,0.0,0.0,0.0,-1.0,0.0,0.0,0.0,0.0,0.0,0.0,0.0,0.0,0.0,0.0,0.0,0.0,0.0,0.0,0.0,0.0,0.0,0.0,0.0,0.0,0.0,0.0,0.0,0.0,0.0,0.0,0.0,0.0,0.0,0.0,0.0,0.0,0.0,0.0,0.0
1531943834476559431,1095,1531943834475835504,map,base_link,27.0559126186,206.335263325,50.403,0.027407632172,-0.0166241088737,-0.0145158148658,-0.999380684135,0.384400005913,0.0,0.0,0.0,0.0,0.0,0.0,0.384400005913,0.0,0.0,0.0,0.0,0.0,0.0,1.53760002365,0.0,0.0,0.0,0.0,0.0,0.0,99999.0,0.0,0.0,0.0,0.0,0.0,0.0,99999.0,0.0,0.0,0.0,0.0,0.0,0.0,99999.0,0.24,17.19,0.01,0.0,0.0,0.0,-1.0,0.0,0.0,0.0,0.0,0.0,0.0,0.0,0.0,0.0,0.0,0.0,0.0,0.0,0.0,0.0,0.0,0.0,0.0,0.0,0.0,0.0,0.0,0.0,0.0,0.0,0.0,0.0,0.0,0.0,0.0,0.0,0.0,0.0,0.0,0.0
1531943834776056235,1096,1531943834774755579,map,base_link,32.3214878633,206.368602593,50.484,-0.0343195080879,-0.013054813579,-0.0172573414577,-0.999176624713,0.384400005913,0.0,0.0,0.0,0.0,0.0,0.0,0.384400005913,0.0,0.0,0.0,0.0,0.0,0.0,1.53760002365,0.0,0.0,0.0,0.0,0.0,0.0,99999.0,0.0,0.0,0.0,0.0,0.0,0.0,99999.0,0.0,0.0,0.0,0.0,0.0,0.0,99999.0,0.04,17.2,-0.18,0.0,0.0,0.0,-1.0,0.0,0.0,0.0,0.0,0.0,0.0,0.0,0.0,0.0,0.0,0.0,0.0,0.0,0.0,0.0,0.0,0.0,0.0,0.0,0.0,0.0,0.0,0.0,0.0,0.0,0.0,0.0,0.0,0.0,0.0,0.0,0.0,0.0,0.0,0.0
1531943834952337290,1097,1531943834951241527,map,base_link,35.4622089895,206.357513262,50.532,-0.0343195080879,-0.013054813579,-0.0172573414577,-0.999176624713,0.384400005913,0.0,0.0,0.0,0.0,0.0,0.0,0.384400005913,0.0,0.0,0.0,0.0,0.0,0.0,1.53760002365,0.0,0.0,0.0,0.0,0.0,0.0,99999.0,0.0,0.0,0.0,0.0,0.0,0.0,99999.0,0.0,0.0,0.0,0.0,0.0,0.0,99999.0,-0.05,17.2,0.05,0.0,0.0,0.0,-1.0,0.0,0.0,0.0,0.0,0.0,0.0,0.0,0.0,0.0,0.0,0.0,0.0,0.0,0.0,0.0,0.0,0.0,0.0,0.0,0.0,0.0,0.0,0.0,0.0,0.0,0.0,0.0,0.0,0.0,0.0,0.0,0.0,0.0,0.0,0.0
1531943835164370171,1098,1531943835162734254,map,base_link,39.229381345,206.302006937,50.56,-0.0429518380496,-0.00946656388702,-0.0375324313663,-0.998327020756,0.384400005913,0.0,0.0,0.0,0.0,0.0,0.0,0.384400005913,0.0,0.0,0.0,0.0,0.0,0.0,1.53760002365,0.0,0.0,0.0,0.0,0.0,0.0,99999.0,0.0,0.0,0.0,0.0,0.0,0.0,99999.0,0.0,0.0,0.0,0.0,0.0,0.0,99999.0,-0.14,17.2,0.08,0.0,0.0,0.0,-1.0,0.0,0.0,0.0,0.0,0.0,0.0,0.0,0.0,0.0,0.0,0.0,0.0,0.0,0.0,0.0,0.0,0.0,0.0,0.0,0.0,0.0,0.0,0.0,0.0,0.0,0.0,0.0,0.0,0.0,0.0,0.0,0.0,0.0,0.0,0.0
1531943835424457541,1099,1531943835423653903,map,base_link,43.4029007647,206.224295374,50.621,-0.0252831549471,-0.0111588769846,-0.0322502212485,-0.99909767529,0.384400005913,0.0,0.0,0.0,0.0,0.0,0.0,0.384400005913,0.0,0.0,0.0,0.0,0.0,0.0,1.53760002365,0.0,0.0,0.0,0.0,0.0,0.0,99999.0,0.0,0.0,0.0,0.0,0.0,0.0,99999.0,0.0,0.0,0.0,0.0,0.0,0.0,99999.0,-0.27,17.25,-0.12,0.0,0.0,0.0,-1.0,0.0,0.0,0.0,0.0,0.0,0.0,0.0,0.0,0.0,0.0,0.0,0.0,0.0,0.0,0.0,0.0,0.0,0.0,0.0,0.0,0.0,0.0,0.0,0.0,0.0,0.0,0.0,0.0,0.0,0.0,0.0,0.0,0.0,0.0,0.0
1531943835615663763,1100,1531943835614428674,map,base_link,46.8907103035,206.146581477,50.671,-0.0252831549471,-0.0111588769846,-0.0322502212485,-0.99909767529,0.435600034618,0.0,0.0,0.0,0.0,0.0,0.0,0.435600034618,0.0,0.0,0.0,0.0,0.0,0.0,1.74240013847,0.0,0.0,0.0,0.0,0.0,0.0,99999.0,0.0,0.0,0.0,0.0,0.0,0.0,99999.0,0.0,0.0,0.0,0.0,0.0,0.0,99999.0,-0.33,17.3,0.07,0.0,0.0,0.0,-1.0,0.0,0.0,0.0,0.0,0.0,0.0,0.0,0.0,0.0,0.0,0.0,0.0,0.0,0.0,0.0,0.0,0.0,0.0,0.0,0.0,0.0,0.0,0.0,0.0,0.0,0.0,0.0,0.0,0.0,0.0,0.0,0.0,0.0,0.0,0.0
1531943835877878532,1101,1531943835876865328,map,base_link,51.7753356083,206.002241549,50.544,0.0175959097341,-0.0137416769714,-0.0314316897149,-0.999256523199,0.47609999671,0.0,0.0,0.0,0.0,0.0,0.0,0.47609999671,0.0,0.0,0.0,0.0,0.0,0.0,1.90439998684,0.0,0.0,0.0,0.0,0.0,0.0,99999.0,0.0,0.0,0.0,0.0,0.0,0.0,99999.0,0.0,0.0,0.0,0.0,0.0,0.0,99999.0,-0.45,17.36,1.36,0.0,0.0,0.0,-1.0,0.0,0.0,0.0,0.0,0.0,0.0,0.0,0.0,0.0,0.0,0.0,0.0,0.0,0.0,0.0,0.0,0.0,0.0,0.0,0.0,0.0,0.0,0.0,0.0,0.0,0.0,0.0,0.0,0.0,0.0,0.0,0.0,0.0,0.0,0.0
1531943836105911734,1102,1531943836105203070,map,base_link,55.601764598,205.880100853,50.218,-0.0127168710724,-0.0110762965841,-0.0609873697323,-0.997996060903,0.396899993992,0.0,0.0,0.0,0.0,0.0,0.0,0.396899993992,0.0,0.0,0.0,0.0,0.0,0.0,1.58759997597,0.0,0.0,0.0,0.0,0.0,0.0,99999.0,0.0,0.0,0.0,0.0,0.0,0.0,99999.0,0.0,0.0,0.0,0.0,0.0,0.0,99999.0,-0.43,17.41,1.59,0.0,0.0,0.0,-1.0,0.0,0.0,0.0,0.0,0.0,0.0,0.0,0.0,0.0,0.0,0.0,0.0,0.0,0.0,0.0,0.0,0.0,0.0,0.0,0.0,0.0,0.0,0.0,0.0,0.0,0.0,0.0,0.0,0.0,0.0,0.0,0.0,0.0,0.0,0.0
1531943836372127420,1103,1531943836359879632,map,base_link,59.8006773503,205.769069378,49.856,-0.0127168710724,-0.0110762965841,-0.0609873697323,-0.997996060903,0.384400005913,0.0,0.0,0.0,0.0,0.0,0.0,0.384400005913,0.0,0.0,0.0,0.0,0.0,0.0,1.53760002365,0.0,0.0,0.0,0.0,0.0,0.0,99999.0,0.0,0.0,0.0,0.0,0.0,0.0,99999.0,0.0,0.0,0.0,0.0,0.0,0.0,99999.0,-0.24,17.61,1.57,0.0,0.0,0.0,-1.0,0.0,0.0,0.0,0.0,0.0,0.0,0.0,0.0,0.0,0.0,0.0,0.0,0.0,0.0,0.0,0.0,0.0,0.0,0.0,0.0,0.0,0.0,0.0,0.0,0.0,0.0,0.0,0.0,0.0,0.0,0.0,0.0,0.0,0.0,0.0
1531943836582776867,1104,1531943836581667696,map,base_link,63.737157408,205.735776275,49.541,0.00856143858684,-0.025148003174,-0.0579148772756,-0.997968008854,0.384400005913,0.0,0.0,0.0,0.0,0.0,0.0,0.384400005913,0.0,0.0,0.0,0.0,0.0,0.0,1.53760002365,0.0,0.0,0.0,0.0,0.0,0.0,99999.0,0.0,0.0,0.0,0.0,0.0,0.0,99999.0,0.0,0.0,0.0,0.0,0.0,0.0,99999.0,-0.06,17.85,1.47,0.0,0.0,0.0,-1.0,0.0,0.0,0.0,0.0,0.0,0.0,0.0,0.0,0.0,0.0,0.0,0.0,0.0,0.0,0.0,0.0,0.0,0.0,0.0,0.0,0.0,0.0,0.0,0.0,0.0,0.0,0.0,0.0,0.0,0.0,0.0,0.0,0.0,0.0,0.0
1531943836823270560,1105,1531943836822401163,map,base_link,68.3678124403,205.73580793,49.251,0.00856143858684,-0.025148003174,-0.0579148772756,-0.997968008854,0.384400005913,0.0,0.0,0.0,0.0,0.0,0.0,0.384400005913,0.0,0.0,0.0,0.0,0.0,0.0,1.53760002365,0.0,0.0,0.0,0.0,0.0,0.0,99999.0,0.0,0.0,0.0,0.0,0.0,0.0,99999.0,0.0,0.0,0.0,0.0,0.0,0.0,99999.0,0.02,18.12,1.05,0.0,0.0,0.0,-1.0,0.0,0.0,0.0,0.0,0.0,0.0,0.0,0.0,0.0,0.0,0.0,0.0,0.0,0.0,0.0,0.0,0.0,0.0,0.0,0.0,0.0,0.0,0.0,0.0,0.0,0.0,0.0,0.0,0.0,0.0,0.0,0.0,0.0,0.0,0.0
1531943837035910096,1106,1531943837033506637,map,base_link,72.4397417854,205.758051677,49.091,0.0152356874208,-0.0174705900922,-0.0478172483486,-0.998587083369,0.384400005913,0.0,0.0,0.0,0.0,0.0,0.0,0.384400005913,0.0,0.0,0.0,0.0,0.0,0.0,1.53760002365,0.0,0.0,0.0,0.0,0.0,0.0,99999.0,0.0,0.0,0.0,0.0,0.0,0.0,99999.0,0.0,0.0,0.0,0.0,0.0,0.0,99999.0,0.25,18.27,0.74,0.0,0.0,0.0,-1.0,0.0,0.0,0.0,0.0,0.0,0.0,0.0,0.0,0.0,0.0,0.0,0.0,0.0,0.0,0.0,0.0,0.0,0.0,0.0,0.0,0.0,0.0,0.0,0.0,0.0,0.0,0.0,0.0,0.0,0.0,0.0,0.0,0.0,0.0,0.0
1531943837313954637,1107,1531943837313241558,map,base_link,77.2651050731,205.869149536,49.001,0.0152356874208,-0.0174705900922,-0.0478172483486,-0.998587083369,0.384400005913,0.0,0.0,0.0,0.0,0.0,0.0,0.384400005913,0.0,0.0,0.0,0.0,0.0,0.0,1.53760002365,0.0,0.0,0.0,0.0,0.0,0.0,99999.0,0.0,0.0,0.0,0.0,0.0,0.0,99999.0,0.0,0.0,0.0,0.0,0.0,0.0,99999.0,0.49,18.39,0.26,0.0,0.0,0.0,-1.0,0.0,0.0,0.0,0.0,0.0,0.0,0.0,0.0,0.0,0.0,0.0,0.0,0.0,0.0,0.0,0.0,0.0,0.0,0.0,0.0,0.0,0.0,0.0,0.0,0.0,0.0,0.0,0.0,0.0,0.0,0.0,0.0,0.0,0.0,0.0
