%time,field.x,field.y,field.z
1531943810820851320,-1.02080237865,-0.0258849244565,-0.277093692622
1531943810840897272,-1.02080237865,-0.0258849244565,-0.277093692622
1531943810861287443,-1.02080237865,-0.0258849244565,-0.277093692622
1531943810880750906,-1.02080237865,-0.0258849244565,-0.277093692622
1531943810901679567,-0.889965951443,-0.0125921163708,0.0200705091145
1531943810920832666,-0.889965951443,-0.0125921163708,0.0200705091145
1531943810940591421,-0.889965951443,-0.0125921163708,0.0200705091145
1531943810961108471,-0.889965951443,-0.0125921163708,0.0200705091145
1531943810980779707,-0.889965951443,-0.0125921163708,0.0200705091145
1531943811001320884,-0.889965951443,-0.0125921163708,0.0200705091145
1531943811020697693,-0.889965951443,-0.0125921163708,0.0200705091145
1531943811040527808,-0.889965951443,-0.0125921163708,0.0200705091145
1531943811061169081,-0.889965951443,-0.0125921163708,0.0200705091145
1531943811081070747,-0.889965951443,-0.0125921163708,0.0200705091145
1531943811100691201,-0.889965951443,-0.0125921163708,0.0200705091145
1531943811124224340,-0.889965951443,-0.0125921163708,0.0200705091145
1531943811142520587,-0.392060816288,-0.0474469512701,0.129126743474
1531943811166189757,-0.392060816288,-0.0474469512701,0.129126743474
1531943811189099705,-0.392060816288,-0.0474469512701,0.129126743474
1531943811211984565,-0.392060816288,-0.0474469512701,0.129126743474
1531943811227816939,-0.392060816288,-0.0474469512701,0.129126743474
1531943811244930032,-0.392060816288,-0.0474469512701,0.129126743474
1531943811266073186,-0.392060816288,-0.0474469512701,0.129126743474
1531943811290612393,-0.392060816288,-0.0474469512701,0.129126743474
1531943811306082948,-0.392060816288,-0.0474469512701,0.129126743474
1531943811328821250,-0.392060816288,-0.0474469512701,0.129126743474
1531943811345692107,-0.392060816288,-0.0474469512701,0.129126743474
1531943811366793501,-0.392060816288,-0.0474469512701,0.129126743474
1531943811386908413,-0.392060816288,-0.0474469512701,0.129126743474
1531943811410980682,-0.392060816288,-0.0474469512701,0.129126743474
1531943811424940343,-0.392060816288,-0.0474469512701,0.129126743474
1531943811446215080,-0.392060816288,-0.0474469512701,0.129126743474
1531943811466701219,-0.392060816288,-0.0474469512701,0.129126743474
1531943811485242710,-0.392060816288,-0.0474469512701,0.129126743474
1531943811508166737,-0.392060816288,-0.0474469512701,0.129126743474
1531943811524788669,-0.392060816288,-0.0474469512701,0.129126743474
1531943811546143149,-0.392060816288,-0.0474469512701,0.129126743474
1531943811569284422,-0.392060816288,-0.0474469512701,0.129126743474
1531943811586143663,-0.392060816288,-0.0474469512701,0.129126743474
1531943811610263003,-0.392060816288,-0.0474469512701,0.129126743474
1531943811629404135,-0.392060816288,-0.0474469512701,0.129126743474
1531943811643821423,-0.392060816288,-0.0474469512701,0.129126743474
1531943811669654821,0.22009447217,-0.116675280035,0.207062319913
1531943811693868784,0.22009447217,-0.116675280035,0.207062319913
1531943811711977833,0.22009447217,-0.116675280035,0.207062319913
1531943811724121742,0.22009447217,-0.116675280035,0.207062319913
1531943811745829241,0.22009447217,-0.116675280035,0.207062319913
1531943811764621993,0.22009447217,-0.116675280035,0.207062319913
1531943811786400915,0.22009447217,-0.116675280035,0.207062319913
1531943811809686250,0.22009447217,-0.116675280035,0.207062319913
1531943811834648012,0.22009447217,-0.116675280035,0.207062319913
1531943811844266033,0.22009447217,-0.116675280035,0.207062319913
1531943811865988764,0.22009447217,-0.116675280035,0.207062319913
1531943811885152263,0.22009447217,-0.116675280035,0.207062319913
1531943811908413791,0.22009447217,-0.116675280035,0.207062319913
1531943811924412306,-0.198684036732,-0.149183958769,0.238206700483
1531943811944577393,-0.198684036732,-0.149183958769,0.238206700483
1531943811969707185,-0.198684036732,-0.149183958769,0.238206700483
1531943811986388316,-0.198684036732,-0.149183958769,0.238206700483
1531943812006359101,-0.198684036732,-0.149183958769,0.238206700483
1531943812025925732,-0.198684036732,-0.149183958769,0.238206700483
1531943812044873171,-0.198684036732,-0.149183958769,0.238206700483
1531943812064685302,-0.198684036732,-0.149183958769,0.238206700483
1531943812084496026,-0.198684036732,-0.149183958769,0.238206700483
1531943812105107988,-0.198684036732,-0.149183958769,0.238206700483
1531943812124451261,-0.468393743038,-0.139546811581,0.220108465352
1531943812144135043,-0.468393743038,-0.139546811581,0.220108465352
1531943812164929306,-0.468393743038,-0.139546811581,0.220108465352
1531943812188061907,-0.468393743038,-0.139546811581,0.220108465352
1531943812205085179,-0.468393743038,-0.139546811581,0.220108465352
1531943812224587042,-0.468393743038,-0.139546811581,0.220108465352
1531943812243806382,-0.468393743038,-0.139546811581,0.220108465352
1531943812264356136,-0.468393743038,-0.139546811581,0.220108465352
1531943812286182386,-0.468393743038,-0.139546811581,0.220108465352
1531943812307102344,-0.468393743038,-0.139546811581,0.220108465352
1531943812326556816,-0.468393743038,-0.139546811581,0.220108465352
1531943812343885555,-0.468393743038,-0.139546811581,0.220108465352
1531943812365495104,-0.468393743038,-0.139546811581,0.220108465352
1531943812384488270,-0.468393743038,-0.139546811581,0.220108465352
1531943812406952912,-0.468393743038,-0.139546811581,0.220108465352
1531943812428604540,-0.468393743038,-0.139546811581,0.220108465352
1531943812446108478,-0.468393743038,-0.139546811581,0.220108465352
1531943812463419425,-0.468393743038,-0.139546811581,0.220108465352
1531943812486917110,-0.468393743038,-0.139546811581,0.220108465352
1531943812505440650,-0.468393743038,-0.139546811581,0.220108465352
1531943812525539882,-0.468393743038,-0.139546811581,0.220108465352
1531943812545467404,-0.468393743038,-0.139546811581,0.220108465352
1531943812566404386,-0.468393743038,-0.139546811581,0.220108465352
1531943812586100487,-0.468393743038,-0.139546811581,0.220108465352
1531943812608442667,-0.468393743038,-0.139546811581,0.220108465352
1531943812626034507,-0.468393743038,-0.139546811581,0.220108465352
1531943812641089707,-0.627823174,-0.122525088489,0.271966890493
1531943812663403439,-0.627823174,-0.122525088489,0.271966890493
1531943812685553685,-0.627823174,-0.122525088489,0.271966890493
1531943812707038467,-0.627823174,-0.122525088489,0.271966890493
1531943812724980735,-0.627823174,-0.122525088489,0.271966890493
1531943812744562693,-0.627823174,-0.122525088489,0.271966890493
1531943812766052116,-0.627823174,-0.122525088489,0.271966890493
1531943812789494825,-0.627823174,-0.122525088489,0.271966890493
1531943812808505943,-0.627823174,-0.122525088489,0.271966890493
1531943812829522380,-0.627823174,-0.122525088489,0.271966890493
1531943812844977831,-0.627823174,-0.122525088489,0.271966890493
1531943812865329220,-0.627823174,-0.122525088489,0.271966890493
1531943812881355447,-0.768487930298,-0.123744435608,0.436360077062
1531943812905169256,-0.768487930298,-0.123744435608,0.436360077062
1531943812925355079,-0.768487930298,-0.123744435608,0.436360077062
1531943812944424884,-0.768487930298,-0.123744435608,0.436360077062
1531943812964801585,-0.768487930298,-0.123744435608,0.436360077062
1531943812987710829,-0.768487930298,-0.123744435608,0.436360077062
1531943813019203197,-0.768487930298,-0.123744435608,0.436360077062
1531943813028608997,-0.768487930298,-0.123744435608,0.436360077062
1531943813044181120,-0.768487930298,-0.123744435608,0.436360077062
1531943813065119670,-0.768487930298,-0.123744435608,0.436360077062
1531943813085864110,-0.768487930298,-0.123744435608,0.436360077062
1531943813106202028,-0.768487930298,-0.123744435608,0.436360077062
1531943813120959280,-0.768487930298,-0.123744435608,0.436360077062
1531943813144606052,-0.768487930298,-0.123744435608,0.436360077062
1531943813164904226,-0.768487930298,-0.123744435608,0.436360077062
1531943813185627771,-0.768487930298,-0.123744435608,0.436360077062
1531943813206410835,-0.768487930298,-0.123744435608,0.436360077062
1531943813227249194,-0.768487930298,-0.123744435608,0.436360077062
1531943813244207187,-0.768487930298,-0.123744435608,0.436360077062
1531943813265920799,-0.768487930298,-0.123744435608,0.436360077062
1531943813286087455,-0.768487930298,-0.123744435608,0.436360077062
1531943813306718744,-0.768487930298,-0.123744435608,0.436360077062
1531943813335317965,-0.768487930298,-0.123744435608,0.436360077062
1531943813344945491,-0.768487930298,-0.123744435608,0.436360077062
1531943813363688581,-0.768487930298,-0.123744435608,0.436360077062
1531943813390384562,-0.768487930298,-0.123744435608,0.436360077062
1531943813401332263,-0.887431204319,-0.145273417234,0.747547046342
1531943813425287638,-0.887431204319,-0.145273417234,0.747547046342
1531943813446171821,-0.887431204319,-0.145273417234,0.747547046342
1531943813462874649,-0.887431204319,-0.145273417234,0.747547046342
1531943813483601649,-0.887431204319,-0.145273417234,0.747547046342
1531943813504890659,-0.887431204319,-0.145273417234,0.747547046342
1531943813525590812,-0.887431204319,-0.145273417234,0.747547046342
1531943813544602730,-0.887431204319,-0.145273417234,0.747547046342
1531943813564609708,-0.887431204319,-0.145273417234,0.747547046342
1531943813585115048,-0.887431204319,-0.145273417234,0.747547046342
1531943813605057387,-0.887431204319,-0.145273417234,0.747547046342
1531943813624127896,-0.887431204319,-0.145273417234,0.747547046342
1531943813643036456,-0.887431204319,-0.145273417234,0.747547046342
1531943813664876243,-0.887431204319,-0.145273417234,0.747547046342
1531943813687546739,-0.887431204319,-0.145273417234,0.747547046342
1531943813706175846,-0.887431204319,-0.145273417234,0.747547046342
1531943813724607932,-0.887431204319,-0.145273417234,0.747547046342
1531943813746378663,-0.887431204319,-0.145273417234,0.747547046342
1531943813764424962,-0.887431204319,-0.145273417234,0.747547046342
1531943813785097147,-0.887431204319,-0.145273417234,0.747547046342
1531943813809899360,-0.887431204319,-0.145273417234,0.747547046342
1531943813829352649,-0.887431204319,-0.145273417234,0.747547046342
1531943813845720697,-0.887431204319,-0.145273417234,0.747547046342
1531943813863772212,-0.887431204319,-0.145273417234,0.747547046342
1531943813883930388,-0.887431204319,-0.145273417234,0.747547046342
1531943813904456431,-0.887431204319,-0.145273417234,0.747547046342
1531943813926423512,-0.887431204319,-0.145273417234,0.747547046342
1531943813941214396,-0.911820292473,-0.17805787921,0.973038629689
1531943813963013063,-0.911820292473,-0.17805787921,0.973038629689
1531943813983295462,-0.911820292473,-0.17805787921,0.973038629689
1531943814005508107,-0.911820292473,-0.17805787921,0.973038629689
1531943814024486875,-0.911820292473,-0.17805787921,0.973038629689
1531943814047594966,-0.911820292473,-0.17805787921,0.973038629689
1531943814063539084,-0.911820292473,-0.17805787921,0.973038629689
1531943814083796555,-0.911820292473,-0.17805787921,0.973038629689
1531943814104921567,-0.911820292473,-0.17805787921,0.973038629689
1531943814125145663,-0.911820292473,-0.17805787921,0.973038629689
1531943814141895082,-0.945446908474,-0.175416588783,1.21269427339
1531943814164972902,-0.945446908474,-0.175416588783,1.21269427339
1531943814186151257,-0.945446908474,-0.175416588783,1.21269427339
1531943814205013930,-0.945446908474,-0.175416588783,1.21269427339
1531943814227665899,-0.945446908474,-0.175416588783,1.21269427339
1531943814244177178,-0.945446908474,-0.175416588783,1.21269427339
1531943814263978303,-0.945446908474,-0.175416588783,1.21269427339
1531943814283252106,-0.945446908474,-0.175416588783,1.21269427339
1531943814303859365,-0.945446908474,-0.175416588783,1.21269427339
1531943814326742275,-0.945446908474,-0.175416588783,1.21269427339
1531943814345779122,-0.945446908474,-0.175416588783,1.21269427339
1531943814364147017,-0.945446908474,-0.175416588783,1.21269427339
1531943814381057075,-0.958960056305,-0.19093669951,1.44652903924
1531943814403598709,-0.958960056305,-0.19093669951,1.44652903924
1531943814423740117,-0.958960056305,-0.19093669951,1.44652903924
1531943814443236862,-0.958960056305,-0.19093669951,1.44652903924
1531943814468250529,-0.958960056305,-0.19093669951,1.44652903924
1531943814483434913,-0.958960056305,-0.19093669951,1.44652903924
1531943814505243340,-0.958960056305,-0.19093669951,1.44652903924
1531943814526246914,-0.958960056305,-0.19093669951,1.44652903924
1531943814546039463,-0.958960056305,-0.19093669951,1.44652903924
1531943814566179656,-0.958960056305,-0.19093669951,1.44652903924
1531943814584791196,-0.958960056305,-0.19093669951,1.44652903924
1531943814608599790,-0.958960056305,-0.19093669951,1.44652903924
1531943814621112559,-0.958960056305,-0.19093669951,1.44652903924
1531943814649248011,-0.958960056305,-0.19093669951,1.44652903924
1531943814666122485,-0.958960056305,-0.19093669951,1.44652903924
1531943814684939782,-0.958960056305,-0.19093669951,1.44652903924
1531943814704627469,-0.958960056305,-0.19093669951,1.44652903924
1531943814729096022,-0.958960056305,-0.19093669951,1.44652903924
1531943814743631966,-0.958960056305,-0.19093669951,1.44652903924
1531943814762766315,-0.958960056305,-0.19093669951,1.44652903924
1531943814784094845,-0.958960056305,-0.19093669951,1.44652903924
1531943814804516826,-0.958960056305,-0.19093669951,1.44652903924
1531943814824501821,-0.958960056305,-0.19093669951,1.44652903924
1531943814843678186,-0.958960056305,-0.19093669951,1.44652903924
1531943814862344605,-0.958960056305,-0.19093669951,1.44652903924
1531943814882862169,-0.960833251476,-0.197782725096,1.75721824268
1531943814903896046,-0.960833251476,-0.197782725096,1.75721824268
1531943814924121454,-0.960833251476,-0.197782725096,1.75721824268
1531943814942974975,-0.960833251476,-0.197782725096,1.75721824268
1531943814963919893,-0.960833251476,-0.197782725096,1.75721824268
1531943814985128745,-0.960833251476,-0.197782725096,1.75721824268
1531943815005298409,-0.960833251476,-0.197782725096,1.75721824268
1531943815026490909,-0.960833251476,-0.197782725096,1.75721824268
1531943815043077643,-0.960833251476,-0.197782725096,1.75721824268
1531943815064992822,-0.960833251476,-0.197782725096,1.75721824268
1531943815082935443,-0.960833251476,-0.197782725096,1.75721824268
1531943815106251180,-0.960833251476,-0.197782725096,1.75721824268
1531943815122494782,-0.910578548908,-0.20710028708,1.97696448962
1531943815146608397,-0.910578548908,-0.20710028708,1.97696448962
1531943815162935743,-0.910578548908,-0.20710028708,1.97696448962
1531943815183812982,-0.910578548908,-0.20710028708,1.97696448962
1531943815203951128,-0.910578548908,-0.20710028708,1.97696448962
1531943815223675006,-0.910578548908,-0.20710028708,1.97696448962
1531943815243247207,-0.910578548908,-0.20710028708,1.97696448962
1531943815265605548,-0.910578548908,-0.20710028708,1.97696448962
1531943815283649671,-0.910578548908,-0.20710028708,1.97696448962
1531943815304374529,-0.910578548908,-0.20710028708,1.97696448962
1531943815323455664,-0.910578548908,-0.20710028708,1.97696448962
1531943815344067115,-0.910578548908,-0.20710028708,1.97696448962
1531943815363619700,-0.910578548908,-0.20710028708,1.97696448962
1531943815383080669,-0.910578548908,-0.20710028708,1.97696448962
1531943815401355542,-0.910578548908,-0.20710028708,1.97696448962
1531943815423656252,-0.910578548908,-0.20710028708,1.97696448962
1531943815444052698,-0.910578548908,-0.20710028708,1.97696448962
1531943815462380882,-0.910578548908,-0.20710028708,1.97696448962
1531943815483094188,-0.910578548908,-0.20710028708,1.97696448962
1531943815504711131,-0.910578548908,-0.20710028708,1.97696448962
1531943815523969511,-0.910578548908,-0.20710028708,1.97696448962
1531943815543309074,-0.910578548908,-0.20710028708,1.97696448962
1531943815562743389,-0.910578548908,-0.20710028708,1.97696448962
1531943815583508566,-0.910578548908,-0.20710028708,1.97696448962
1531943815603500345,-0.910578548908,-0.20710028708,1.97696448962
1531943815627996771,-0.910578548908,-0.20710028708,1.97696448962
1531943815644577105,-0.910578548908,-0.20710028708,1.97696448962
1531943815660837636,-0.753133535385,-0.280638039112,2.28451867501
1531943815683587108,-0.753133535385,-0.280638039112,2.28451867501
1531943815704036993,-0.753133535385,-0.280638039112,2.28451867501
1531943815723246990,-0.753133535385,-0.280638039112,2.28451867501
1531943815743652972,-0.753133535385,-0.280638039112,2.28451867501
1531943815762742362,-0.753133535385,-0.280638039112,2.28451867501
1531943815783416789,-0.753133535385,-0.280638039112,2.28451867501
1531943815804408555,-0.753133535385,-0.280638039112,2.28451867501
1531943815826261431,-0.753133535385,-0.280638039112,2.28451867501
1531943815845865887,-0.753133535385,-0.280638039112,2.28451867501
1531943815862416333,-0.753133535385,-0.280638039112,2.28451867501
1531943815881209568,-0.753133535385,-0.280638039112,2.28451867501
1531943815903576709,-0.753133535385,-0.280638039112,2.28451867501
1531943815923775397,-0.753133535385,-0.280638039112,2.28451867501
1531943815944694684,-0.753133535385,-0.280638039112,2.28451867501
1531943815962479963,-0.753133535385,-0.280638039112,2.28451867501
1531943815983213781,-0.753133535385,-0.280638039112,2.28451867501
1531943816005635482,-0.753133535385,-0.280638039112,2.28451867501
1531943816023095805,-0.753133535385,-0.280638039112,2.28451867501
1531943816044169875,-0.753133535385,-0.280638039112,2.28451867501
1531943816062577355,-0.753133535385,-0.280638039112,2.28451867501
1531943816084955408,-0.753133535385,-0.280638039112,2.28451867501
1531943816108380905,-0.753133535385,-0.280638039112,2.28451867501
1531943816121703457,-0.44005137682,-0.299189627171,2.43047352234
1531943816148168851,-0.44005137682,-0.299189627171,2.43047352234
1531943816165764181,-0.44005137682,-0.299189627171,2.43047352234
1531943816183110778,-0.44005137682,-0.299189627171,2.43047352234
1531943816203782901,-0.44005137682,-0.299189627171,2.43047352234
1531943816225916669,-0.44005137682,-0.299189627171,2.43047352234
1531943816249989133,-0.44005137682,-0.299189627171,2.43047352234
1531943816262689613,-0.44005137682,-0.299189627171,2.43047352234
1531943816283767011,-0.44005137682,-0.299189627171,2.43047352234
1531943816303857606,-0.44005137682,-0.299189627171,2.43047352234
1531943816323937000,-0.44005137682,-0.299189627171,2.43047352234
1531943816345888371,-0.44005137682,-0.299189627171,2.43047352234
1531943816362763838,-0.44005137682,-0.299189627171,2.43047352234
1531943816386637521,-0.44005137682,-0.299189627171,2.43047352234
1531943816401817457,-0.187673330307,-0.313989788294,2.4682624499
1531943816424379380,-0.187673330307,-0.313989788294,2.4682624499
1531943816447794637,-0.187673330307,-0.313989788294,2.4682624499
1531943816462883854,-0.187673330307,-0.313989788294,2.4682624499
1531943816483327212,-0.187673330307,-0.313989788294,2.4682624499
1531943816503747659,-0.187673330307,-0.313989788294,2.4682624499
1531943816523062423,-0.187673330307,-0.313989788294,2.4682624499
1531943816543200633,-0.187673330307,-0.313989788294,2.4682624499
1531943816562256008,-0.187673330307,-0.313989788294,2.4682624499
1531943816582534824,-0.187673330307,-0.313989788294,2.4682624499
1531943816602826760,-0.187673330307,-0.313989788294,2.4682624499
1531943816621410846,0.0744113996625,-0.260862112045,2.51091726223
1531943816644701400,0.0744113996625,-0.260862112045,2.51091726223
1531943816662507863,0.0744113996625,-0.260862112045,2.51091726223
1531943816683164338,0.0744113996625,-0.260862112045,2.51091726223
1531943816702936473,0.0744113996625,-0.260862112045,2.51091726223
1531943816723194905,0.0744113996625,-0.260862112045,2.51091726223
1531943816743686806,0.0744113996625,-0.260862112045,2.51091726223
1531943816764472720,0.0744113996625,-0.260862112045,2.51091726223
1531943816783168548,0.0744113996625,-0.260862112045,2.51091726223
1531943816803026633,0.0744113996625,-0.260862112045,2.51091726223
1531943816829154976,0.0744113996625,-0.260862112045,2.51091726223
1531943816843877734,0.0744113996625,-0.260862112045,2.51091726223
1531943816863607053,0.0744113996625,-0.260862112045,2.51091726223
1531943816882737787,0.0744113996625,-0.260862112045,2.51091726223
1531943816902875357,0.0744113996625,-0.260862112045,2.51091726223
1531943816924061778,0.0744113996625,-0.260862112045,2.51091726223
1531943816945019433,0.0744113996625,-0.260862112045,2.51091726223
1531943816964146456,0.0744113996625,-0.260862112045,2.51091726223
1531943816984029533,0.0744113996625,-0.260862112045,2.51091726223
1531943817004744695,0.0744113996625,-0.260862112045,2.51091726223
1531943817022802132,0.0744113996625,-0.260862112045,2.51091726223
1531943817043699629,0.0744113996625,-0.260862112045,2.51091726223
1531943817062473024,0.0744113996625,-0.260862112045,2.51091726223
1531943817082190216,0.227848187089,-0.177638202906,2.47273536126
1531943817102522952,0.227848187089,-0.177638202906,2.47273536126
1531943817122682570,0.227848187089,-0.177638202906,2.47273536126
1531943817143019946,0.227848187089,-0.177638202906,2.47273536126
1531943817162760689,0.227848187089,-0.177638202906,2.47273536126
1531943817183546827,0.227848187089,-0.177638202906,2.47273536126
1531943817203242291,0.227848187089,-0.177638202906,2.47273536126
1531943817224216171,0.227848187089,-0.177638202906,2.47273536126
1531943817244069777,0.227848187089,-0.177638202906,2.47273536126
1531943817266014237,0.227848187089,-0.177638202906,2.47273536126
1531943817282601452,0.227848187089,-0.177638202906,2.47273536126
1531943817303725506,0.227848187089,-0.177638202906,2.47273536126
1531943817327721971,0.227848187089,-0.177638202906,2.47273536126
1531943817341553861,0.227848187089,-0.177638202906,2.47273536126
1531943817363099286,0.227848187089,-0.177638202906,2.47273536126
1531943817382942364,0.227848187089,-0.177638202906,2.47273536126
1531943817403322907,0.227848187089,-0.177638202906,2.47273536126
1531943817423829945,0.227848187089,-0.177638202906,2.47273536126
1531943817442761962,0.227848187089,-0.177638202906,2.47273536126
1531943817462693391,0.227848187089,-0.177638202906,2.47273536126
1531943817485151477,0.227848187089,-0.177638202906,2.47273536126
1531943817504277508,0.227848187089,-0.177638202906,2.47273536126
1531943817522835226,0.227848187089,-0.177638202906,2.47273536126
1531943817542943869,0.227848187089,-0.177638202906,2.47273536126
1531943817563629720,0.227848187089,-0.177638202906,2.47273536126
1531943817582290989,0.227848187089,-0.177638202906,2.47273536126
1531943817602693900,0.227848187089,-0.177638202906,2.47273536126
1531943817621815899,0.278372257948,-0.0144872684032,2.42013587157
1531943817642625845,0.278372257948,-0.0144872684032,2.42013587157
1531943817661697701,0.278372257948,-0.0144872684032,2.42013587157
1531943817684829953,0.278372257948,-0.0144872684032,2.42013587157
1531943817702469315,0.278372257948,-0.0144872684032,2.42013587157
1531943817723439067,0.278372257948,-0.0144872684032,2.42013587157
1531943817742766920,0.278372257948,-0.0144872684032,2.42013587157
1531943817762703373,0.278372257948,-0.0144872684032,2.42013587157
1531943817783255978,0.278372257948,-0.0144872684032,2.42013587157
1531943817804222914,0.278372257948,-0.0144872684032,2.42013587157
1531943817831199950,0.278372257948,-0.0144872684032,2.42013587157
1531943817841584811,0.278372257948,-0.0144872684032,2.42013587157
1531943817865931512,0.278372257948,-0.0144872684032,2.42013587157
1531943817881555380,0.278372257948,-0.0144872684032,2.42013587157
1531943817904749840,0.278372257948,-0.0144872684032,2.42013587157
1531943817922777068,0.278372257948,-0.0144872684032,2.42013587157
1531943817942277495,0.278372257948,-0.0144872684032,2.42013587157
1531943817963843239,0.278372257948,-0.0144872684032,2.42013587157
1531943817986192558,0.278372257948,-0.0144872684032,2.42013587157
1531943818004001581,0.278372257948,-0.0144872684032,2.42013587157
1531943818025582366,0.278372257948,-0.0144872684032,2.42013587157
1531943818043684795,0.278372257948,-0.0144872684032,2.42013587157
1531943818061415676,0.233594372869,0.0824917405844,2.43318207661
1531943818082937165,0.233594372869,0.0824917405844,2.43318207661
1531943818102580854,0.233594372869,0.0824917405844,2.43318207661
1531943818131061392,0.233594372869,0.0824917405844,2.43318207661
1531943818143155544,0.233594372869,0.0824917405844,2.43318207661
1531943818162061291,0.233594372869,0.0824917405844,2.43318207661
1531943818182389323,0.233594372869,0.0824917405844,2.43318207661
1531943818202627437,0.233594372869,0.0824917405844,2.43318207661
1531943818223041932,0.233594372869,0.0824917405844,2.43318207661
1531943818243199855,0.233594372869,0.0824917405844,2.43318207661
1531943818262408317,0.233594372869,0.0824917405844,2.43318207661
1531943818281150322,0.233594372869,0.0824917405844,2.43318207661
1531943818304052114,0.233594372869,0.0824917405844,2.43318207661
1531943818323618460,0.233594372869,0.0824917405844,2.43318207661
1531943818343536834,0.233594372869,0.0824917405844,2.43318207661
1531943818363043757,0.233594372869,0.0824917405844,2.43318207661
1531943818382098493,0.233594372869,0.0824917405844,2.43318207661
1531943818403294963,0.233594372869,0.0824917405844,2.43318207661
1531943818422843581,0.233594372869,0.0824917405844,2.43318207661
1531943818444705898,0.233594372869,0.0824917405844,2.43318207661
1531943818462602569,0.233594372869,0.0824917405844,2.43318207661
1531943818482679085,0.233594372869,0.0824917405844,2.43318207661
1531943818504212542,0.233594372869,0.0824917405844,2.43318207661
1531943818522523000,0.233594372869,0.0824917405844,2.43318207661
1531943818543736045,0.233594372869,0.0824917405844,2.43318207661
1531943818561327664,0.0953093245625,0.180026143789,2.37142576376
1531943818581980397,0.0953093245625,0.180026143789,2.37142576376
1531943818602926981,0.0953093245625,0.180026143789,2.37142576376
1531943818623175111,0.0953093245625,0.180026143789,2.37142576376
1531943818642733361,0.0953093245625,0.180026143789,2.37142576376
1531943818671745188,0.0953093245625,0.180026143789,2.37142576376
1531943818682114242,0.0953093245625,0.180026143789,2.37142576376
1531943818703068219,0.0953093245625,0.180026143789,2.37142576376
1531943818735207367,0.0953093245625,0.180026143789,2.37142576376
1531943818742076240,0.0953093245625,0.180026143789,2.37142576376
1531943818762332306,0.0953093245625,0.180026143789,2.37142576376
1531943818782621683,0.0953093245625,0.180026143789,2.37142576376
1531943818803021586,0.0953093245625,0.180026143789,2.37142576376
1531943818823862828,0.0953093245625,0.180026143789,2.37142576376
1531943818843772530,0.0953093245625,0.180026143789,2.37142576376
1531943818861374997,0.0673631876707,0.207273691893,2.32102646033
1531943818883260482,0.0673631876707,0.207273691893,2.32102646033
1531943818903274438,0.0673631876707,0.207273691893,2.32102646033
1531943818923773189,0.0673631876707,0.207273691893,2.32102646033
1531943818948928872,0.0673631876707,0.207273691893,2.32102646033
1531943818966189583,0.0673631876707,0.207273691893,2.32102646033
1531943818981742668,0.0673631876707,0.207273691893,2.32102646033
1531943819001054905,0.0673631876707,0.207273691893,2.32102646033
1531943819022297231,0.0673631876707,0.207273691893,2.32102646033
1531943819042651823,0.0673631876707,0.207273691893,2.32102646033
1531943819062506678,0.0673631876707,0.207273691893,2.32102646033
1531943819082641850,0.0673631876707,0.207273691893,2.32102646033
1531943819103434357,0.0673631876707,0.207273691893,2.32102646033
1531943819123618360,0.0673631876707,0.207273691893,2.32102646033
1531943819142259406,0.0673631876707,0.207273691893,2.32102646033
1531943819162480592,0.0673631876707,0.207273691893,2.32102646033
1531943819181768510,0.0673631876707,0.207273691893,2.32102646033
1531943819202102303,0.0673631876707,0.207273691893,2.32102646033
1531943819223297334,0.0673631876707,0.207273691893,2.32102646033
1531943819242438725,0.0673631876707,0.207273691893,2.32102646033
1531943819261666452,0.0673631876707,0.207273691893,2.32102646033
1531943819282316017,0.0673631876707,0.207273691893,2.32102646033
1531943819302160056,0.0673631876707,0.207273691893,2.32102646033
1531943819322119038,0.0673631876707,0.207273691893,2.32102646033
1531943819342659676,0.0673631876707,0.207273691893,2.32102646033
1531943819363314105,0.0673631876707,0.207273691893,2.32102646033
1531943819382655207,0.0673631876707,0.207273691893,2.32102646033
1531943819401924597,0.0673631876707,0.207273691893,2.32102646033
1531943819421952826,0.0673631876707,0.207273691893,2.32102646033
1531943819443158704,0.0673631876707,0.207273691893,2.32102646033
1531943819462175361,0.0673631876707,0.207273691893,2.32102646033
1531943819481112436,0.0351274162531,0.203044638038,2.33376969496
1531943819502077933,0.0351274162531,0.203044638038,2.33376969496
1531943819522255312,0.0351274162531,0.203044638038,2.33376969496
1531943819542359987,0.0351274162531,0.203044638038,2.33376969496
1531943819562650293,0.0351274162531,0.203044638038,2.33376969496
1531943819581801157,0.0351274162531,0.203044638038,2.33376969496
1531943819602249412,0.0351274162531,0.203044638038,2.33376969496
1531943819623227933,0.0351274162531,0.203044638038,2.33376969496
1531943819643641405,0.0351274162531,0.203044638038,2.33376969496
1531943819662916555,0.0351274162531,0.203044638038,2.33376969496
1531943819682700659,0.0351274162531,0.203044638038,2.33376969496
1531943819702441532,0.0351274162531,0.203044638038,2.33376969496
1531943819723935918,0.0351274162531,0.203044638038,2.33376969496
1531943819747657604,0.0351274162531,0.203044638038,2.33376969496
1531943819761382744,0.021520473063,0.176869392395,2.32520170609
1531943819782966857,0.021520473063,0.176869392395,2.32520170609
1531943819801848573,0.021520473063,0.176869392395,2.32520170609
1531943819821878337,0.021520473063,0.176869392395,2.32520170609
1531943819844807522,0.021520473063,0.176869392395,2.32520170609
1531943819862713985,0.021520473063,0.176869392395,2.32520170609
1531943819882637479,0.021520473063,0.176869392395,2.32520170609
1531943819902189298,0.021520473063,0.176869392395,2.32520170609
1531943819922445812,0.021520473063,0.176869392395,2.32520170609
1531943819942868244,0.021520473063,0.176869392395,2.32520170609
1531943819962735643,0.021520473063,0.176869392395,2.32520170609
1531943819981162419,0.021520473063,0.176869392395,2.32520170609
1531943820002883587,0.021520473063,0.176869392395,2.32520170609
1531943820022781226,0.021520473063,0.176869392395,2.32520170609
1531943820042820175,0.021520473063,0.176869392395,2.32520170609
1531943820062667927,0.021520473063,0.176869392395,2.32520170609
1531943820081740904,0.021520473063,0.176869392395,2.32520170609
1531943820101847949,0.021520473063,0.176869392395,2.32520170609
1531943820124418258,0.021520473063,0.176869392395,2.32520170609
1531943820142409105,0.021520473063,0.176869392395,2.32520170609
1531943820164824217,0.021520473063,0.176869392395,2.32520170609
1531943820182009666,0.021520473063,0.176869392395,2.32520170609
1531943820200817366,0.0125883081928,0.119126997888,2.30455489556
1531943820222341609,0.0125883081928,0.119126997888,2.30455489556
1531943820242685418,0.0125883081928,0.119126997888,2.30455489556
1531943820262060440,0.0125883081928,0.119126997888,2.30455489556
1531943820281747874,0.0125883081928,0.119126997888,2.30455489556
1531943820302294208,0.0125883081928,0.119126997888,2.30455489556
1531943820322433220,0.0125883081928,0.119126997888,2.30455489556
1531943820342077647,0.0125883081928,0.119126997888,2.30455489556
1531943820362021365,0.0125883081928,0.119126997888,2.30455489556
1531943820382284760,0.0125883081928,0.119126997888,2.30455489556
1531943820401710084,0.0125883081928,0.119126997888,2.30455489556
1531943820422694334,0.0125883081928,0.119126997888,2.30455489556
1531943820441617329,0.0125883081928,0.119126997888,2.30455489556
1531943820462162192,0.0125883081928,0.119126997888,2.30455489556
1531943820481714139,0.0125883081928,0.119126997888,2.30455489556
1531943820501829408,0.0125883081928,0.119126997888,2.30455489556
1531943820523108501,0.0125883081928,0.119126997888,2.30455489556
1531943820542269734,0.0125883081928,0.119126997888,2.30455489556
1531943820562097037,0.0125883081928,0.119126997888,2.30455489556
1531943820582154098,0.0125883081928,0.119126997888,2.30455489556
1531943820602253335,0.0125883081928,0.119126997888,2.30455489556
1531943820622502618,0.0125883081928,0.119126997888,2.30455489556
1531943820648257143,0.0125883081928,0.119126997888,2.30455489556
1531943820662266472,0.0125883081928,0.119126997888,2.30455489556
1531943820683906201,0.0125883081928,0.119126997888,2.30455489556
1531943820702393682,0.0125883081928,0.119126997888,2.30455489556
1531943820725396210,0.0125883081928,0.119126997888,2.30455489556
1531943820741093646,0.0860508754849,0.0648232251406,2.31089778344
1531943820761286385,0.0860508754849,0.0648232251406,2.31089778344
1531943820781405077,0.0860508754849,0.0648232251406,2.31089778344
1531943820801046303,0.0860508754849,0.0648232251406,2.31089778344
1531943820822204343,0.0860508754849,0.0648232251406,2.31089778344
1531943820841497413,0.0860508754849,0.0648232251406,2.31089778344
1531943820861801927,0.0860508754849,0.0648232251406,2.31089778344
1531943820881479153,0.0860508754849,0.0648232251406,2.31089778344
1531943820903318976,0.0860508754849,0.0648232251406,2.31089778344
1531943820921083937,0.0860508754849,0.0648232251406,2.31089778344
1531943820941572993,0.0860508754849,0.0648232251406,2.31089778344
1531943820961446216,0.0860508754849,0.0648232251406,2.31089778344
1531943820982053798,0.0860508754849,0.0648232251406,2.31089778344
1531943821003685048,0.125813707709,0.0345650874078,2.29695005814
1531943821021743158,0.125813707709,0.0345650874078,2.29695005814
1531943821042515763,0.125813707709,0.0345650874078,2.29695005814
1531943821061799170,0.125813707709,0.0345650874078,2.29695005814
1531943821081286447,0.125813707709,0.0345650874078,2.29695005814
1531943821101140631,0.125813707709,0.0345650874078,2.29695005814
1531943821122291663,0.125813707709,0.0345650874078,2.29695005814
1531943821141681116,0.125813707709,0.0345650874078,2.29695005814
1531943821161977631,0.125813707709,0.0345650874078,2.29695005814
1531943821181390445,0.125813707709,0.0345650874078,2.29695005814
1531943821201262260,0.125813707709,0.0345650874078,2.29695005814
1531943821224288661,0.125813707709,0.0345650874078,2.29695005814
1531943821241659932,0.125813707709,0.0345650874078,2.29695005814
1531943821261094121,0.125813707709,0.0345650874078,2.29695005814
1531943821283284756,0.125813707709,0.0345650874078,2.29695005814
1531943821303852307,0.125813707709,0.0345650874078,2.29695005814
1531943821321267770,0.125813707709,0.0345650874078,2.29695005814
1531943821341798778,0.125813707709,0.0345650874078,2.29695005814
1531943821361768672,0.125813707709,0.0345650874078,2.29695005814
1531943821382145570,0.125813707709,0.0345650874078,2.29695005814
1531943821401580399,0.125813707709,0.0345650874078,2.29695005814
1531943821421725043,0.125813707709,0.0345650874078,2.29695005814
1531943821442634798,0.125813707709,0.0345650874078,2.29695005814
1531943821461318053,0.199188530445,0.0166145935655,2.23822261492
1531943821481189485,0.199188530445,0.0166145935655,2.23822261492
1531943821501845579,0.199188530445,0.0166145935655,2.23822261492
1531943821522824005,0.199188530445,0.0166145935655,2.23822261492
1531943821540911587,0.199188530445,0.0166145935655,2.23822261492
1531943821561540258,0.199188530445,0.0166145935655,2.23822261492
1531943821581473385,0.199188530445,0.0166145935655,2.23822261492
1531943821601071828,0.199188530445,0.0166145935655,2.23822261492
1531943821621447765,0.199188530445,0.0166145935655,2.23822261492
1531943821641009025,0.199188530445,0.0166145935655,2.23822261492
1531943821662111258,0.199188530445,0.0166145935655,2.23822261492
1531943821684627393,0.199188530445,0.0166145935655,2.23822261492
1531943821701475502,0.199188530445,0.0166145935655,2.23822261492
1531943821720833148,0.199188530445,0.0166145935655,2.23822261492
1531943821741276893,0.199188530445,0.0166145935655,2.23822261492
1531943821761095622,0.199188530445,0.0166145935655,2.23822261492
1531943821781388840,0.199188530445,0.0166145935655,2.23822261492
1531943821802970651,0.199188530445,0.0166145935655,2.23822261492
1531943821821101336,0.199188530445,0.0166145935655,2.23822261492
1531943821841166174,0.199188530445,0.0166145935655,2.23822261492
1531943821861223331,0.199188530445,0.0166145935655,2.23822261492
1531943821881586213,0.199188530445,0.0166145935655,2.23822261492
1531943821901260367,0.199188530445,0.0166145935655,2.23822261492
1531943821922097899,0.199188530445,0.0166145935655,2.23822261492
1531943821941624791,0.199188530445,0.0166145935655,2.23822261492
1531943821962094552,0.199188530445,0.0166145935655,2.23822261492
1531943821984729885,0.298725575209,-0.00309258699417,2.19283999602
1531943822001974886,0.298725575209,-0.00309258699417,2.19283999602
1531943822033104418,0.298725575209,-0.00309258699417,2.19283999602
1531943822059093246,0.298725575209,-0.00309258699417,2.19283999602
1531943822069815704,0.298725575209,-0.00309258699417,2.19283999602
1531943822089446532,0.298725575209,-0.00309258699417,2.19283999602
1531943822109712135,0.298725575209,-0.00309258699417,2.19283999602
1531943822131789076,0.298725575209,-0.00309258699417,2.19283999602
1531943822150964645,0.298725575209,-0.00309258699417,2.19283999602
1531943822171757026,0.350250989199,0.0127343740314,2.1308838288
1531943822193471443,0.350250989199,0.0127343740314,2.1308838288
1531943822208939443,0.350250989199,0.0127343740314,2.1308838288
1531943822238620417,0.350250989199,0.0127343740314,2.1308838288
1531943822251327106,0.350250989199,0.0127343740314,2.1308838288
1531943822277218752,0.350250989199,0.0127343740314,2.1308838288
1531943822294241228,0.350250989199,0.0127343740314,2.1308838288
1531943822309081971,0.350250989199,0.0127343740314,2.1308838288
1531943822331604410,0.350250989199,0.0127343740314,2.1308838288
1531943822350207890,0.350250989199,0.0127343740314,2.1308838288
1531943822371644551,0.350250989199,0.0127343740314,2.1308838288
1531943822391923274,0.350250989199,0.0127343740314,2.1308838288
1531943822410069448,0.350250989199,0.0127343740314,2.1308838288
1531943822433299239,0.350250989199,0.0127343740314,2.1308838288
1531943822460424437,0.350250989199,0.0127343740314,2.1308838288
1531943822470514167,0.350250989199,0.0127343740314,2.1308838288
1531943822489244590,0.350250989199,0.0127343740314,2.1308838288
1531943822511514104,0.350250989199,0.0127343740314,2.1308838288
1531943822534636248,0.350250989199,0.0127343740314,2.1308838288
1531943822551422247,0.350250989199,0.0127343740314,2.1308838288
1531943822572920859,0.350250989199,0.0127343740314,2.1308838288
1531943822591221431,0.350250989199,0.0127343740314,2.1308838288
1531943822612943272,0.350250989199,0.0127343740314,2.1308838288
1531943822632816177,0.492407619953,0.0443128943443,2.0340963463
1531943822657498301,0.492407619953,0.0443128943443,2.0340963463
1531943822670721208,0.492407619953,0.0443128943443,2.0340963463
1531943822691012155,0.492407619953,0.0443128943443,2.0340963463
1531943822708855837,0.492407619953,0.0443128943443,2.0340963463
1531943822731321925,0.492407619953,0.0443128943443,2.0340963463
1531943822753875692,0.492407619953,0.0443128943443,2.0340963463
1531943822770798169,0.492407619953,0.0443128943443,2.0340963463
1531943822796873428,0.492407619953,0.0443128943443,2.0340963463
1531943822809233594,0.492407619953,0.0443128943443,2.0340963463
1531943822832045854,0.492407619953,0.0443128943443,2.0340963463
1531943822854420647,0.492407619953,0.0443128943443,2.0340963463
1531943822869498795,0.492407619953,0.0443128943443,2.0340963463
1531943822892474221,0.492407619953,0.0443128943443,2.0340963463
1531943822916799934,0.672918856144,0.0401516035199,1.91080419818
1531943822929379809,0.672918856144,0.0401516035199,1.91080419818
1531943822950079263,0.672918856144,0.0401516035199,1.91080419818
1531943822971615091,0.672918856144,0.0401516035199,1.91080419818
1531943822993841086,0.672918856144,0.0401516035199,1.91080419818
1531943823010186642,0.672918856144,0.0401516035199,1.91080419818
1531943823033140053,0.672918856144,0.0401516035199,1.91080419818
1531943823052542116,0.672918856144,0.0401516035199,1.91080419818
1531943823073914010,0.672918856144,0.0401516035199,1.91080419818
1531943823091695357,0.672918856144,0.0401516035199,1.91080419818
1531943823111500614,0.672918856144,0.0401516035199,1.91080419818
1531943823133498485,0.672918856144,0.0401516035199,1.91080419818
1531943823153904855,0.672918856144,0.0401516035199,1.91080419818
1531943823175866694,0.672918856144,0.0401516035199,1.91080419818
1531943823193545610,0.672918856144,0.0401516035199,1.91080419818
1531943823212135331,0.672918856144,0.0401516035199,1.91080419818
1531943823230808603,0.672918856144,0.0401516035199,1.91080419818
1531943823254779409,0.672918856144,0.0401516035199,1.91080419818
1531943823271041575,0.672918856144,0.0401516035199,1.91080419818
1531943823289716958,0.672918856144,0.0401516035199,1.91080419818
1531943823311516623,0.672918856144,0.0401516035199,1.91080419818
1531943823329629038,0.672918856144,0.0401516035199,1.91080419818
1531943823350166767,0.672918856144,0.0401516035199,1.91080419818
1531943823373512620,0.672918856144,0.0401516035199,1.91080419818
1531943823391714506,0.710447788239,0.0600836724043,1.74138510326
1531943823411913295,0.710447788239,0.0600836724043,1.74138510326
1531943823432843691,0.710447788239,0.0600836724043,1.74138510326
1531943823453481610,0.710447788239,0.0600836724043,1.74138510326
1531943823472825721,0.710447788239,0.0600836724043,1.74138510326
1531943823491243956,0.710447788239,0.0600836724043,1.74138510326
1531943823508514814,0.710447788239,0.0600836724043,1.74138510326
1531943823533395464,0.710447788239,0.0600836724043,1.74138510326
1531943823551992961,0.710447788239,0.0600836724043,1.74138510326
1531943823570517531,0.710447788239,0.0600836724043,1.74138510326
1531943823591566933,0.710447788239,0.0600836724043,1.74138510326
1531943823610587080,0.710447788239,0.0600836724043,1.74138510326
1531943823631470213,0.724021911621,0.0947916060686,1.54280275578
1531943823654914561,0.724021911621,0.0947916060686,1.54280275578
1531943823674444206,0.724021911621,0.0947916060686,1.54280275578
1531943823691639576,0.724021911621,0.0947916060686,1.54280275578
1531943823710732363,0.724021911621,0.0947916060686,1.54280275578
1531943823733253075,0.724021911621,0.0947916060686,1.54280275578
1531943823754482763,0.724021911621,0.0947916060686,1.54280275578
1531943823773946777,0.724021911621,0.0947916060686,1.54280275578
1531943823793335272,0.724021911621,0.0947916060686,1.54280275578
1531943823809973081,0.724021911621,0.0947916060686,1.54280275578
1531943823831808841,0.724021911621,0.0947916060686,1.54280275578
1531943823850135781,0.724021911621,0.0947916060686,1.54280275578
1531943823870337642,0.724021911621,0.0947916060686,1.54280275578
1531943823891454308,0.724021911621,0.0947916060686,1.54280275578
1531943823910047132,0.724021911621,0.0947916060686,1.54280275578
1531943823931023992,0.724021911621,0.0947916060686,1.54280275578
1531943823953541024,0.724021911621,0.0947916060686,1.54280275578
1531943823974073568,0.724021911621,0.0947916060686,1.54280275578
1531943823996378283,0.724021911621,0.0947916060686,1.54280275578
1531943824016005719,0.724021911621,0.0947916060686,1.54280275578
1531943824032789831,0.724021911621,0.0947916060686,1.54280275578
1531943824052701424,0.724021911621,0.0947916060686,1.54280275578
1531943824073273136,0.724021911621,0.0947916060686,1.54280275578
1531943824090813463,0.724021911621,0.0947916060686,1.54280275578
1531943824111239833,0.724021911621,0.0947916060686,1.54280275578
1531943824129765651,0.724021911621,0.0947916060686,1.54280275578
1531943824150170646,0.77978926897,0.0530669502914,1.30368949572
1531943824171437518,0.77978926897,0.0530669502914,1.30368949572
1531943824191280215,0.77978926897,0.0530669502914,1.30368949572
1531943824213846623,0.77978926897,0.0530669502914,1.30368949572
1531943824230403346,0.77978926897,0.0530669502914,1.30368949572
1531943824255811478,0.77978926897,0.0530669502914,1.30368949572
1531943824272698085,0.77978926897,0.0530669502914,1.30368949572
1531943824292722028,0.77978926897,0.0530669502914,1.30368949572
1531943824309105281,0.77978926897,0.0530669502914,1.30368949572
1531943824332978873,0.77978926897,0.0530669502914,1.30368949572
1531943824353143678,0.77978926897,0.0530669502914,1.30368949572
1531943824373197861,0.77978926897,0.0530669502914,1.30368949572
1531943824391908285,0.77978926897,0.0530669502914,1.30368949572
1531943824410763059,0.77978926897,0.0530669502914,1.30368949572
1531943824431836973,0.77978926897,0.0530669502914,1.30368949572
1531943824452853129,0.77978926897,0.0530669502914,1.30368949572
1531943824472492373,0.77978926897,0.0530669502914,1.30368949572
1531943824499719107,0.77978926897,0.0530669502914,1.30368949572
1531943824509305612,0.77978926897,0.0530669502914,1.30368949572
1531943824529585008,0.77978926897,0.0530669502914,1.30368949572
1531943824550293455,0.77978926897,0.0530669502914,1.30368949572
1531943824571275659,0.77978926897,0.0530669502914,1.30368949572
1531943824592789088,0.77978926897,0.0530669502914,1.30368949572
1531943824616590360,0.800733745098,0.00576483458281,1.06904424826
1531943824628910175,0.800733745098,0.00576483458281,1.06904424826
1531943824652274653,0.800733745098,0.00576483458281,1.06904424826
1531943824671212786,0.800733745098,0.00576483458281,1.06904424826
1531943824692361612,0.800733745098,0.00576483458281,1.06904424826
1531943824710963813,0.800733745098,0.00576483458281,1.06904424826
1531943824730494866,0.800733745098,0.00576483458281,1.06904424826
1531943824754502408,0.800733745098,0.00576483458281,1.06904424826
1531943824771915248,0.800733745098,0.00576483458281,1.06904424826
1531943824792937035,0.800733745098,0.00576483458281,1.06904424826
1531943824814357025,0.800733745098,0.00576483458281,1.06904424826
1531943824828356500,0.800733745098,0.00576483458281,1.06904424826
1531943824852415465,0.800733745098,0.00576483458281,1.06904424826
1531943824875065520,0.800733745098,0.00576483458281,1.06904424826
1531943824892042717,0.800733745098,0.00576483458281,1.06904424826
1531943824901441768,0.800733745098,0.00576483458281,1.06904424826
1531943824929703626,0.800733745098,0.00576483458281,1.06904424826
1531943824950048685,0.800733745098,0.00576483458281,1.06904424826
1531943824971882590,0.800733745098,0.00576483458281,1.06904424826
1531943824993779950,0.800733745098,0.00576483458281,1.06904424826
1531943825010446559,0.800733745098,0.00576483458281,1.06904424826
1531943825033265349,0.800733745098,0.00576483458281,1.06904424826
1531943825053593001,0.800733745098,0.00576483458281,1.06904424826
1531943825069739905,0.800733745098,0.00576483458281,1.06904424826
1531943825099560624,0.800733745098,0.00576483458281,1.06904424826
1531943825109611283,0.800733745098,0.00576483458281,1.06904424826
1531943825130563312,0.800733745098,0.00576483458281,1.06904424826
1531943825141394633,0.837059795856,-0.0239556897432,0.81060357491
1531943825173143072,0.837059795856,-0.0239556897432,0.81060357491
1531943825197314037,0.837059795856,-0.0239556897432,0.81060357491
1531943825212157725,0.837059795856,-0.0239556897432,0.81060357491
1531943825231618956,0.837059795856,-0.0239556897432,0.81060357491
1531943825254180020,0.837059795856,-0.0239556897432,0.81060357491
1531943825274587704,0.837059795856,-0.0239556897432,0.81060357491
1531943825292603928,0.837059795856,-0.0239556897432,0.81060357491
1531943825317688098,0.837059795856,-0.0239556897432,0.81060357491
1531943825329709645,0.837059795856,-0.0239556897432,0.81060357491
1531943825340886050,0.837059795856,-0.0239556897432,0.81060357491
1531943825361046729,0.837059795856,-0.0239556897432,0.81060357491
1531943825381066577,0.837059795856,-0.0239556897432,0.81060357491
1531943825401351861,0.837059795856,-0.0239556897432,0.81060357491
1531943825420878052,0.837059795856,-0.0239556897432,0.81060357491
1531943825441036266,0.837059795856,-0.0239556897432,0.81060357491
1531943825461383694,0.837059795856,-0.0239556897432,0.81060357491
1531943825481320567,0.837059795856,-0.0239556897432,0.81060357491
1531943825502737070,0.837059795856,-0.0239556897432,0.81060357491
1531943825522095806,0.837059795856,-0.0239556897432,0.81060357491
1531943825541051699,0.837059795856,-0.0239556897432,0.81060357491
1531943825561435959,0.837059795856,-0.0239556897432,0.81060357491
1531943825582724751,0.837059795856,-0.0239556897432,0.81060357491
1531943825605673683,0.837059795856,-0.0239556897432,0.81060357491
1531943825622425571,0.774215817451,-0.0567714422941,0.576013998189
1531943825641881682,0.774215817451,-0.0567714422941,0.576013998189
1531943825661984569,0.774215817451,-0.0567714422941,0.576013998189
1531943825681775748,0.774215817451,-0.0567714422941,0.576013998189
1531943825702513379,0.774215817451,-0.0567714422941,0.576013998189
1531943825722108528,0.774215817451,-0.0567714422941,0.576013998189
1531943825741472928,0.774215817451,-0.0567714422941,0.576013998189
1531943825760964175,0.774215817451,-0.0567714422941,0.576013998189
1531943825781375890,0.774215817451,-0.0567714422941,0.576013998189
1531943825801294715,0.774215817451,-0.0567714422941,0.576013998189
1531943825821065543,0.774215817451,-0.0567714422941,0.576013998189
1531943825841668519,0.774215817451,-0.0567714422941,0.576013998189
1531943825861163382,0.774215817451,-0.0567714422941,0.576013998189
1531943825881133279,0.662832856178,-0.0951453372836,0.388413743177
1531943825901256997,0.662832856178,-0.0951453372836,0.388413743177
1531943825922381408,0.662832856178,-0.0951453372836,0.388413743177
1531943825941171127,0.662832856178,-0.0951453372836,0.388413743177
1531943825962024693,0.662832856178,-0.0951453372836,0.388413743177
1531943825981184903,0.662832856178,-0.0951453372836,0.388413743177
1531943826001434348,0.662832856178,-0.0951453372836,0.388413743177
1531943826021391350,0.662832856178,-0.0951453372836,0.388413743177
1531943826041427518,0.662832856178,-0.0951453372836,0.388413743177
1531943826062656536,0.662832856178,-0.0951453372836,0.388413743177
1531943826081703820,0.662832856178,-0.0951453372836,0.388413743177
1531943826102030769,0.56087321043,-0.139283761382,0.284433201947
1531943826122380213,0.56087321043,-0.139283761382,0.284433201947
1531943826140865873,0.56087321043,-0.139283761382,0.284433201947
1531943826160939257,0.56087321043,-0.139283761382,0.284433201947
1531943826181026208,0.56087321043,-0.139283761382,0.284433201947
1531943826201736256,0.56087321043,-0.139283761382,0.284433201947
1531943826221451053,0.56087321043,-0.139283761382,0.284433201947
1531943826241023003,0.56087321043,-0.139283761382,0.284433201947
1531943826261576445,0.56087321043,-0.139283761382,0.284433201947
1531943826281190026,0.56087321043,-0.139283761382,0.284433201947
1531943826301939498,0.56087321043,-0.139283761382,0.284433201947
1531943826321524024,0.56087321043,-0.139283761382,0.284433201947
1531943826341329955,0.56087321043,-0.139283761382,0.284433201947
1531943826361452042,0.56087321043,-0.139283761382,0.284433201947
1531943826381274901,0.56087321043,-0.139283761382,0.284433201947
1531943826404035516,0.56087321043,-0.139283761382,0.284433201947
1531943826425132055,0.56087321043,-0.139283761382,0.284433201947
1531943826441538700,0.56087321043,-0.139283761382,0.284433201947
1531943826461153242,0.56087321043,-0.139283761382,0.284433201947
1531943826481217474,0.56087321043,-0.139283761382,0.284433201947
1531943826501119724,0.56087321043,-0.139283761382,0.284433201947
1531943826526519730,0.56087321043,-0.139283761382,0.284433201947
1531943826541861140,0.56087321043,-0.139283761382,0.284433201947
1531943826561338916,0.56087321043,-0.139283761382,0.284433201947
1531943826581128655,0.306644588709,-0.145032897592,0.173315838971
1531943826601218135,0.306644588709,-0.145032897592,0.173315838971
1531943826621254047,0.306644588709,-0.145032897592,0.173315838971
1531943826641256552,0.306644588709,-0.145032897592,0.173315838971
1531943826664390250,0.306644588709,-0.145032897592,0.173315838971
1531943826681826834,0.306644588709,-0.145032897592,0.173315838971
1531943826701983705,0.306644588709,-0.145032897592,0.173315838971
1531943826721073613,0.306644588709,-0.145032897592,0.173315838971
1531943826741510385,0.306644588709,-0.145032897592,0.173315838971
1531943826761938868,0.306644588709,-0.145032897592,0.173315838971
1531943826781357220,0.306644588709,-0.145032897592,0.173315838971
1531943826801581642,0.306644588709,-0.145032897592,0.173315838971
1531943826821261495,0.306644588709,-0.145032897592,0.173315838971
1531943826840867396,0.306644588709,-0.145032897592,0.173315838971
1531943826861380519,0.306644588709,-0.145032897592,0.173315838971
1531943826883038523,0.306644588709,-0.145032897592,0.173315838971
1531943826901101788,0.306644588709,-0.145032897592,0.173315838971
1531943826921707901,0.306644588709,-0.145032897592,0.173315838971
1531943826941592359,0.306644588709,-0.145032897592,0.173315838971
1531943826961456914,0.306644588709,-0.145032897592,0.173315838971
1531943826984622515,0.306644588709,-0.145032897592,0.173315838971
1531943827002793907,0.306644588709,-0.145032897592,0.173315838971
1531943827021151408,0.306644588709,-0.145032897592,0.173315838971
1531943827040856349,0.306644588709,-0.145032897592,0.173315838971
1531943827064038783,0.306644588709,-0.145032897592,0.173315838971
1531943827080925071,0.0827152580023,-0.144260898232,0.104677156606
1531943827101075287,0.0827152580023,-0.144260898232,0.104677156606
1531943827121726296,0.0827152580023,-0.144260898232,0.104677156606
1531943827141021162,0.0827152580023,-0.144260898232,0.104677156606
1531943827161189617,0.0827152580023,-0.144260898232,0.104677156606
1531943827182095087,0.0827152580023,-0.144260898232,0.104677156606
1531943827201249635,0.0827152580023,-0.144260898232,0.104677156606
1531943827222453693,0.0827152580023,-0.144260898232,0.104677156606
1531943827241397140,0.0827152580023,-0.144260898232,0.104677156606
1531943827261669818,0.0827152580023,-0.144260898232,0.104677156606
1531943827281300008,0.0827152580023,-0.144260898232,0.104677156606
1531943827301187122,0.0827152580023,-0.144260898232,0.104677156606
1531943827322241327,0.0827152580023,-0.144260898232,0.104677156606
1531943827340982407,-0.0515082888305,-0.13400426507,0.0850085775044
1531943827360900754,-0.0515082888305,-0.13400426507,0.0850085775044
1531943827380975642,-0.0515082888305,-0.13400426507,0.0850085775044
1531943827401368127,-0.0515082888305,-0.13400426507,0.0850085775044
1531943827421521926,-0.0515082888305,-0.13400426507,0.0850085775044
1531943827441827916,-0.0515082888305,-0.13400426507,0.0850085775044
1531943827461339643,-0.0515082888305,-0.13400426507,0.0850085775044
1531943827481034088,-0.0515082888305,-0.13400426507,0.0850085775044
1531943827501404557,-0.0515082888305,-0.13400426507,0.0850085775044
1531943827521233784,-0.0515082888305,-0.13400426507,0.0850085775044
1531943827541830874,-0.0515082888305,-0.13400426507,0.0850085775044
1531943827561436232,-0.0515082888305,-0.13400426507,0.0850085775044
1531943827581341907,-0.0515082888305,-0.13400426507,0.0850085775044
1531943827601937237,-0.0515082888305,-0.13400426507,0.0850085775044
1531943827622613910,-0.0515082888305,-0.13400426507,0.0850085775044
1531943827642520032,-0.0515082888305,-0.13400426507,0.0850085775044
1531943827663110594,-0.0515082888305,-0.13400426507,0.0850085775044
1531943827680907527,-0.0515082888305,-0.13400426507,0.0850085775044
1531943827700998991,-0.0515082888305,-0.13400426507,0.0850085775044
1531943827721676976,-0.0515082888305,-0.13400426507,0.0850085775044
1531943827741156895,-0.0515082888305,-0.13400426507,0.0850085775044
1531943827761101769,-0.0515082888305,-0.13400426507,0.0850085775044
1531943827781041683,-0.0515082888305,-0.13400426507,0.0850085775044
1531943827802954149,-0.0515082888305,-0.13400426507,0.0850085775044
1531943827820868936,-0.138540253043,-0.109722979367,0.108684019246
1531943827840911089,-0.138540253043,-0.109722979367,0.108684019246
1531943827861889134,-0.138540253043,-0.109722979367,0.108684019246
1531943827881007170,-0.138540253043,-0.109722979367,0.108684019246
1531943827904112581,-0.138540253043,-0.109722979367,0.108684019246
1531943827921732620,-0.138540253043,-0.109722979367,0.108684019246
1531943827941225212,-0.138540253043,-0.109722979367,0.108684019246
1531943827961737055,-0.138540253043,-0.109722979367,0.108684019246
1531943827981459595,-0.138540253043,-0.109722979367,0.108684019246
1531943828001135161,-0.138540253043,-0.109722979367,0.108684019246
1531943828021672988,-0.138540253043,-0.109722979367,0.108684019246
1531943828040961966,-0.138540253043,-0.109722979367,0.108684019246
1531943828061251349,-0.138540253043,-0.109722979367,0.108684019246
1531943828081041153,-0.138540253043,-0.109722979367,0.108684019246
1531943828101115914,-0.138540253043,-0.109722979367,0.108684019246
1531943828121184499,-0.138540253043,-0.109722979367,0.108684019246
1531943828140923840,-0.138540253043,-0.109722979367,0.108684019246
1531943828161211046,-0.138540253043,-0.109722979367,0.108684019246
1531943828183293622,-0.138540253043,-0.109722979367,0.108684019246
1531943828201705107,-0.138540253043,-0.109722979367,0.108684019246
1531943828221220259,-0.138540253043,-0.109722979367,0.108684019246
1531943828244229768,-0.138540253043,-0.109722979367,0.108684019246
1531943828261561394,-0.138540253043,-0.109722979367,0.108684019246
1531943828281083650,-0.138540253043,-0.109722979367,0.108684019246
1531943828308426961,-0.138540253043,-0.109722979367,0.108684019246
1531943828326177143,-0.175121814013,-0.0779328420758,0.149160937467
1531943828341024064,-0.175121814013,-0.0779328420758,0.149160937467
1531943828361269607,-0.175121814013,-0.0779328420758,0.149160937467
1531943828381115346,-0.175121814013,-0.0779328420758,0.149160937467
1531943828401725717,-0.175121814013,-0.0779328420758,0.149160937467
1531943828421412802,-0.175121814013,-0.0779328420758,0.149160937467
1531943828441233454,-0.175121814013,-0.0779328420758,0.149160937467
1531943828461715378,-0.175121814013,-0.0779328420758,0.149160937467
1531943828481083939,-0.175121814013,-0.0779328420758,0.149160937467
1531943828501419113,-0.175121814013,-0.0779328420758,0.149160937467
1531943828524126386,-0.175121814013,-0.0779328420758,0.149160937467
1531943828541150784,-0.175121814013,-0.0779328420758,0.149160937467
1531943828560848621,-0.175121814013,-0.0779328420758,0.149160937467
1531943828580976758,-0.175121814013,-0.0779328420758,0.149160937467
1531943828601768086,-0.175121814013,-0.0779328420758,0.149160937467
1531943828621382788,-0.175121814013,-0.0779328420758,0.149160937467
1531943828641222032,-0.175121814013,-0.0779328420758,0.149160937467
1531943828661228377,-0.175121814013,-0.0779328420758,0.149160937467
1531943828681076357,-0.175121814013,-0.0779328420758,0.149160937467
1531943828701219117,-0.175121814013,-0.0779328420758,0.149160937467
1531943828722067980,-0.175121814013,-0.0779328420758,0.149160937467
1531943828740976196,-0.175121814013,-0.0779328420758,0.149160937467
1531943828761069996,-0.175121814013,-0.0779328420758,0.149160937467
1531943828781212404,-0.175121814013,-0.0779328420758,0.149160937467
1531943828801589625,-0.175121814013,-0.0779328420758,0.149160937467
1531943828821596067,-0.225323006511,-0.03116995655,0.178641752401
1531943828841828362,-0.225323006511,-0.03116995655,0.178641752401
1531943828862790408,-0.225323006511,-0.03116995655,0.178641752401
1531943828881650880,-0.225323006511,-0.03116995655,0.178641752401
1531943828901048593,-0.225323006511,-0.03116995655,0.178641752401
1531943828921343863,-0.225323006511,-0.03116995655,0.178641752401
1531943828941524190,-0.225323006511,-0.03116995655,0.178641752401
1531943828960930223,-0.225323006511,-0.03116995655,0.178641752401
1531943828981130519,-0.225323006511,-0.03116995655,0.178641752401
1531943829003656737,-0.225323006511,-0.03116995655,0.178641752401
1531943829022014560,-0.129814326763,-0.0162763800472,0.212219552198
