%time,field.header.seq,field.header.stamp,field.header.frame_id,field.twist.linear.x,field.twist.linear.y,field.twist.linear.z,field.twist.angular.x,field.twist.angular.y,field.twist.angular.z
1531943810933587063,1286,1531943810933254299,map,19.0866183839,-1.98924575298,0.0,0.0,0.0,0.0
1531943811143678844,1287,1531943811143058500,map,19.3153609971,-0.752149951671,0.0,0.0,0.0,0.0
1531943811338236330,1288,1531943811337205271,map,19.1467844152,-0.350922436235,0.0,0.0,0.0,0.0
1531943811549229158,1289,1531943811548014901,map,18.8737016613,-0.487632649174,0.0,0.0,0.0,0.0
1531943811742729793,1290,1531943811741930763,map,18.3552743072,-0.416539444396,0.0,0.0,0.0,0.0
1531943811969410004,1291,1531943811968449121,map,17.8698911298,-0.06237794079,0.0,0.0,0.0,0.0
1531943812166616516,1292,1531943812166114795,map,17.5449795128,0.726150049653,0.0,0.0,0.0,0.0
1531943812372778211,1293,1531943812372240394,map,17.3775601279,1.69469879331,0.0,0.0,0.0,0.0
1531943812555485389,1294,1531943812554350491,map,17.3391308072,2.51096452632,0.0,0.0,0.0,0.0
1531943812733337076,1295,1531943812732904026,map,16.9698378928,3.56373426241,0.0,0.0,0.0,0.0
1531943812938673342,1296,1531943812937755753,map,16.5334424864,5.09266919683,0.0,0.0,0.0,0.0
1531943813140514904,1297,1531943813138976523,map,16.1680533306,6.90293064561,0.0,0.0,0.0,0.0
1531943813374136320,1298,1531943813373047982,map,15.244762591,9.18897238774,0.0,0.0,0.0,0.0
1531943813546299925,1299,1531943813545922426,map,13.8618499873,11.5451598053,0.0,0.0,0.0,0.0
1531943813812202595,1300,1531943813810908371,map,12.1781770357,13.5252358237,0.0,0.0,0.0,0.0
1531943813938696956,1301,1531943813934880653,map,10.2675862843,15.256761514,0.0,0.0,0.0,0.0
1531943814139874308,1302,1531943814139022351,map,8.18142719986,16.8041765336,0.0,0.0,0.0,0.0
1531943814342578330,1303,1531943814341689318,map,5.72542283804,17.8754701568,0.0,0.0,0.0,0.0
1531943814540680235,1304,1531943814537613426,map,2.99280955612,18.5602556814,0.0,0.0,0.0,0.0
1531943814758296836,1305,1531943814757736203,map,-0.321714816595,18.8072485913,0.0,0.0,0.0,0.0
1531943814939933637,1306,1531943814932618242,map,-3.17265501721,18.5607963229,0.0,0.0,0.0,0.0
1531943815144586599,1307,1531943815140073280,map,-5.81875282104,17.9189206039,0.0,0.0,0.0,0.0
1531943815360330845,1308,1531943815359907427,map,-8.27250745506,16.5920830641,0.0,0.0,0.0,0.0
1531943815539884254,1309,1531943815539282437,map,-10.2219611188,14.900886245,0.0,0.0,0.0,0.0
1531943815737527929,1310,1531943815733057746,map,-11.7188186263,13.1714156416,0.0,0.0,0.0,0.0
1531943815967253663,1311,1531943815966916291,map,-12.3446799491,11.6005377873,0.0,0.0,0.0,0.0
1531943816147509915,1312,1531943816143149042,map,-12.5264951926,10.6007083816,0.0,0.0,0.0,0.0
1531943816341160559,1313,1531943816340126492,map,-12.3548798448,9.68746323971,0.0,0.0,0.0,0.0
1531943816543159385,1314,1531943816542262725,map,-12.0164433528,9.11106410631,0.0,0.0,0.0,0.0
1531943816749056915,1315,1531943816748118750,map,-11.7187666862,8.80829764231,0.0,0.0,0.0,0.0
1531943816981020547,1316,1531943816980555017,map,-11.479377106,8.54400381893,0.0,0.0,0.0,0.0
1531943817146192354,1317,1531943817145082512,map,-11.1256820153,8.58030883446,0.0,0.0,0.0,0.0
1531943817366639049,1318,1531943817366304845,map,-10.6984684698,8.6851121122,0.0,0.0,0.0,0.0
1531943817534067148,1319,1531943817533435892,map,-10.3843838063,8.68885337449,0.0,0.0,0.0,0.0
1531943817776293409,1320,1531943817775883367,map,-10.1580345282,8.8614183133,0.0,0.0,0.0,0.0
1531943817975263959,1321,1531943817974557728,map,-10.0731569855,8.92765973504,0.0,0.0,0.0,0.0
1531943818145137119,1322,1531943818144717477,map,-9.95031225403,8.97503682707,0.0,0.0,0.0,0.0
1531943818351837369,1323,1531943818350992100,map,-9.88101158443,9.00680354335,0.0,0.0,0.0,0.0
1531943818560339261,1324,1531943818559634150,map,-9.93239326383,9.21683590244,0.0,0.0,0.0,0.0
1531943818737090863,1325,1531943818736755315,map,-9.91446985516,9.38220589686,0.0,0.0,0.0,0.0
1531943818953863210,1326,1531943818953375184,map,-9.90982391372,9.6469834663,0.0,0.0,0.0,0.0
1531943819127732100,1327,1531943819126234263,map,-9.97062856913,9.77078123471,0.0,0.0,0.0,0.0
1531943819357471203,1328,1531943819356766219,map,-10.0671750825,9.87228372055,0.0,0.0,0.0,0.0
1531943819570479251,1329,1531943819569801659,map,-10.2634622162,10.05774544,0.0,0.0,0.0,0.0
1531943819768764028,1330,1531943819768368481,map,-10.395623158,10.2086198458,0.0,0.0,0.0,0.0
1531943819938091760,1331,1531943819937415544,map,-10.5546247693,10.3178241882,0.0,0.0,0.0,0.0
1531943820141201536,1332,1531943820139532053,map,-10.6583714988,10.4119698902,0.0,0.0,0.0,0.0
1531943820338871639,1333,1531943820338432284,map,-10.6014641806,10.4983502146,0.0,0.0,0.0,0.0
1531943820526037521,1334,1531943820525594614,map,-10.6290908405,10.4561239427,0.0,0.0,0.0,0.0
1531943820759593894,1335,1531943820759033965,map,-10.5035349376,10.6104030939,0.0,0.0,0.0,0.0
1531943820930970022,1336,1531943820930625962,map,-10.3852498191,10.586571031,0.0,0.0,0.0,0.0
1531943821134958288,1337,1531943821133872254,map,-10.1225337364,10.6594704725,0.0,0.0,0.0,0.0
1531943821355314353,1338,1531943821354566042,map,-9.84967472606,10.7905517834,0.0,0.0,0.0,0.0
1531943821514433038,1339,1531943821514106706,map,-9.41550678411,10.9349500227,0.0,0.0,0.0,0.0
1531943821800361275,1340,1531943821799438311,map,-8.97894537751,11.1039155215,0.0,0.0,0.0,0.0
1531943821910314270,1341,1531943821909663238,map,-8.50177855813,11.2986442261,0.0,0.0,0.0,0.0
1531943822178628300,1342,1531943822177827222,map,-8.10839592003,11.4986440768,0.0,0.0,0.0,0.0
1531943822339081437,1343,1531943822338803424,map,-7.61941434263,11.7688115405,0.0,0.0,0.0,0.0
1531943822540397296,1344,1531943822539802616,map,-6.92992817498,12.0954411036,0.0,0.0,0.0,0.0
1531943822744198437,1345,1531943822743661195,map,-5.94151737238,12.6435466272,0.0,0.0,0.0,0.0
1531943822931418856,1346,1531943822931062796,map,-4.86410484273,13.2131330153,0.0,0.0,0.0,0.0
1531943823130027776,1347,1531943823129532230,map,-3.60161461424,13.7873446381,0.0,0.0,0.0,0.0
1531943823329556207,1348,1531943823329030293,map,-2.37171947919,14.1425085014,0.0,0.0,0.0,0.0
1531943823529843540,1349,1531943823529367706,map,-0.971886731265,14.517504475,0.0,0.0,0.0,0.0
1531943823743095224,1350,1531943823742564671,map,0.523548565844,14.7707243187,0.0,0.0,0.0,0.0
1531943823975611341,1351,1531943823975213874,map,2.20237011022,14.8071086272,0.0,0.0,0.0,0.0
1531943824124520148,1352,1531943824123615295,map,4.10049689577,14.6468435237,0.0,0.0,0.0,0.0
1531943824367755625,1353,1531943824366966163,map,6.04032949387,14.2094341761,0.0,0.0,0.0,0.0
1531943824538583744,1354,1531943824538330596,map,7.93966975906,13.5328394699,0.0,0.0,0.0,0.0
1531943824739152039,1355,1531943824738887594,map,9.63852165515,12.620352622,0.0,0.0,0.0,0.0
1531943824934921513,1356,1531943824933904309,map,11.3769110842,11.5047074792,0.0,0.0,0.0,0.0
1531943825139446722,1357,1531943825138961960,map,13.2114393535,9.90141253599,0.0,0.0,0.0,0.0
1531943825403525403,1358,1531943825402272746,map,14.5393045218,8.5165206523,0.0,0.0,0.0,0.0
1531943825585739721,1359,1531943825584678359,map,15.6052804582,6.84374326078,0.0,0.0,0.0,0.0
1531943825779612808,1360,1531943825778847441,map,16.4180293827,4.9568953176,0.0,0.0,0.0,0.0
1531943826046766780,1361,1531943826045994950,map,16.9508818041,3.2519541915,0.0,0.0,0.0,0.0
1531943826141031343,1362,1531943826140105114,map,17.1314817563,1.83990022379,0.0,0.0,0.0,0.0
1531943826369317449,1363,1531943826368794096,map,17.1139558151,0.741226253307,0.0,0.0,0.0,0.0
1531943826542815209,1364,1531943826542445709,map,16.8696852436,0.103052324771,0.0,0.0,0.0,0.0
1531943826733914126,1365,1531943826733406805,map,16.6750917228,-0.404618385227,0.0,0.0,0.0,0.0
1531943826975996958,1366,1531943826975075113,map,16.5221784484,-0.767606226194,0.0,0.0,0.0,0.0
1531943827179141876,1367,1531943827178577179,map,16.1910598811,-0.783377257029,0.0,0.0,0.0,0.0
1531943827342941231,1368,1531943827342063194,map,16.1122551514,-0.945956624861,0.0,0.0,0.0,0.0
1531943827563700300,1369,1531943827563218482,map,15.8852276867,-0.685230867652,0.0,0.0,0.0,0.0
1531943827746328512,1370,1531943827745375979,map,15.8195699923,-0.574547872288,0.0,0.0,0.0,0.0
1531943827960230481,1371,1531943827958909122,map,15.7047591684,-0.405757887634,0.0,0.0,0.0,0.0
1531943828172813687,1372,1531943828172188607,map,15.5998137207,-0.0762356782828,0.0,0.0,0.0,0.0
1531943828359327039,1373,1531943828359021762,map,15.5758026424,0.361624177454,0.0,0.0,0.0,0.0
1531943828539629715,1374,1531943828535958656,map,15.6117375658,0.755347719146,0.0,0.0,0.0,0.0
1531943828748343689,1375,1531943828747994701,map,15.6723028797,1.08766835339,0.0,0.0,0.0,0.0
1531943828990231527,1376,1531943828989527023,map,15.7189819356,1.26748053586,0.0,0.0,0.0,0.0
1531943829195843752,1377,1531943829194859828,map,15.8926897369,1.56949448124,0.0,0.0,0.0,0.0
1531943829347447586,1378,1531943829346814793,map,15.9984066976,1.80581924256,0.0,0.0,0.0,0.0
1531943829537842910,1379,1531943829536664685,map,16.1948989505,1.84803895564,0.0,0.0,0.0,0.0
1531943829741093981,1380,1531943829739008599,map,16.4376472599,1.92516299508,0.0,0.0,0.0,0.0
1531943829936066018,1381,1531943829935155181,map,16.5581823453,1.92756255952,0.0,0.0,0.0,0.0
1531943830145755349,1382,1531943830145438969,map,16.752897786,1.71056007541,0.0,0.0,0.0,0.0
1531943830338931189,1383,1531943830338572249,map,16.879076623,1.84855953499,0.0,0.0,0.0,0.0
1531943830550465555,1384,1531943830550190391,map,17.0954817663,1.48664157642,0.0,0.0,0.0,0.0
1531943830746897515,1385,1531943830746306034,map,17.1318651549,1.28514447193,0.0,0.0,0.0,0.0
1531943830937235598,1386,1531943830936728180,map,17.1397778455,1.0182904343,0.0,0.0,0.0,0.0
1531943831162121612,1387,1531943831161834768,map,17.2713783674,0.545792349356,0.0,0.0,0.0,0.0
1531943831371773190,1388,1531943831371224365,map,17.369079074,0.17886341666,0.0,0.0,0.0,0.0
1531943831565191655,1389,1531943831564879915,map,17.4193099026,-0.15505649384,0.0,0.0,0.0,0.0
1531943831768677229,1390,1531943831768284082,map,17.518578003,-0.223214590805,0.0,0.0,0.0,0.0
1531943831944548261,1391,1531943831943786414,map,17.4697102361,-0.100619420399,0.0,0.0,0.0,0.0
1531943832124022452,1392,1531943832123228509,map,17.4298938105,-0.0608420541673,0.0,0.0,0.0,0.0
1531943832368025296,1393,1531943832367686580,map,17.4697762244,-0.0884232383501,0.0,0.0,0.0,0.0
1531943832518670432,1394,1531943832518211718,map,17.4996351077,-0.113009283608,0.0,0.0,0.0,0.0
1531943832720347106,1395,1531943832719617643,map,17.5586517812,-0.217595100823,0.0,0.0,0.0,0.0
1531943832941495061,1396,1531943832940520065,map,17.5897588806,-0.0921006037947,0.0,0.0,0.0,0.0
1531943833139709668,1397,1531943833138877294,map,17.5492491546,-0.1623394852,0.0,0.0,0.0,0.0
1531943833377932076,1398,1531943833377032343,map,17.517933594,-0.269077303433,0.0,0.0,0.0,0.0
1531943833542942288,1399,1531943833542340536,map,17.4978410684,-0.274878052957,0.0,0.0,0.0,0.0
1531943833766167663,1400,1531943833765899475,map,17.4576502863,-0.286437568164,0.0,0.0,0.0,0.0
1531943833939550638,1401,1531943833939060116,map,17.3987745751,-0.206502509195,0.0,0.0,0.0,0.0
1531943834157168245,1402,1531943834156467773,map,17.4697275314,-0.0975703792524,0.0,0.0,0.0,0.0
1531943834336144019,1403,1531943834335322077,map,17.439871437,0.0669646281916,0.0,0.0,0.0,0.0
1531943834569200192,1404,1531943834568521192,map,17.3897616222,0.0910534110284,0.0,0.0,0.0,0.0
1531943834749122611,1405,1531943834748664024,map,17.3799735288,0.0303338069993,0.0,0.0,0.0,0.0
1531943834920962728,1406,1531943834919494298,map,17.3898474381,-0.0728428486445,0.0,0.0,0.0,0.0
1531943835116866811,1407,1531943835115947622,map,17.3491110517,-0.175629483037,0.0,0.0,0.0,0.0
1531943835378090200,1408,1531943835377768092,map,17.368431446,-0.233429015465,0.0,0.0,0.0,0.0
1531943835545703557,1409,1531943835545049069,map,17.446900049,-0.328905273034,0.0,0.0,0.0,0.0
1531943835739550419,1410,1531943835738959547,map,17.4447909967,-0.426341508764,0.0,0.0,0.0,0.0
1531943835950510802,1411,1531943835949413183,map,17.5898078758,-0.598881368838,0.0,0.0,0.0,0.0
1531943836182663892,1412,1531943836182032187,map,17.5740558238,-0.45712350686,0.0,0.0,0.0,0.0
1531943836349272305,1413,1531943836348542105,map,17.7455708032,-0.396505822436,0.0,0.0,0.0,0.0
1531943836545273993,1414,1531943836544727536,map,17.9583357691,-0.244492132167,0.0,0.0,0.0,0.0
1531943836777240590,1415,1531943836776513079,map,18.1496417345,-0.114039062975,0.0,0.0,0.0,0.0
1531943836926092002,1416,1531943836925651432,map,18.3799596882,-0.038494953839,0.0,0.0,0.0,0.0
1531943837146731252,1417,1531943837146074044,map,18.5192372725,0.168079880846,0.0,0.0,0.0,0.0
1531943837350967693,1418,1531943837350515635,map,18.6482272362,0.257139937609,0.0,0.0,0.0,0.0
1531943837542179716,1419,1531943837541790569,map,18.6840152382,0.472942466857,0.0,0.0,0.0,0.0
1531943837743676383,1420,1531943837739254997,map,18.654106972,0.468927580973,0.0,0.0,0.0,0.0
1531943837968676221,1421,1531943837967957126,map,18.733143046,0.506903953499,0.0,0.0,0.0,0.0
1531943838149735411,1422,1531943838149040987,map,18.4489784266,0.637804839773,0.0,0.0,0.0,0.0
1531943838370600744,1423,1531943838369984079,map,18.3996642893,0.616809566043,0.0,0.0,0.0,0.0
1531943838572670016,1424,1531943838571963689,map,18.3808245473,0.580851927353,0.0,0.0,0.0,0.0
1531943838796731759,1425,1531943838796027287,map,18.2814693764,0.558549406608,0.0,0.0,0.0,0.0
1531943838929604683,1426,1531943838928979698,map,18.2846951193,0.440482002726,0.0,0.0,0.0,0.0
1531943839112666795,1427,1531943839111588344,map,18.2481763125,0.257994702694,0.0,0.0,0.0,0.0
1531943839366748629,1428,1531943839366221275,map,18.2199456088,-0.0445198142589,0.0,0.0,0.0,0.0
1531943839538794043,1429,1531943839538203234,map,18.2780819959,-0.264799073814,0.0,0.0,0.0,0.0
1531943839736883688,1430,1531943839736086450,map,18.1464702481,-0.357935097789,0.0,0.0,0.0,0.0
1531943839942024416,1431,1531943839941231273,map,18.2484271595,-0.650004772645,0.0,0.0,0.0,0.0
1531943840169390000,1432,1531943840168934005,map,18.1628347964,-0.789830461661,0.0,0.0,0.0,0.0
1531943840340362247,1433,1531943840339880845,map,18.1456900742,-1.26887025741,0.0,0.0,0.0,0.0
1531943840538460760,1434,1531943840538030973,map,18.1357082327,-1.85175238567,0.0,0.0,0.0,0.0
1531943840751286968,1435,1531943840750594880,map,18.1117354111,-2.47455862666,0.0,0.0,0.0,0.0
1531943840942836984,1436,1531943840942593723,map,18.0588770805,-3.36657965762,0.0,0.0,0.0,0.0
1531943841170278059,1437,1531943841169157625,map,18.0426301225,-4.22189510327,0.0,0.0,0.0,0.0
1531943841376429056,1438,1531943841375038833,map,17.942704271,-5.08742208224,0.0,0.0,0.0,0.0
1531943841532175538,1439,1531943841531797943,map,17.8017277058,-5.88735854939,0.0,0.0,0.0,0.0
1531943841735262572,1440,1531943841734706355,map,17.5581862889,-6.91281377198,0.0,0.0,0.0,0.0
1531943841941969978,1441,1531943841941372641,map,17.1980783169,-8.16992669533,0.0,0.0,0.0,0.0
1531943842166274840,1442,1531943842165562177,map,16.6421441581,-9.65487637524,0.0,0.0,0.0,0.0
1531943842342369370,1443,1531943842341782625,map,15.8081141801,-11.6547469329,0.0,0.0,0.0,0.0
1531943842573364842,1444,1531943842572853200,map,15.0028097013,-12.8136099936,0.0,0.0,0.0,0.0
1531943842741716456,1445,1531943842740753684,map,14.3985479746,-13.4597888625,0.0,0.0,0.0,0.0
1531943842951191354,1446,1531943842950794558,map,13.4418111125,-14.3742865568,0.0,0.0,0.0,0.0
1531943843146845652,1447,1531943843146415033,map,12.3509737598,-15.7687776059,0.0,0.0,0.0,0.0
1531943843342193427,1448,1531943843340933858,map,10.7766571046,-17.0733640988,0.0,0.0,0.0,0.0
1531943843552651838,1449,1531943843552183811,map,9.04605706786,-18.0724362366,0.0,0.0,0.0,0.0
1531943843710521469,1450,1531943843709465802,map,7.13187859489,-18.824271771,0.0,0.0,0.0,0.0
1531943843945530786,1451,1531943843945226470,map,4.98879229152,-19.5433070761,0.0,0.0,0.0,0.0
1531943844138848221,1452,1531943844138278308,map,3.25924879051,-19.7731863219,0.0,0.0,0.0,0.0
1531943844341346603,1453,1531943844340326583,map,2.11777283964,-19.6864176071,0.0,0.0,0.0,0.0
1531943844570991061,1454,1531943844570523803,map,0.865064793182,-19.5008221084,0.0,0.0,0.0,0.0
1531943844751425323,1455,1531943844750975024,map,-0.395393842945,-19.1959283107,0.0,0.0,0.0,0.0
1531943844947972416,1456,1531943844947143530,map,-1.51214747668,-18.9597945666,0.0,0.0,0.0,0.0
1531943845150703855,1457,1531943845148450794,map,-2.47758842934,-18.4947872541,0.0,0.0,0.0,0.0
1531943845319710769,1458,1531943845317547051,map,-3.00790302914,-18.0713839915,0.0,0.0,0.0,0.0
1531943845513007217,1459,1531943845512182267,map,-3.22474985758,-17.7799293687,0.0,0.0,0.0,0.0
1531943845742068679,1460,1531943845741077651,map,-3.20364802772,-17.4381633011,0.0,0.0,0.0,0.0
1531943845926045879,1461,1531943845923568564,map,-3.13686073106,-17.1250753211,0.0,0.0,0.0,0.0
1531943846168801134,1462,1531943846168467506,map,-2.95889981581,-16.9537315031,0.0,0.0,0.0,0.0
1531943846366000004,1463,1531943846364716467,map,-2.68305044868,-16.8071901367,0.0,0.0,0.0,0.0
1531943846535897631,1464,1531943846535329190,map,-2.35647187734,-16.7248061361,0.0,0.0,0.0,0.0
1531943846790661513,1465,1531943846790282605,map,-1.91510258197,-16.7307495977,0.0,0.0,0.0,0.0
1531943846930932612,1466,1531943846930415146,map,-1.49837276638,-16.7230074763,0.0,0.0,0.0,0.0
1531943847169520402,1467,1531943847169152406,map,-1.03146876976,-16.7683055846,0.0,0.0,0.0,0.0
1531943847336184727,1468,1531943847335532895,map,-0.50132375561,-16.7925184083,0.0,0.0,0.0,0.0
1531943847574868741,1469,1531943847574375307,map,-0.170365659914,-16.8291376945,0.0,0.0,0.0,0.0
1531943847717873251,1470,1531943847717060525,map,0.097394069774,-16.9097195244,0.0,0.0,0.0,0.0
1531943847960165927,1471,1531943847955641788,map,0.292468015087,-17.0974987194,0.0,0.0,0.0,0.0
1531943848141230532,1472,1531943848133595838,map,0.433242845443,-17.2345554232,0.0,0.0,0.0,0.0
1531943848337394414,1473,1531943848336766582,map,0.463785323497,-17.3638072776,0.0,0.0,0.0,0.0
1531943848538432255,1474,1531943848537975141,map,0.447157319022,-17.5443025034,0.0,0.0,0.0,0.0
1531943848787371224,1475,1531943848786916222,map,0.506037074886,-17.7828014238,0.0,0.0,0.0,0.0
1531943848937683938,1476,1531943848934162156,map,0.371538176784,-17.8861415454,0.0,0.0,0.0,0.0
1531943849135651835,1477,1531943849135126977,map,0.332619836526,-17.9769230972,0.0,0.0,0.0,0.0
1531943849343995322,1478,1531943849343436256,map,0.218089326388,-18.1086867841,0.0,0.0,0.0,0.0
1531943849544592596,1479,1531943849544109978,map,0.136738281966,-18.2194868929,0.0,0.0,0.0,0.0
1531943849726831720,1480,1531943849725284986,map,-0.0636345752995,-18.2298889366,0.0,0.0,0.0,0.0
1531943849934816971,1481,1531943849933856887,map,-0.387929451845,-18.2158697498,0.0,0.0,0.0,0.0
1531943850117046178,1482,1531943850116719398,map,-0.561125857126,-18.2613810478,0.0,0.0,0.0,0.0
1531943850304947863,1483,1531943850304662106,map,-0.698658125393,-18.1865850787,0.0,0.0,0.0,0.0
1531943850510918838,1484,1531943850510092512,map,-0.799420345176,-18.0923471974,0.0,0.0,0.0,0.0
1531943850760158455,1485,1531943850759391616,map,-0.826467389009,-18.0611005106,0.0,0.0,0.0,0.0
1531943850945671944,1486,1531943850945115919,map,-0.879295856321,-17.9785104721,0.0,0.0,0.0,0.0
1531943851123959857,1487,1531943851123587478,map,-0.843370031457,-17.9501985223,0.0,0.0,0.0,0.0
1531943851348757879,1488,1531943851348112670,map,-0.733009000367,-18.0150936108,0.0,0.0,0.0,0.0
1531943851577462190,1489,1531943851575774018,map,-0.577632609086,-17.9807241392,0.0,0.0,0.0,0.0
1531943851737265618,1490,1531943851736576570,map,-0.441935588545,-17.9545618976,0.0,0.0,0.0,0.0
1531943851954785133,1491,1531943851945751000,map,-0.357322115121,-17.9564451077,0.0,0.0,0.0,0.0
1531943852122591349,1492,1531943852121661440,map,-0.258859926097,-17.8681250146,0.0,0.0,0.0,0.0
1531943852357790821,1493,1531943852357493449,map,-0.212317809741,-17.888740066,0.0,0.0,0.0,0.0
1531943852538619509,1494,1531943852538118235,map,-0.29789282073,-17.7775043206,0.0,0.0,0.0,0.0
1531943852750340858,1495,1531943852748591566,map,-0.504912322517,-17.8528614946,0.0,0.0,0.0,0.0
1531943852936106192,1496,1531943852935488151,map,-0.842543662887,-17.8000707913,0.0,0.0,0.0,0.0
1531943853117107488,1497,1531943853113561673,map,-1.19786004041,-17.799739642,0.0,0.0,0.0,0.0
1531943853388994021,1498,1531943853387454359,map,-1.69359292901,-17.8498359374,0.0,0.0,0.0,0.0
1531943853554214832,1499,1531943853553072605,map,-2.16819962082,-17.8387166131,0.0,0.0,0.0,0.0
1531943853731657323,1500,1531943853730820917,map,-2.82831965306,-17.8371580679,0.0,0.0,0.0,0.0
1531943853968608139,1501,1531943853968180752,map,-3.95244721959,-17.8578347225,0.0,0.0,0.0,0.0
1531943854138409539,1502,1531943854137950568,map,-5.01079070451,-17.7669236649,0.0,0.0,0.0,0.0
1531943854343317632,1503,1531943854342869381,map,-6.100476297,-17.5181816679,0.0,0.0,0.0,0.0
1531943854515285023,1504,1531943854514568199,map,-7.41837100144,-17.2418291282,0.0,0.0,0.0,0.0
1531943854749683298,1505,1531943854749193832,map,-8.78496743938,-16.6551267509,0.0,0.0,0.0,0.0
1531943854916397919,1506,1531943854916013443,map,-10.1616003245,-16.0306668247,0.0,0.0,0.0,0.0
1531943855152319411,1507,1531943855148243523,map,-11.4560547304,-15.1201755947,0.0,0.0,0.0,0.0
1531943855364979993,1508,1531943855364659037,map,-12.6164261222,-14.0859466101,0.0,0.0,0.0,0.0
1531943855568298060,1509,1531943855567533525,map,-13.9983075009,-12.5643737253,0.0,0.0,0.0,0.0
1531943855722057732,1510,1531943855721018032,map,-14.961760357,-11.2009743782,0.0,0.0,0.0,0.0
1531943855928420340,1511,1531943855924141286,map,-15.6906613569,-9.78178133999,0.0,0.0,0.0,0.0
1531943856159536741,1512,1531943856158851501,map,-16.3352428976,-8.33759194702,0.0,0.0,0.0,0.0
1531943856350431501,1513,1531943856347288306,map,-16.7549572857,-6.82052097393,0.0,0.0,0.0,0.0
1531943856539960102,1514,1531943856539510763,map,-17.0085121796,-5.34971152828,0.0,0.0,0.0,0.0
1531943856738163673,1515,1531943856737740670,map,-17.1758072982,-3.74807199168,0.0,0.0,0.0,0.0
1531943856917493352,1516,1531943856917103533,map,-17.2237057194,-2.39917929527,0.0,0.0,0.0,0.0
1531943857143141213,1517,1531943857142754978,map,-17.061809383,-1.14221739551,0.0,0.0,0.0,0.0
1531943857339660265,1518,1531943857338354488,map,-16.8283182104,-0.23792059432,0.0,0.0,0.0,0.0
1531943857543929497,1519,1531943857542150926,map,-16.5896844929,0.585122573117,0.0,0.0,0.0,0.0
1531943857711478806,1520,1531943857709520429,map,-16.1828231091,1.09755921066,0.0,0.0,0.0,0.0
1531943857948873444,1521,1531943857947878992,map,-15.8121082072,1.46684492865,0.0,0.0,0.0,0.0
1531943858173936166,1522,1531943858173585194,map,-15.5803833623,1.57710313031,0.0,0.0,0.0,0.0
1531943858361463197,1523,1531943858360627111,map,-15.2490689848,1.57314814831,0.0,0.0,0.0,0.0
1531943858534111970,1524,1531943858530465100,map,-15.0193279029,1.65284280692,0.0,0.0,0.0,0.0
1531943858745005481,1525,1531943858743137247,map,-14.8807387138,1.63233432024,0.0,0.0,0.0,0.0
1531943858943265028,1526,1531943858942440941,map,-14.7731907436,1.50842144417,0.0,0.0,0.0,0.0
1531943859216377498,1527,1531943859215088393,map,-14.6397329667,1.32974383375,0.0,0.0,0.0,0.0
1531943859340676181,1528,1531943859339844606,map,-14.6465080081,1.12955883826,0.0,0.0,0.0,0.0
1531943859546505787,1529,1531943859546176702,map,-14.713441188,0.884448080931,0.0,0.0,0.0,0.0
1531943859744842744,1530,1531943859744471740,map,-14.8476087563,0.606724170401,0.0,0.0,0.0,0.0
1531943859940806449,1531,1531943859939481312,map,-15.0563005312,0.333787829198,0.0,0.0,0.0,0.0
1531943860171168573,1532,1531943860170569604,map,-15.2996455592,0.104142992265,0.0,0.0,0.0,0.0
1531943860371679844,1533,1531943860369155362,map,-15.5096938459,-0.0974515629058,0.0,0.0,0.0,0.0
1531943860569293710,1534,1531943860568613974,map,-15.8057406788,-0.366962660177,0.0,0.0,0.0,0.0
1531943860755774232,1535,1531943860754569670,map,-16.1586168956,-0.606630052353,0.0,0.0,0.0,0.0
1531943860974427949,1536,1531943860973840500,map,-16.5293858882,-0.82577367216,0.0,0.0,0.0,0.0
1531943861194086971,1537,1531943861193460642,map,-16.8396991074,-1.16573323406,0.0,0.0,0.0,0.0
1531943861313811343,1538,1531943861313415156,map,-17.2955611828,-1.37334022412,0.0,0.0,0.0,0.0
1531943861521570312,1539,1531943861516142534,map,-17.4495883376,-1.67713053954,0.0,0.0,0.0,0.0
1531943861748257988,1540,1531943861747442382,map,-17.6544252429,-1.74036471531,0.0,0.0,0.0,0.0
1531943861984602897,1541,1531943861983869210,map,-17.6328501131,-1.65127129503,0.0,0.0,0.0,0.0
1531943862206015055,1542,1531943862205578996,map,-17.5674007916,-1.59875871469,0.0,0.0,0.0,0.0
1531943862334062533,1543,1531943862333439597,map,-17.4715537184,-1.43028342079,0.0,0.0,0.0,0.0
1531943862547938587,1544,1531943862546877031,map,-17.3537156767,-1.26828711789,0.0,0.0,0.0,0.0
1531943862751036333,1545,1531943862750507923,map,-17.3390651639,-1.03620424755,0.0,0.0,0.0,0.0
1531943862937447072,1546,1531943862936188398,map,-17.2933926708,-0.758069873234,0.0,0.0,0.0,0.0
1531943863137269754,1547,1531943863136885055,map,-17.3039889469,-0.45614309795,0.0,0.0,0.0,0.0
1531943863405617758,1548,1531943863404659913,map,-17.2694673525,-0.135636868348,0.0,0.0,0.0,0.0
1531943863565589126,1549,1531943863565279722,map,-17.2199905581,0.0180327385357,0.0,0.0,0.0,0.0
1531943863744050840,1550,1531943863743825403,map,-17.1788944715,0.194896736944,0.0,0.0,0.0,0.0
1531943863911894117,1551,1531943863911471498,map,-17.1570077563,0.320444767661,0.0,0.0,0.0,0.0
1531943864213246096,1552,1531943864212549496,map,-17.0909903359,0.555021924517,0.0,0.0,0.0,0.0
1531943864329780976,1553,1531943864328921306,map,-16.9899523771,0.584395606195,0.0,0.0,0.0,0.0
1531943864517361213,1554,1531943864516943681,map,-17.0048207448,0.718659472348,0.0,0.0,0.0,0.0
1531943864717620759,1555,1531943864716820864,map,-16.8481311602,0.632515935848,0.0,0.0,0.0,0.0
1531943864967098489,1556,1531943864966224868,map,-16.731542863,0.786112856256,0.0,0.0,0.0,0.0
1531943865171026285,1557,1531943865170643601,map,-16.6357579094,0.688519266897,0.0,0.0,0.0,0.0
1531943865375328444,1558,1531943865374622564,map,-16.6589106841,0.607943105,0.0,0.0,0.0,0.0
1531943865559068312,1559,1531943865558788955,map,-16.6157877239,0.374163487657,0.0,0.0,0.0,0.0
1531943865757738729,1560,1531943865757402828,map,-16.7276025267,0.283220246717,0.0,0.0,0.0,0.0
1531943865963148715,1561,1531943865962626289,map,-16.8080173354,0.258172914995,0.0,0.0,0.0,0.0
1531943866164048581,1562,1531943866163655913,map,-16.8390766521,0.176344844518,0.0,0.0,0.0,0.0
1531943866345861115,1563,1531943866345536735,map,-16.9190410838,0.180135519707,0.0,0.0,0.0,0.0
1531943866575825575,1564,1531943866575492427,map,-16.9293808852,0.14478551384,0.0,0.0,0.0,0.0
1531943866766382008,1565,1531943866765878430,map,-16.9099629122,0.0354161952893,0.0,0.0,0.0,0.0
1531943866967230675,1566,1531943866966947191,map,-16.9099907281,0.0177081073542,0.0,0.0,0.0,0.0
1531943867128170043,1567,1531943867127844383,map,-16.8599743208,-0.029426236249,0.0,0.0,0.0,0.0
1531943867391244240,1568,1531943867385682448,map,-16.8799874022,-0.0206228053112,0.0,0.0,0.0,0.0
1531943867551455265,1569,1531943867551187972,map,-16.758986846,-0.184282111641,0.0,0.0,0.0,0.0
1531943867739727792,1570,1531943867736608852,map,-16.7467999131,-0.327402915976,0.0,0.0,0.0,0.0
1531943867932083440,1571,1531943867931674773,map,-16.7654138569,-0.392171145525,0.0,0.0,0.0,0.0
1531943868137772378,1572,1531943868137274463,map,-16.7328897906,-0.487851672652,0.0,0.0,0.0,0.0
1531943868343840703,1573,1531943868343098248,map,-16.7409839506,-0.549505565805,0.0,0.0,0.0,0.0
1531943868539135361,1574,1531943868538900963,map,-16.7183319646,-0.624720995482,0.0,0.0,0.0,0.0
1531943868722222830,1575,1531943868721931377,map,-16.720994716,-0.548849439756,0.0,0.0,0.0,0.0
1531943868988128294,1576,1531943868987256976,map,-16.6753012947,-0.395887272553,0.0,0.0,0.0,0.0
1531943869131855033,1577,1531943869131447902,map,-16.537379108,-0.294435454595,0.0,0.0,0.0,0.0
1531943869380106784,1578,1531943869378987213,map,-16.4790963911,-0.172575002236,0.0,0.0,0.0,0.0
1531943869623698940,1579,1531943869622767943,map,-16.3299641843,0.034201447018,0.0,0.0,0.0,0.0
1531943869735974871,1580,1531943869735687547,map,-16.2198804305,0.0622801759901,0.0,0.0,0.0,0.0
1531943869936890684,1581,1531943869936569504,map,-16.0685488392,0.21595879554,0.0,0.0,0.0,0.0
1531943870118706333,1582,1531943870118069637,map,-15.9644542739,0.420832193776,0.0,0.0,0.0,0.0
1531943870368786228,1583,1531943870368385881,map,-15.8780738504,0.615524817139,0.0,0.0,0.0,0.0
1531943870543289642,1584,1531943870542535923,map,-15.8831246465,0.73236020165,0.0,0.0,0.0,0.0
1531943870728065291,1585,1531943870727296052,map,-15.7908544806,0.777826955792,0.0,0.0,0.0,0.0
1531943870918711561,1586,1531943870918376781,map,-15.7386884235,0.819320881758,0.0,0.0,0.0,0.0
1531943871153659023,1587,1531943871153138357,map,-15.7931279274,0.921688813476,0.0,0.0,0.0,0.0
1531943871339695813,1588,1531943871336651432,map,-15.8639697874,0.909154873784,0.0,0.0,0.0,0.0
1531943871535082352,1589,1531943871534657941,map,-15.9275544264,0.845878237968,0.0,0.0,0.0,0.0
1531943871741642652,1590,1531943871740206349,map,-15.9195865535,0.806451464823,0.0,0.0,0.0,0.0
1531943871929162433,1591,1531943871928561480,map,-15.9129645017,0.736519360798,0.0,0.0,0.0,0.0
1531943872135507858,1592,1531943872135182966,map,-15.8789178074,0.593354250939,0.0,0.0,0.0,0.0
1531943872378780031,1593,1531943872378165766,map,-15.8151416849,0.392037608029,0.0,0.0,0.0,0.0
1531943872515043568,1594,1531943872514425847,map,-15.7382679543,0.233499035423,0.0,0.0,0.0,0.0
1531943872744685240,1595,1531943872744330364,map,-15.6499656757,0.0327772593896,0.0,0.0,0.0,0.0
1531943872930165880,1596,1531943872929767997,map,-15.5690286656,-0.173914952651,0.0,0.0,0.0,0.0
1531943873137827389,1597,1531943873136314190,map,-15.4145024882,-0.411719613606,0.0,0.0,0.0,0.0
1531943873370623909,1598,1531943873369278837,map,-15.3026951395,-0.472886314236,0.0,0.0,0.0,0.0
1531943873599647993,1599,1531943873598852994,map,-15.246277706,-0.647005496572,0.0,0.0,0.0,0.0
1531943873760427604,1600,1531943873759638525,map,-15.1731372007,-0.715546986279,0.0,0.0,0.0,0.0
1531943873937920881,1601,1531943873937272601,map,-15.2023447621,-0.732880436945,0.0,0.0,0.0,0.0
1531943874131064415,1602,1531943874130108650,map,-15.1535314922,-0.706670583961,0.0,0.0,0.0,0.0
1531943874337081948,1603,1531943874336077159,map,-15.1149001947,-0.675789984958,0.0,0.0,0.0,0.0
1531943874591434004,1604,1531943874590765691,map,-15.231174547,-0.518576821653,0.0,0.0,0.0,0.0
1531943874736975455,1605,1531943874734071296,map,-15.3214828674,-0.510942995688,0.0,0.0,0.0,0.0
1531943874942598592,1606,1531943874941830633,map,-15.525878789,-0.357753866154,0.0,0.0,0.0,0.0
1531943875144496622,1607,1531943875144072499,map,-15.7585019433,-0.217293588028,0.0,0.0,0.0,0.0
1531943875365868416,1608,1531943875364945162,map,-15.9099881262,0.0194377270439,0.0,0.0,0.0,0.0
1531943875575260153,1609,1531943875574740159,map,-15.98840215,0.226045769648,0.0,0.0,0.0,0.0
1531943875729340838,1610,1531943875728802860,map,-16.1392566016,0.588979072931,0.0,0.0,0.0,0.0
1531943875947248319,1611,1531943875944732475,map,-16.2327102267,0.941657420416,0.0,0.0,0.0,0.0
1531943876132091889,1612,1531943876131629974,map,-16.2395600489,1.28093302682,0.0,0.0,0.0,0.0
1531943876345113413,1613,1531943876344595211,map,-16.1494817536,2.05733786514,0.0,0.0,0.0,0.0
1531943876598139637,1614,1531943876597491996,map,-15.9966823774,2.8580855337,0.0,0.0,0.0,0.0
1531943876805296204,1615,1531943876804667123,map,-15.6701170094,3.69559642161,0.0,0.0,0.0,0.0
1531943876969780325,1616,1531943876969262187,map,-15.2716820174,4.56720137048,0.0,0.0,0.0,0.0
1531943877173556230,1617,1531943877172335859,map,-14.8168933713,5.31105176253,0.0,0.0,0.0,0.0
1531943877335002277,1618,1531943877334676073,map,-14.4321635847,5.94850857483,0.0,0.0,0.0,0.0
1531943877570091940,1619,1531943877569755720,map,-13.8944479902,6.59459741354,0.0,0.0,0.0,0.0
1531943877744623887,1620,1531943877743943191,map,-13.4612333743,7.2511582552,0.0,0.0,0.0,0.0
1531943877930947125,1621,1531943877930200862,map,-12.9413027672,7.81902057089,0.0,0.0,0.0,0.0
1531943878138860617,1622,1531943878138470638,map,-12.7096595828,8.15319282789,0.0,0.0,0.0,0.0
1531943878363581857,1623,1531943878362581068,map,-12.3512128634,8.73867500278,0.0,0.0,0.0,0.0
1531943878596454716,1624,1531943878595655077,map,-11.8029572414,9.46610270163,0.0,0.0,0.0,0.0
1531943878782691654,1625,1531943878782078925,map,-11.0726950425,10.3254551713,0.0,0.0,0.0,0.0
1531943878947688703,1626,1531943878946909128,map,-10.209821959,11.1929457948,0.0,0.0,0.0,0.0
1531943879142368108,1627,1531943879138313050,map,-9.20065870051,11.9732150852,0.0,0.0,0.0,0.0
1531943879356976986,1628,1531943879356309442,map,-8.21123372148,12.5768056664,0.0,0.0,0.0,0.0
1531943879539496305,1629,1531943879538380286,map,-7.44,12.8864580083,0.0,0.0,0.0,0.0
1531943879741311823,1630,1531943879740547544,map,-6.6160662293,13.1717602335,0.0,0.0,0.0,0.0
1531943879968910474,1631,1531943879968201458,map,-5.96514788792,13.2051925649,0.0,0.0,0.0,0.0
1531943880141202199,1632,1531943880140223202,map,-5.41297181838,13.3439025811,0.0,0.0,0.0,0.0
1531943880336504993,1633,1531943880335882248,map,-4.51140090811,13.5381003781,0.0,0.0,0.0,0.0
1531943880560422217,1634,1531943880559818927,map,-3.47322296464,13.675848136,0.0,0.0,0.0,0.0
1531943880738059961,1635,1531943880737105604,map,-2.2085509275,13.8348257235,0.0,0.0,0.0,0.0
1531943880937754258,1636,1531943880936882908,map,-1.060793001,13.8494338588,0.0,0.0,0.0,0.0
1531943881170160861,1637,1531943881168857164,map,-0.546217652554,13.6590829222,0.0,0.0,0.0,0.0
1531943881394816256,1638,1531943881394516035,map,-0.18668497347,13.538712964,0.0,0.0,0.0,0.0
1531943881528599552,1639,1531943881527255376,map,0.0751744307233,13.4597900728,0.0,0.0,0.0,0.0
1531943881741597958,1640,1531943881740742864,map,0.285289510987,13.5069874471,0.0,0.0,0.0,0.0
1531943881972620002,1641,1531943881971003636,map,0.465742645728,13.4719517438,0.0,0.0,0.0,0.0
1531943882166397539,1642,1531943882165697227,map,0.650583422749,13.5443841207,0.0,0.0,0.0,0.0
1531943882348292938,1643,1531943882346254049,map,0.695352236794,13.6322773324,0.0,0.0,0.0,0.0
1531943882536297741,1644,1531943882533394445,map,0.730734576945,13.8507374164,0.0,0.0,0.0,0.0
1531943882765499297,1645,1531943882765010214,map,0.78806542493,14.0078496882,0.0,0.0,0.0,0.0
1531943882977334712,1646,1531943882976587296,map,0.727192929393,14.1112752947,0.0,0.0,0.0,0.0
1531943883148331003,1647,1531943883147185288,map,0.557983978632,14.3291400258,0.0,0.0,0.0,0.0
1531943883366150898,1648,1531943883364606308,map,0.343909267344,14.485918211,0.0,0.0,0.0,0.0
1531943883526809738,1649,1531943883525931284,map,0.171425822854,14.658997687,0.0,0.0,0.0,0.0
1531943883777721134,1650,1531943883776966359,map,0.0773351857901,14.7697975365,0.0,0.0,0.0,0.0
1531943883988588628,1651,1531943883986805416,map,0.0649696752499,14.8898582579,0.0,0.0,0.0,0.0
1531943884142641335,1652,1531943884142235260,map,-0.273163933867,15.0475207747,0.0,0.0,0.0,0.0
1531943884408933267,1653,1531943884406407696,map,-0.555217307739,15.069775504,0.0,0.0,0.0,0.0
1531943884531433304,1654,1531943884528963924,map,-0.682712971345,15.0345070754,0.0,0.0,0.0,0.0
1531943884775067314,1655,1531943884774297883,map,-0.923239009533,15.0517118538,0.0,0.0,0.0,0.0
1531943884947935011,1656,1531943884947284075,map,-0.984317094914,15.0177767947,0.0,0.0,0.0,0.0
1531943885147839113,1657,1531943885147096113,map,-0.919565644774,14.9918244062,0.0,0.0,0.0,0.0
1531943885350297907,1658,1531943885348655525,map,-0.78448934681,15.069594436,0.0,0.0,0.0,0.0
1531943885541073952,1659,1531943885540560389,map,-0.652982228859,14.9557518771,0.0,0.0,0.0,0.0
1531943885752579013,1660,1531943885751655183,map,-0.460840222626,14.9128812202,0.0,0.0,0.0,0.0
1531943885955781191,1661,1531943885955279660,map,-0.343384554851,15.0160742888,0.0,0.0,0.0,0.0
1531943886145320579,1662,1531943886144940359,map,-0.08148204391,15.0597795693,0.0,0.0,0.0,0.0
1531943886338171803,1663,1531943886337347301,map,0.121068698921,15.0795139965,0.0,0.0,0.0,0.0
1531943886526899170,1664,1531943886526515110,map,0.424408908598,15.1940737486,0.0,0.0,0.0,0.0
1531943886753041735,1665,1531943886751746837,map,0.783289199247,15.1998308553,0.0,0.0,0.0,0.0
1531943886940898935,1666,1531943886940406780,map,1.08159053922,15.3519465185,0.0,0.0,0.0,0.0
1531943887136171446,1667,1531943887135695643,map,1.30071752415,15.4252563649,0.0,0.0,0.0,0.0
1531943887335545224,1668,1531943887333424768,map,1.3687895792,15.4896389592,0.0,0.0,0.0,0.0
1531943887545559492,1669,1531943887544544272,map,1.38682029717,15.4779950079,0.0,0.0,0.0,0.0
1531943887743562502,1670,1531943887743025964,map,1.3258017537,15.433157477,0.0,0.0,0.0,0.0
1531943887943253333,1671,1531943887942546461,map,1.11846583665,15.4896718549,0.0,0.0,0.0,0.0
1531943888140453570,1672,1531943888139299599,map,0.793160023947,15.5497844736,0.0,0.0,0.0,0.0
1531943888379055779,1673,1531943888378575080,map,0.547153195283,15.5904016427,0.0,0.0,0.0,0.0
1531943888543648315,1674,1531943888543077154,map,0.350488808677,15.6860848396,0.0,0.0,0.0,0.0
1531943888733906774,1675,1531943888732518854,map,0.14312201517,15.7693505284,0.0,0.0,0.0,0.0
1531943888952943473,1676,1531943888949679861,map,-0.135292783754,15.8194214769,0.0,0.0,0.0,0.0
1531943889136952371,1677,1531943889134464495,map,-0.385939958571,15.9053183039,0.0,0.0,0.0,0.0
1531943889329733109,1678,1531943889329326841,map,-0.593354250939,15.8789178074,0.0,0.0,0.0,0.0
1531943889531804783,1679,1531943889530171938,map,-0.854753329362,15.9370949908,0.0,0.0,0.0,0.0
1531943889762842760,1680,1531943889759244848,map,-0.941383779545,15.8921426051,0.0,0.0,0.0,0.0
1531943889963503538,1681,1531943889963152502,map,-0.832141704263,15.8782096026,0.0,0.0,0.0,0.0
1531943890138597435,1682,1531943890138105600,map,-0.695006868182,15.8547742164,0.0,0.0,0.0,0.0
1531943890343772599,1683,1531943890343122910,map,-0.553466501382,15.7702908924,0.0,0.0,0.0,0.0
1531943890530265538,1684,1531943890528512181,map,-0.298850408566,15.7071572359,0.0,0.0,0.0,0.0
1531943890766117193,1685,1531943890765836620,map,-0.0355086931651,15.6499597166,0.0,0.0,0.0,0.0
1531943890911316062,1686,1531943890910857699,map,0.261200735387,15.5878117186,0.0,0.0,0.0,0.0
1531943891159284770,1687,1531943891158637129,map,0.595394918947,15.4985678335,0.0,0.0,0.0,0.0
1531943891353624857,1688,1531943891351421073,map,0.991642275698,15.4181433901,0.0,0.0,0.0,0.0
1531943891549150338,1689,1531943891548693799,map,1.49230262056,15.357666909,0.0,0.0,0.0,0.0
1531943891741946666,1690,1531943891741601198,map,1.94977407315,15.3264764726,0.0,0.0,0.0,0.0
1531943891955904328,1691,1531943891955298831,map,2.57657713676,15.2336387727,0.0,0.0,0.0,0.0
1531943892157089525,1692,1531943892152427369,map,3.03577149161,15.220200112,0.0,0.0,0.0,0.0
1531943892342335956,1693,1531943892341965720,map,3.54821369568,15.1397714504,0.0,0.0,0.0,0.0
1531943892522542314,1694,1531943892520889372,map,4.09538428337,15.0839228177,0.0,0.0,0.0,0.0
1531943892741922542,1695,1531943892741248310,map,4.71522126899,14.8913091562,0.0,0.0,0.0,0.0
1531943892931943800,1696,1531943892931326687,map,5.40963605706,14.9195421421,0.0,0.0,0.0,0.0
1531943893131691416,1697,1531943893130519045,map,5.98810007408,14.7616922303,0.0,0.0,0.0,0.0
1531943893307773246,1698,1531943893307129829,map,7.08127541975,14.5703650754,0.0,0.0,0.0,0.0
1531943893572690127,1699,1531943893572357043,map,8.44477130282,14.2566032996,0.0,0.0,0.0,0.0
1531943893782549344,1700,1531943893782074598,map,9.88205693575,13.7219914997,0.0,0.0,0.0,0.0
1531943893964781891,1701,1531943893964336776,map,11.2003579784,12.9346078857,0.0,0.0,0.0,0.0
1531943894126497930,1702,1531943894125679283,map,11.9048793312,12.2335092312,0.0,0.0,0.0,0.0
1531943894352579019,1703,1531943894340114709,map,13.1839640539,11.2323413332,0.0,0.0,0.0,0.0
1531943894549540846,1704,1531943894549123922,map,14.0804649026,10.2225490033,0.0,0.0,0.0,0.0
1531943894740554802,1705,1531943894739876282,map,14.9972205388,8.86226698486,0.0,0.0,0.0,0.0
1531943894917615440,1706,1531943894917125238,map,15.6793557542,7.42834457566,0.0,0.0,0.0,0.0
1531943895168573218,1707,1531943895167897513,map,16.3133907258,5.81856365669,0.0,0.0,0.0,0.0
1531943895370801709,1708,1531943895370369554,map,16.683440387,4.30531263146,0.0,0.0,0.0,0.0
1531943895586201320,1709,1531943895585130515,map,16.8972163289,3.10426808326,0.0,0.0,0.0,0.0
1531943895745259503,1710,1531943895743208134,map,16.9732235094,1.90685177746,0.0,0.0,0.0,0.0
1531943895934237548,1711,1531943895933432821,map,16.8764464038,1.064733197,0.0,0.0,0.0,0.0
1531943896165152670,1712,1531943896164412166,map,16.8990105574,0.182872030077,0.0,0.0,0.0,0.0
1531943896323871050,1713,1531943896322875701,map,16.7447833814,-0.418006589032,0.0,0.0,0.0,0.0
1531943896534603355,1714,1531943896534309022,map,16.6124833025,-0.763084872711,0.0,0.0,0.0,0.0
1531943896744817105,1715,1531943896740004934,map,16.4807684144,-0.982024679403,0.0,0.0,0.0,0.0
1531943896981911455,1716,1531943896980826698,map,16.4390489791,-1.16106359054,0.0,0.0,0.0,0.0
1531943897163951885,1717,1531943897163271733,map,16.4333950887,-1.23851760546,0.0,0.0,0.0,0.0
1531943897332978123,1718,1531943897332602959,map,16.484382378,-1.35526293274,0.0,0.0,0.0,0.0
1531943897542275022,1719,1531943897541829939,map,16.6004814263,-1.28316655753,0.0,0.0,0.0,0.0
1531943897767433251,1720,1531943897766467533,map,16.8109843642,-1.28468077989,0.0,0.0,0.0,0.0
1531943897942173858,1721,1531943897941303755,map,16.9882542691,-1.03904614288,0.0,0.0,0.0,0.0
1531943898163965950,1722,1531943898163610530,map,17.2070122299,-0.889735983151,0.0,0.0,0.0,0.0
1531943898317948611,1723,1531943898317179180,map,17.3120225034,-0.789162114213,0.0,0.0,0.0,0.0
1531943898587516244,1724,1531943898587029561,map,17.3399526502,-0.590374531213,0.0,0.0,0.0,0.0
1531943898732668122,1725,1531943898731788612,map,17.3334073429,-0.478110744143,0.0,0.0,0.0,0.0
1531943898967403209,1726,1531943898966287702,map,17.3139055526,-0.459428465725,0.0,0.0,0.0,0.0
1531943899165952968,1727,1531943899165321391,map,17.2061623955,-0.363422093567,0.0,0.0,0.0,0.0
1531943899334686830,1728,1531943899334076693,map,17.0658067774,-0.378337200824,0.0,0.0,0.0,0.0
1531943899555916565,1729,1531943899555659767,map,16.926348595,-0.351600968862,0.0,0.0,0.0,0.0
1531943899734661581,1730,1531943899733895541,map,16.8070137435,-0.316842271616,0.0,0.0,0.0,0.0
1531943899936503560,1731,1531943899935548722,map,16.6772522606,-0.302749130692,0.0,0.0,0.0,0.0
1531943900134621326,1732,1531943900133155614,map,16.6271541216,-0.307645599635,0.0,0.0,0.0,0.0
1531943900341901808,1733,1531943900341004602,map,16.5687984546,-0.199543906033,0.0,0.0,0.0,0.0
1531943900541788132,1734,1531943900541468487,map,16.6383371967,-0.235234622073,0.0,0.0,0.0,0.0
1531943900775633860,1735,1531943900774967435,map,16.6681656161,-0.247295357084,0.0,0.0,0.0,0.0
1531943900966301884,1736,1531943900965359462,map,16.737189092,-0.306759351571,0.0,0.0,0.0,0.0
1531943901136735508,1737,1531943901135713279,map,16.8351862086,-0.402623052798,0.0,0.0,0.0,0.0
1531943901318224148,1738,1531943901316134954,map,16.9038126418,-0.457403727517,0.0,0.0,0.0,0.0
1531943901553757828,1739,1531943901553249578,map,16.9622649025,-0.51231765308,0.0,0.0,0.0,0.0
1531943901718873143,1740,1531943901717739267,map,16.9858264293,-0.376564091506,0.0,0.0,0.0,0.0
1531943901951142347,1741,1531943901950780943,map,17.0568560488,-0.327508367339,0.0,0.0,0.0,0.0
1531943902145705438,1742,1531943902145191843,map,17.0777500702,-0.277222906305,0.0,0.0,0.0,0.0
1531943902339397594,1743,1531943902338674498,map,17.187433979,-0.297007098067,0.0,0.0,0.0,0.0
1531943902544685784,1744,1531943902543999679,map,17.2982282961,-0.247583955599,0.0,0.0,0.0,0.0
1531943902748291912,1745,1531943902747838285,map,17.4388429442,-0.200889935427,0.0,0.0,0.0,0.0
1531943902934071835,1746,1531943902933295715,map,17.5595054797,-0.131785084046,0.0,0.0,0.0,0.0
1531943903145252410,1747,1531943903144529186,map,17.7699997293,0.00310145006505,0.0,0.0,0.0,0.0
1531943903349044555,1748,1531943903348576688,map,17.8992628065,0.162453016584,0.0,0.0,0.0,0.0
1531943903572428679,1749,1531943903571657423,map,17.9672080713,0.316755617869,0.0,0.0,0.0,0.0
1531943903782893487,1750,1531943903780963396,map,18.0259795463,0.38073796322,0.0,0.0,0.0,0.0
1531943903950938790,1751,1531943903948947292,map,18.0146208459,0.440267850311,0.0,0.0,0.0,0.0
1531943904190913199,1752,1531943904190579859,map,18.005984006,0.380315624936,0.0,0.0,0.0,0.0
1531943904352649581,1753,1531943904351991093,map,17.9844752789,0.445812678156,0.0,0.0,0.0,0.0
1531943904564260844,1754,1531943904562907035,map,17.9966222335,0.348694971612,0.0,0.0,0.0,0.0
1531943904703324642,1755,1531943904702322732,map,17.9652312839,0.413962458131,0.0,0.0,0.0,0.0
1531943904959950134,1756,1531943904959314909,map,17.9359332223,0.381967857634,0.0,0.0,0.0,0.0
1531943905143170188,1757,1531943905142252918,map,17.8638763973,0.467782066262,0.0,0.0,0.0,0.0
1531943905355770882,1758,1531943905355164873,map,17.8533804486,0.486216576246,0.0,0.0,0.0,0.0
1531943905533000794,1759,1531943905531720712,map,17.7739881995,0.462324001818,0.0,0.0,0.0,0.0
1531943905706050239,1760,1531943905705161257,map,17.6776206794,0.290046747144,0.0,0.0,0.0,0.0
1531943905947174847,1761,1531943905946841123,map,17.5586894912,0.214530534667,0.0,0.0,0.0,0.0
1531943906136806706,1762,1531943906136360886,map,17.4687331926,0.210382138708,0.0,0.0,0.0,0.0
1531943906334585868,1763,1531943906333931923,map,17.4191379767,0.17329786416,0.0,0.0,0.0,0.0
1531943906515855643,1764,1531943906514729991,map,17.4499678408,-0.0335015744116,0.0,0.0,0.0,0.0
1531943906713595222,1765,1531943906712805950,map,17.5091636588,-0.171137280369,0.0,0.0,0.0,0.0
1531943906943326389,1766,1531943906942762619,map,17.5768769549,-0.331355570197,0.0,0.0,0.0,0.0
1531943907141342640,1767,1531943907139457348,map,17.6145889057,-0.436643656983,0.0,0.0,0.0,0.0
1531943907361452059,1768,1531943907357227881,map,17.7346285113,-0.436522123652,0.0,0.0,0.0,0.0
1531943907565575796,1769,1531943907565219320,map,17.8134796734,-0.482018593989,0.0,0.0,0.0,0.0
1531943907737678408,1770,1531943907737324492,map,17.845118506,-0.41742724792,0.0,0.0,0.0,0.0
1531943907950191366,1771,1531943907949665868,map,17.846945344,-0.330214910011,0.0,0.0,0.0,0.0
1531943908141148143,1772,1531943908140476439,map,17.8262188427,-0.367180844777,0.0,0.0,0.0,0.0
1531943908391960368,1773,1531943908391260120,map,17.7767826642,-0.338227897155,0.0,0.0,0.0,0.0
1531943908530815151,1774,1531943908528392841,map,17.7266729,-0.343464547037,0.0,0.0,0.0,0.0
1531943908761156590,1775,1531943908760462230,map,17.6162633768,-0.36285622462,0.0,0.0,0.0,0.0
1531943908977065641,1776,1531943908976206803,map,17.4964751236,-0.351223928713,0.0,0.0,0.0,0.0
1531943909159741423,1777,1531943909159161270,map,17.4078996349,-0.270426146888,0.0,0.0,0.0,0.0
1531943909395226618,1778,1531943909394783711,map,17.429413571,-0.142977514148,0.0,0.0,0.0,0.0
1531943909546888176,1779,1531943909544538058,map,17.4898465608,-0.07326172644,0.0,0.0,0.0,0.0
1531943909815627315,1780,1531943909814191043,map,17.5998324607,-0.0767942434115,0.0,0.0,0.0,0.0
1531943909908116362,1781,1531943909907667055,map,17.7495231083,-0.130113130468,0.0,0.0,0.0,0.0
1531943910165792870,1782,1531943910165397194,map,17.9197704603,-0.090700883299,0.0,0.0,0.0,0.0
1531943910337186088,1783,1531943910327808206,map,17.9599012498,-0.059557506239,0.0,0.0,0.0,0.0
1531943910546592528,1784,1531943910546131829,map,18.0697002842,0.104075153212,0.0,0.0,0.0,0.0
1531943910733701640,1785,1531943910733351436,map,18.169767258,0.091966241604,0.0,0.0,0.0,0.0
1531943910965591036,1786,1531943910964902916,map,18.2399197127,0.05411909004,0.0,0.0,0.0,0.0
1531943911172138181,1787,1531943911170414424,map,18.329852313,-0.0735811383168,0.0,0.0,0.0,0.0
1531943911328004018,1788,1531943911327262106,map,18.3390924508,-0.182450219788,0.0,0.0,0.0,0.0
1531943911574908103,1789,1531943911574384173,map,18.3683411435,-0.246867646177,0.0,0.0,0.0,0.0
1531943911731077777,1790,1531943911730496439,map,18.4161596483,-0.376116747606,0.0,0.0,0.0,0.0
1531943911957360549,1791,1531943911957000009,map,18.4788487348,-0.642066536301,0.0,0.0,0.0,0.0
1531943912184359412,1792,1531943912183905273,map,18.4656633376,-0.948355157032,0.0,0.0,0.0,0.0
1531943912337610206,1793,1531943912336261293,map,18.3593209669,-1.06180677794,0.0,0.0,0.0,0.0
1531943912573969960,1794,1531943912573488077,map,18.2576168564,-1.08790014453,0.0,0.0,0.0,0.0
1531943912751511149,1795,1531943912749963614,map,18.1707284041,-1.03180873365,0.0,0.0,0.0,0.0
1531943912997660077,1796,1531943912996528441,map,18.0895885183,-1.04937468991,0.0,0.0,0.0,0.0
1531943913123479585,1797,1531943913120132677,map,18.0270797823,-1.08995161477,0.0,0.0,0.0,0.0
1531943913316261252,1798,1531943913313879581,map,18.0858362312,-1.26468486898,0.0,0.0,0.0,0.0
1531943913581443258,1799,1531943913580601955,map,18.1638500233,-1.29562816061,0.0,0.0,0.0,0.0
1531943913744503100,1800,1531943913741582300,map,18.2161561606,-1.52645168036,0.0,0.0,0.0,0.0
1531943913988215482,1801,1531943913987555137,map,18.3290385316,-1.92645957802,0.0,0.0,0.0,0.0
1531943914155450194,1802,1531943914154842616,map,18.5186692432,-2.37229624259,0.0,0.0,0.0,0.0
1531943914316274991,1803,1531943914314277572,map,18.7224113711,-2.99214178312,0.0,0.0,0.0,0.0
1531943914540525697,1804,1531943914539207791,map,18.9609851581,-3.65474237599,0.0,0.0,0.0,0.0
1531943914761052828,1805,1531943914760437954,map,19.1895129386,-4.2753003615,0.0,0.0,0.0,0.0
1531943914934519057,1806,1531943914934248052,map,19.353702977,-5.38908907697,0.0,0.0,0.0,0.0
1531943915137138446,1807,1531943915136787985,map,19.4173708696,-6.84936555553,0.0,0.0,0.0,0.0
1531943915342095026,1808,1531943915340815904,map,19.3239218363,-8.39827034958,0.0,0.0,0.0,0.0
1531943915583227346,1809,1531943915580601006,map,18.9145793415,-10.7580801417,0.0,0.0,0.0,0.0
1531943915742431618,1810,1531943915741680394,map,18.1808448965,-12.6172017045,0.0,0.0,0.0,0.0
1531943915953744930,1811,1531943915953297799,map,17.1890231041,-14.1594627274,0.0,0.0,0.0,0.0
1531943916164961574,1812,1531943916164681737,map,15.8989653572,-15.6511661089,0.0,0.0,0.0,0.0
1531943916374538492,1813,1531943916374119712,map,14.2603341189,-17.0793843805,0.0,0.0,0.0,0.0
1531943916563635501,1814,1531943916555566788,map,12.4782521569,-18.4095307683,0.0,0.0,0.0,0.0
1531943916736659884,1815,1531943916736189553,map,10.836856163,-19.3982202406,0.0,0.0,0.0,0.0
1531943916930417996,1816,1531943916929751891,map,9.08626845606,-20.1895845808,0.0,0.0,0.0,0.0
1531943917128596861,1817,1531943917127739270,map,7.33012203785,-20.7111132224,0.0,0.0,0.0,0.0
1531943917374282098,1818,1531943917373420955,map,5.23525899655,-21.2341461622,0.0,0.0,0.0,0.0
1531943917554737667,1819,1531943917554199433,map,3.12445631439,-21.4435694962,0.0,0.0,0.0,0.0
1531943917735826029,1820,1531943917733423302,map,0.973943355135,-21.4478981334,0.0,0.0,0.0,0.0
1531943917964084540,1821,1531943917963271365,map,-0.714973630932,-21.1078945588,0.0,0.0,0.0,0.0
1531943918139867553,1822,1531943918139117833,map,-1.94112748199,-20.6891378288,0.0,0.0,0.0,0.0
1531943918329865165,1823,1531943918327764291,map,-2.91458229029,-20.2008244899,0.0,0.0,0.0,0.0
1531943918533982498,1824,1531943918533422312,map,-3.64856080374,-19.7050654417,0.0,0.0,0.0,0.0
1531943918733099117,1825,1531943918732803472,map,-4.06040771237,-19.1850251292,0.0,0.0,0.0,0.0
1531943918938607667,1826,1531943918938226263,map,-4.27421250664,-18.677170756,0.0,0.0,0.0,0.0
1531943919144106715,1827,1531943919143568417,map,-4.33096676829,-18.4073579541,0.0,0.0,0.0,0.0
1531943919342740365,1828,1531943919341379451,map,-4.19718259792,-18.0791940705,0.0,0.0,0.0,0.0
1531943919544054562,1829,1531943919543090828,map,-4.04042625231,-17.8996495971,0.0,0.0,0.0,0.0
1531943919732543777,1830,1531943919729197317,map,-3.85180358627,-17.6956409642,0.0,0.0,0.0,0.0
1531943919975544504,1831,1531943919974733377,map,-3.60257857492,-17.7072394125,0.0,0.0,0.0,0.0
1531943920135690408,1832,1531943920135163214,map,-3.28767846465,-17.6870367872,0.0,0.0,0.0,0.0
1531943920376346428,1833,1531943920375997792,map,-2.9694071073,-17.7635222135,0.0,0.0,0.0,0.0
1531943920573475137,1834,1531943920570380610,map,-2.68056398316,-17.8296235724,0.0,0.0,0.0,0.0
1531943920749334825,1835,1531943920748240341,map,-2.5159047867,-17.9242914254,0.0,0.0,0.0,0.0
1531943920937844651,1836,1531943920936958612,map,-2.30439317642,-18.1140103812,0.0,0.0,0.0,0.0
1531943921145402338,1837,1531943921144511083,map,-2.06715830064,-18.3137040644,0.0,0.0,0.0,0.0
1531943921339187021,1838,1531943921338420021,map,-1.84709143822,-18.538207929,0.0,0.0,0.0,0.0
1531943921509229013,1839,1531943921508791226,map,-1.64790974436,-18.7979066248,0.0,0.0,0.0,0.0
1531943921768740547,1840,1531943921767945707,map,-1.43059410785,-19.0262923477,0.0,0.0,0.0,0.0
1531943921948003081,1841,1531943921945493539,map,-1.1672633278,-19.1945407948,0.0,0.0,0.0,0.0
1531943922164292677,1842,1531943922160616460,map,-0.981330917683,-19.3050741938,0.0,0.0,0.0,0.0
1531943922342651063,1843,1531943922342294491,map,-0.745107374389,-19.3956932075,0.0,0.0,0.0,0.0
1531943922546180124,1844,1531943922545485091,map,-0.636770330285,-19.3995521481,0.0,0.0,0.0,0.0
1531943922776798112,1845,1531943922776148135,map,-0.472782513674,-19.4842648487,0.0,0.0,0.0,0.0
1531943922961792107,1846,1531943922960545593,map,-0.414543711713,-19.4655863901,0.0,0.0,0.0,0.0
1531943923138852908,1847,1531943923138388977,map,-0.277637499342,-19.3980132338,0.0,0.0,0.0,0.0
1531943923343984387,1848,1531943923343437289,map,-0.196482320792,-19.4090055051,0.0,0.0,0.0,0.0
1531943923514497514,1849,1531943923513894737,map,-0.135227011972,-19.3695279668,0.0,0.0,0.0,0.0
1531943923771946515,1850,1531943923771450072,map,-0.118018430028,-19.3196395321,0.0,0.0,0.0,0.0
1531943923951193405,1851,1531943923950433061,map,-0.20179127992,-19.2689434137,0.0,0.0,0.0,0.0
1531943924159190999,1852,1531943924158751900,map,-0.273773472289,-19.1280408847,0.0,0.0,0.0,0.0
1531943924342732662,1853,1531943924341280165,map,-0.329662328744,-19.0771518511,0.0,0.0,0.0,0.0
1531943924541789903,1854,1531943924540060257,map,-0.311701821026,-18.9974430378,0.0,0.0,0.0,0.0
1531943924735882269,1855,1531943924735311107,map,-0.346864401272,-18.7467913278,0.0,0.0,0.0,0.0
1531943924939697380,1856,1531943924939223433,map,-0.46142479529,-18.6142818061,0.0,0.0,0.0,0.0
1531943925152836970,1857,1531943925152247760,map,-0.587871135658,-18.5006623538,0.0,0.0,0.0,0.0
1531943925359217976,1858,1531943925358233923,map,-0.84612936505,-18.3505031293,0.0,0.0,0.0,0.0
1531943925528894477,1859,1531943925527586235,map,-1.07632933311,-18.2783373195,0.0,0.0,0.0,0.0
1531943925737548003,1860,1531943925737273830,map,-1.46434193121,-18.1209299626,0.0,0.0,0.0,0.0
1531943925933961244,1861,1531943925933053285,map,-1.93712467318,-18.0664453615,0.0,0.0,0.0,0.0
1531943926128673128,1862,1531943926127965007,map,-2.48812296186,-17.9079771087,0.0,0.0,0.0,0.0
1531943926380198937,1863,1531943926376975259,map,-3.09153400441,-17.8238749294,0.0,0.0,0.0,0.0
1531943926594418391,1864,1531943926594061850,map,-3.89596494632,-17.6757307384,0.0,0.0,0.0,0.0
1531943926733037527,1865,1531943926732528156,map,-4.90082427841,-17.5173634258,0.0,0.0,0.0,0.0
1531943926986805553,1866,1531943926986033625,map,-5.8275522662,-17.3262238986,0.0,0.0,0.0,0.0
1531943927152086103,1867,1531943927151817978,map,-6.69244339871,-16.9463742835,0.0,0.0,0.0,0.0
1531943927387715316,1868,1531943927386605248,map,-7.80503994582,-16.4967830635,0.0,0.0,0.0,0.0
1531943927532671123,1869,1531943927530691688,map,-9.10345315222,-15.8058451437,0.0,0.0,0.0,0.0
1531943927772905151,1870,1531943927772483523,map,-10.4475376606,-14.804842344,0.0,0.0,0.0,0.0
1531943927931306735,1871,1531943927930786293,map,-11.5615409323,-13.6522112228,0.0,0.0,0.0,0.0
1531943928132462523,1872,1531943928132070303,map,-12.5307743987,-12.3872552637,0.0,0.0,0.0,0.0
1531943928344978799,1873,1531943928344714930,map,-13.4725903365,-11.0429031339,0.0,0.0,0.0,0.0
1531943928530826718,1874,1531943928530117030,map,-14.232797331,-9.62184390518,0.0,0.0,0.0,0.0
1531943928741231305,1875,1531943928739438588,map,-15.0982957983,-7.8563263672,0.0,0.0,0.0,0.0
1531943928918051288,1876,1531943928916937284,map,-15.6416417283,-6.21191951367,0.0,0.0,0.0,0.0
1531943929136475535,1877,1531943929133699117,map,-16.0787898701,-4.43789548232,0.0,0.0,0.0,0.0
1531943929346021829,1878,1531943929345619434,map,-16.2251165666,-2.88721187293,0.0,0.0,0.0,0.0
1531943929580301814,1879,1531943929578823141,map,-16.1287228851,-1.62123351025,0.0,0.0,0.0,0.0
1531943929713195927,1880,1531943929712861467,map,-15.9409518669,-0.537171831429,0.0,0.0,0.0,0.0
1531943929926947201,1881,1531943929926050955,map,-15.6650512461,0.393788595597,0.0,0.0,0.0,0.0
1531943930133977395,1882,1531943930133524152,map,-15.3065906924,1.15359497839,0.0,0.0,0.0,0.0
1531943930377942528,1883,1531943930377284455,map,-15.0199039389,1.64759997186,0.0,0.0,0.0,0.0
1531943930574095526,1884,1531943930573071377,map,-14.6501656849,1.954749448,0.0,0.0,0.0,0.0
1531943930736759726,1885,1531943930736189909,map,-14.3004625395,2.07346838777,0.0,0.0,0.0,0.0
1531943930936037908,1886,1531943930935315547,map,-14.0542817883,2.09791882921,0.0,0.0,0.0,0.0
1531943931155966208,1887,1531943931155533573,map,-13.8059403422,2.06823868758,0.0,0.0,0.0,0.0
1531943931371327262,1888,1531943931370757604,map,-13.6715466517,1.95061840186,0.0,0.0,0.0,0.0
1531943931545094994,1889,1531943931543672353,map,-13.5102055853,1.72590412299,0.0,0.0,0.0,0.0
1531943931739451022,1890,1531943931738719062,map,-13.4419371353,1.45076740102,0.0,0.0,0.0,0.0
1531943931937199429,1891,1531943931928540001,map,-13.3799111563,1.15882589267,0.0,0.0,0.0,0.0
1531943932133142769,1892,1531943932132268795,map,-13.4299355301,0.734392032793,0.0,0.0,0.0,0.0
1531943932334200488,1893,1531943932333601039,map,-13.5465658038,0.305049052813,0.0,0.0,0.0,0.0
1531943932539538386,1894,1531943932539092791,map,-13.5999401366,-0.0403519531,0.0,0.0,0.0,0.0
1531943932732581789,1895,1531943932729651324,map,-13.6651898905,-0.362608956493,0.0,0.0,0.0,0.0
1531943932927630867,1896,1531943932926854140,map,-13.7835246953,-0.674126823179,0.0,0.0,0.0,0.0
1531943933149153972,1897,1531943933148233694,map,-13.806622613,-0.960610234777,0.0,0.0,0.0,0.0
1531943933383999721,1898,1531943933383295760,map,-13.8389943335,-1.30085965329,0.0,0.0,0.0,0.0
1531943933566834690,1899,1531943933566066602,map,-13.8735424898,-1.5512636083,0.0,0.0,0.0,0.0
1531943933752061762,1900,1531943933741108341,map,-13.8952184581,-1.86636116614,0.0,0.0,0.0,0.0
1531943933910055297,1901,1531943933909490823,map,-13.8314495974,-2.03258506198,0.0,0.0,0.0,0.0
1531943934164660039,1902,1531943934164221131,map,-13.7581180446,-2.18153337581,0.0,0.0,0.0,0.0
1531943934349912552,1903,1531943934345851059,map,-13.613377873,-2.20000974708,0.0,0.0,0.0,0.0
1531943934529665443,1904,1531943934529297927,map,-13.4234258255,-2.12125884968,0.0,0.0,0.0,0.0
1531943934743531318,1905,1531943934743122907,map,-13.2531580552,-1.97833302684,0.0,0.0,0.0,0.0
1531943934932297074,1906,1531943934932012533,map,-13.0226986956,-1.67517720935,0.0,0.0,0.0,0.0
1531943935134840735,1907,1531943935134489283,map,-12.743802256,-1.3956733356,0.0,0.0,0.0,0.0
1531943935335405825,1908,1531943935335092196,map,-12.4364129587,-1.04212893714,0.0,0.0,0.0,0.0
1531943935534951310,1909,1531943935531310164,map,-12.3009100573,-0.685574038154,0.0,0.0,0.0,0.0
1531943935776827805,1910,1531943935776580832,map,-11.9845978306,-0.359881702254,0.0,0.0,0.0,0.0
1531943936022034089,1911,1531943936019205831,map,-11.8698262608,-0.0642225671455,0.0,0.0,0.0,0.0
1531943936150390949,1912,1531943936149791915,map,-11.7541971499,0.369390526759,0.0,0.0,0.0,0.0
1531943936337307064,1913,1531943936336954876,map,-11.5478236306,0.530442641524,0.0,0.0,0.0,0.0
1531943936551785546,1914,1531943936551433646,map,-11.4446499938,0.762159117428,0.0,0.0,0.0,0.0
1531943936784211232,1915,1531943936783221162,map,-11.3629593825,0.91823421429,0.0,0.0,0.0,0.0
1531943936974351793,1916,1531943936965105427,map,-11.3715435803,1.05090275521,0.0,0.0,0.0,0.0
1531943937120704849,1917,1531943937119038050,map,-11.389347256,1.17697454621,0.0,0.0,0.0,0.0
1531943937342462905,1918,1531943937342084893,map,-11.4428943781,1.24107544126,0.0,0.0,0.0,0.0
