%time,field.x,field.y,field.z
1531943810820860792,0.0,141.284886109,14.4382591248
1531943810840917944,0.0,141.284886109,14.4382591248
1531943810861388914,0.0,141.284886109,14.4382591248
1531943810880812090,0.0,141.284886109,14.4382591248
1531943810901712334,0.0,144.798264101,14.3940048218
1531943810920844474,0.0,144.798264101,14.3940048218
1531943810940659452,0.0,144.798264101,14.3940048218
1531943810961353620,0.0,144.798264101,14.3940048218
1531943810980834138,0.0,144.798264101,14.3940048218
1531943811001454483,0.0,144.798264101,14.3940048218
1531943811020742269,0.0,144.798264101,14.3940048218
1531943811040554272,0.0,144.798264101,14.3940048218
1531943811061202392,0.0,144.798264101,14.3940048218
1531943811081462198,0.0,144.798264101,14.3940048218
1531943811100742848,0.0,144.798264101,14.3940048218
1531943811124235220,0.0,110.383032035,14.3940048218
1531943811142562154,0.0,114.779981984,14.1301841736
1531943811166212093,0.0,114.779981984,14.1301841736
1531943811189124952,0.0,114.779981984,14.1301841736
1531943811212020980,0.0,114.779981984,14.1301841736
1531943811227800299,0.0,114.779981984,14.1301841736
1531943811244983376,0.0,114.779981984,14.1301841736
1531943811266144866,0.0,114.779981984,14.1301841736
1531943811291490398,0.0,114.779981984,14.1301841736
1531943811306216098,0.0,114.779981984,14.1301841736
1531943811328883489,0.0,114.779981984,14.1301841736
1531943811345709642,0.0,114.779981984,14.1301841736
1531943811366839261,0.0,114.779981984,14.1301841736
1531943811387275800,0.0,119.182822956,13.5918769836
1531943811411067496,0.0,119.182822956,13.5918769836
1531943811424997399,0.0,119.182822956,13.5918769836
1531943811446215048,0.0,119.182822956,13.5918769836
1531943811466823041,0.0,119.182822956,13.5918769836
1531943811485326069,0.0,119.182822956,13.5918769836
1531943811508625292,0.0,119.182822956,13.5918769836
1531943811525357974,0.0,119.182822956,13.5918769836
1531943811546421993,0.0,119.182822956,13.5918769836
1531943811569305925,0.0,119.182822956,13.5918769836
1531943811586257805,0.0,119.182822956,13.5918769836
1531943811607532254,0.0,119.182822956,13.5918769836
1531943811629417702,0.0,119.182822956,13.5918769836
1531943811643810927,0.0,119.182822956,13.5918769836
1531943811669724772,0.0,124.178469927,12.7527008057
1531943811693923759,0.0,124.178469927,12.7527008057
1531943811712000585,0.0,124.178469927,12.7527008057
1531943811724186829,0.0,124.178469927,12.7527008057
1531943811745847193,0.0,124.178469927,12.7527008057
1531943811764698536,0.0,124.178469927,12.7527008057
1531943811786492018,0.0,124.178469927,12.7527008057
1531943811809749866,0.0,124.178469927,12.7527008057
1531943811834685739,0.0,124.178469927,12.7527008057
1531943811844312465,0.0,124.178469927,12.7527008057
1531943811866071579,0.0,124.178469927,12.7527008057
1531943811885169255,0.0,124.178469927,12.7527008057
1531943811908694139,0.0,124.178469927,12.7527008057
1531943811924438194,0.0,128.668809105,11.7987670898
1531943811944690224,0.0,128.668809105,11.7987670898
1531943811973145349,0.0,128.668809105,11.7987670898
1531943811986412539,0.0,128.668809105,11.7987670898
1531943812007039540,0.0,128.668809105,11.7987670898
1531943812026476349,0.0,128.668809105,11.7987670898
1531943812044882002,0.0,128.668809105,11.7987670898
1531943812064737430,0.0,128.668809105,11.7987670898
1531943812084509754,0.0,128.668809105,11.7987670898
1531943812105122419,0.0,128.668809105,11.7987670898
1531943812124507037,0.0,132.37319173,11.0063552856
1531943812144151298,0.0,132.37319173,11.0063552856
1531943812165025881,0.0,132.37319173,11.0063552856
1531943812188120403,0.0,132.37319173,11.0063552856
1531943812205370519,0.0,132.37319173,11.0063552856
1531943812224603810,0.0,132.37319173,11.0063552856
1531943812243825293,0.0,132.37319173,11.0063552856
1531943812264418023,0.0,132.37319173,11.0063552856
1531943812286340144,0.0,132.37319173,11.0063552856
1531943812307122055,0.0,132.37319173,11.0063552856
1531943812326579728,0.0,132.37319173,11.0063552856
1531943812343918707,0.0,132.37319173,11.0063552856
1531943812365548959,0.0,132.37319173,11.0063552856
1531943812384573101,0.0,132.37319173,11.0063552856
1531943812407817189,0.0,132.37319173,11.0063552856
1531943812428621244,0.0,136.378311887,10.2917404175
1531943812446151261,0.0,136.378311887,10.2917404175
1531943812463515584,0.0,136.378311887,10.2917404175
1531943812486960981,0.0,136.378311887,10.2917404175
1531943812505538697,0.0,136.378311887,10.2917404175
1531943812525556746,0.0,136.378311887,10.2917404175
1531943812545541099,0.0,136.378311887,10.2917404175
1531943812566503553,0.0,136.378311887,10.2917404175
1531943812586117831,0.0,136.378311887,10.2917404175
1531943812608440811,0.0,136.378311887,10.2917404175
1531943812626105450,0.0,136.378311887,10.2917404175
1531943812641749538,0.0,140.67490665,9.80888366699
1531943812663408143,0.0,140.67490665,9.80888366699
1531943812685629108,0.0,140.67490665,9.80888366699
1531943812707104898,0.0,140.67490665,9.80888366699
1531943812725079453,0.0,140.67490665,9.80888366699
1531943812744620901,0.0,140.67490665,9.80888366699
1531943812766073875,0.0,140.67490665,9.80888366699
1531943812789501353,0.0,140.67490665,9.80888366699
1531943812808526551,0.0,140.67490665,9.80888366699
1531943812829562059,0.0,140.67490665,9.80888366699
1531943812845016390,0.0,140.67490665,9.80888366699
1531943812865496833,0.0,140.67490665,9.80888366699
1531943812881587157,0.0,144.546856602,9.47895050049
1531943812905189960,0.0,144.546856602,9.47895050049
1531943812925386471,0.0,144.546856602,9.47895050049
1531943812947186609,0.0,144.546856602,9.47895050049
1531943812964824945,0.0,144.546856602,9.47895050049
1531943812987742573,0.0,144.546856602,9.47895050049
1531943813019231420,0.0,144.546856602,9.47895050049
1531943813028623077,0.0,144.546856602,9.47895050049
1531943813044197919,0.0,144.546856602,9.47895050049
1531943813065135957,0.0,144.546856602,9.47895050049
1531943813086222665,0.0,144.546856602,9.47895050049
1531943813106263595,0.0,144.546856602,9.47895050049
1531943813121039919,0.0,148.530815809,9.17027282715
1531943813144666019,0.0,148.530815809,9.17027282715
1531943813164997313,0.0,148.530815809,9.17027282715
1531943813185718970,0.0,148.530815809,9.17027282715
1531943813207500613,0.0,148.530815809,9.17027282715
1531943813227205259,0.0,148.530815809,9.17027282715
1531943813244222962,0.0,148.530815809,9.17027282715
1531943813266021501,0.0,148.530815809,9.17027282715
1531943813286284604,0.0,148.530815809,9.17027282715
1531943813306743704,0.0,148.530815809,9.17027282715
1531943813335460651,0.0,148.530815809,9.17027282715
1531943813344964083,0.0,148.530815809,9.17027282715
1531943813363788227,0.0,148.530815809,9.17027282715
1531943813390608719,0.0,148.530815809,9.17027282715
1531943813402735733,0.0,152.175279864,8.84859085083
1531943813425347701,0.0,152.175279864,8.84859085083
1531943813446206220,0.0,152.175279864,8.84859085083
1531943813462919992,0.0,152.175279864,8.84859085083
1531943813483623153,0.0,152.175279864,8.84859085083
1531943813504996130,0.0,152.175279864,8.84859085083
1531943813525614172,0.0,152.175279864,8.84859085083
1531943813544624138,0.0,152.175279864,8.84859085083
1531943813564684587,0.0,152.175279864,8.84859085083
1531943813585234534,0.0,152.175279864,8.84859085083
1531943813605089930,0.0,152.175279864,8.84859085083
1531943813624156568,0.0,155.11559611,8.51610183716
1531943813643089447,0.0,155.11559611,8.51610183716
1531943813664923634,0.0,155.11559611,8.51610183716
1531943813687562674,0.0,155.11559611,8.51610183716
1531943813706265093,0.0,155.11559611,8.51610183716
1531943813724628828,0.0,155.11559611,8.51610183716
1531943813746397383,0.0,155.11559611,8.51610183716
1531943813764449090,0.0,155.11559611,8.51610183716
1531943813785283673,0.0,155.11559611,8.51610183716
1531943813810998770,0.0,155.11559611,8.51610183716
1531943813829426632,0.0,155.11559611,8.51610183716
1531943813845798328,0.0,155.11559611,8.51610183716
1531943813863826355,0.0,155.11559611,8.51610183716
1531943813884013747,0.0,155.11559611,8.51610183716
1531943813904501327,0.0,155.11559611,8.51610183716
1531943813926445464,0.0,155.11559611,8.51610183716
1531943813941286203,0.0,157.970393375,7.98519897461
1531943813963054887,0.0,157.970393375,7.98519897461
1531943813983379397,0.0,157.970393375,7.98519897461
1531943814005526219,0.0,157.970393375,7.98519897461
1531943814024909430,0.0,157.970393375,7.98519897461
1531943814047608342,0.0,157.970393375,7.98519897461
1531943814063554092,0.0,157.970393375,7.98519897461
1531943814083854666,0.0,157.970393375,7.98519897461
1531943814105156380,0.0,157.970393375,7.98519897461
1531943814125180734,0.0,157.970393375,7.98519897461
1531943814142355013,0.0,159.218567793,7.64196014404
1531943814164998854,0.0,159.218567793,7.64196014404
1531943814186213433,0.0,159.218567793,7.64196014404
1531943814205035754,0.0,159.218567793,7.64196014404
1531943814228351522,0.0,159.218567793,7.64196014404
1531943814244553717,0.0,159.218567793,7.64196014404
1531943814263993311,0.0,159.218567793,7.64196014404
1531943814283324170,0.0,159.218567793,7.64196014404
1531943814303876997,0.0,159.218567793,7.64196014404
1531943814326819650,0.0,159.218567793,7.64196014404
1531943814345891024,0.0,159.218567793,7.64196014404
1531943814364222248,0.0,159.218567793,7.64196014404
1531943814381190673,0.0,160.316167083,7.09674453735
1531943814403617813,0.0,160.316167083,7.09674453735
1531943814423806133,0.0,160.316167083,7.09674453735
1531943814443279806,0.0,160.316167083,7.09674453735
1531943814468343296,0.0,160.316167083,7.09674453735
1531943814483473056,0.0,160.316167083,7.09674453735
1531943814505261452,0.0,160.316167083,7.09674453735
1531943814526362432,0.0,160.316167083,7.09674453735
1531943814546090054,0.0,160.316167083,7.09674453735
1531943814566262887,0.0,160.316167083,7.09674453735
1531943814584809244,0.0,160.316167083,7.09674453735
1531943814608689485,0.0,160.316167083,7.09674453735
1531943814621130831,0.0,160.448584479,6.44325256348
1531943814649275146,0.0,160.448584479,6.44325256348
1531943814666163732,0.0,160.448584479,6.44325256348
1531943814684962118,0.0,160.448584479,6.44325256348
1531943814704648876,0.0,160.448584479,6.44325256348
1531943814729117526,0.0,160.448584479,6.44325256348
1531943814743677085,0.0,160.448584479,6.44325256348
1531943814762817803,0.0,160.448584479,6.44325256348
1531943814784153756,0.0,160.448584479,6.44325256348
1531943814804595161,0.0,160.448584479,6.44325256348
1531943814824812633,0.0,160.448584479,6.44325256348
1531943814843691274,0.0,160.448584479,6.44325256348
1531943814862359549,0.0,160.448584479,6.44325256348
1531943814882884345,0.0,159.615446534,5.70432281494
1531943814904569606,0.0,159.615446534,5.70432281494
1531943814924140974,0.0,159.615446534,5.70432281494
1531943814943560280,0.0,159.615446534,5.70432281494
1531943814963935829,0.0,159.615446534,5.70432281494
1531943814985258823,0.0,159.615446534,5.70432281494
1531943815005327657,0.0,159.615446534,5.70432281494
1531943815026693402,0.0,159.615446534,5.70432281494
1531943815043082827,0.0,159.615446534,5.70432281494
1531943815065024437,0.0,159.615446534,5.70432281494
1531943815083006578,0.0,159.615446534,5.70432281494
1531943815106270731,0.0,159.615446534,5.70432281494
1531943815122479838,0.0,158.033413736,4.89358520508
1531943815146649005,0.0,158.033413736,4.89358520508
1531943815162946910,0.0,158.033413736,4.89358520508
1531943815183620633,0.0,158.033413736,4.89358520508
1531943815204497361,0.0,158.033413736,4.89358520508
1531943815223780637,0.0,158.033413736,4.89358520508
1531943815243267750,0.0,158.033413736,4.89358520508
1531943815265632555,0.0,158.033413736,4.89358520508
1531943815283665319,0.0,158.033413736,4.89358520508
1531943815305264182,0.0,158.033413736,4.89358520508
1531943815323539311,0.0,158.033413736,4.89358520508
1531943815344464998,0.0,158.033413736,4.89358520508
1531943815363640435,0.0,158.033413736,4.89358520508
1531943815383119965,0.0,158.033413736,4.89358520508
1531943815401368470,0.0,155.400783339,3.73430252075
1531943815423812154,0.0,155.400783339,3.73430252075
1531943815444085306,0.0,155.400783339,3.73430252075
1531943815462396498,0.0,155.400783339,3.73430252075
1531943815483195755,0.0,155.400783339,3.73430252075
1531943815504728410,0.0,155.400783339,3.73430252075
1531943815524043718,0.0,155.400783339,3.73430252075
1531943815545372920,0.0,155.400783339,3.73430252075
1531943815562755036,0.0,155.400783339,3.73430252075
1531943815583786418,0.0,155.400783339,3.73430252075
1531943815603788181,0.0,155.400783339,3.73430252075
1531943815628018211,0.0,155.400783339,3.73430252075
1531943815644780463,0.0,155.400783339,3.73430252075
1531943815660894563,0.0,152.625011607,2.47922134399
1531943815683624291,0.0,152.625011607,2.47922134399
1531943815704052449,0.0,152.625011607,2.47922134399
1531943815723329037,0.0,152.625011607,2.47922134399
1531943815743775434,0.0,152.625011607,2.47922134399
1531943815762757914,0.0,152.625011607,2.47922134399
1531943815783435188,0.0,152.625011607,2.47922134399
1531943815805493469,0.0,152.625011607,2.47922134399
1531943815826291862,0.0,152.625011607,2.47922134399
1531943815845885470,0.0,152.625011607,2.47922134399
1531943815862428205,0.0,152.625011607,2.47922134399
1531943815881254079,0.0,149.388291423,0.944347381592
1531943815903594820,0.0,149.388291423,0.944347381592
1531943815923812357,0.0,149.388291423,0.944347381592
1531943815944823099,0.0,149.388291423,0.944347381592
1531943815962570714,0.0,149.388291423,0.944347381592
1531943815983300500,0.0,149.388291423,0.944347381592
1531943816005718104,0.0,149.388291423,0.944347381592
1531943816023170972,0.0,149.388291423,0.944347381592
1531943816044194579,0.0,149.388291423,0.944347381592
1531943816062596939,0.0,149.388291423,0.944347381592
1531943816084988912,0.0,149.388291423,0.944347381592
1531943816108457096,0.0,149.388291423,0.944347381592
1531943816121754272,0.0,146.641387555,-0.414722442627
1531943816148238354,0.0,146.641387555,-0.414722442627
1531943816165799796,0.0,146.641387555,-0.414722442627
1531943816183126905,0.0,146.641387555,-0.414722442627
1531943816203801556,0.0,146.641387555,-0.414722442627
1531943816226094651,0.0,146.641387555,-0.414722442627
1531943816250066189,0.0,146.641387555,-0.414722442627
1531943816262708525,0.0,146.641387555,-0.414722442627
1531943816283789219,0.0,146.641387555,-0.414722442627
1531943816303872709,0.0,146.641387555,-0.414722442627
1531943816323965032,0.0,146.641387555,-0.414722442627
1531943816345904147,0.0,146.641387555,-0.414722442627
1531943816362800510,0.0,146.641387555,-0.414722442627
1531943816386693072,0.0,146.641387555,-0.414722442627
1531943816401888432,0.0,143.070598102,-2.35167694092
1531943816424453651,0.0,143.070598102,-2.35167694092
1531943816447932491,0.0,143.070598102,-2.35167694092
1531943816463071180,0.0,143.070598102,-2.35167694092
1531943816483666504,0.0,143.070598102,-2.35167694092
1531943816503970792,0.0,143.070598102,-2.35167694092
1531943816523114454,0.0,143.070598102,-2.35167694092
1531943816543871440,0.0,143.070598102,-2.35167694092
1531943816563495385,0.0,143.070598102,-2.35167694092
1531943816582609831,0.0,143.070598102,-2.35167694092
1531943816603487360,0.0,143.070598102,-2.35167694092
1531943816621433981,0.0,140.815916509,-3.57869720459
1531943816644716887,0.0,140.815916509,-3.57869720459
1531943816662524343,0.0,140.815916509,-3.57869720459
1531943816683186930,0.0,140.815916509,-3.57869720459
1531943816703037559,0.0,140.815916509,-3.57869720459
1531943816723222585,0.0,140.815916509,-3.57869720459
1531943816744579435,0.0,140.815916509,-3.57869720459
1531943816764553615,0.0,140.815916509,-3.57869720459
1531943816783230531,0.0,140.815916509,-3.57869720459
1531943816803030537,0.0,140.815916509,-3.57869720459
1531943816829204095,0.0,140.815916509,-3.57869720459
1531943816844060387,0.0,140.815916509,-3.57869720459
1531943816864543809,0.0,138.186496914,-4.79211425781
1531943816882786491,0.0,138.186496914,-4.79211425781
1531943816902895421,0.0,138.186496914,-4.79211425781
1531943816924283951,0.0,138.186496914,-4.79211425781
1531943816945044841,0.0,138.186496914,-4.79211425781
1531943816964158840,0.0,138.186496914,-4.79211425781
1531943816984159067,0.0,138.186496914,-4.79211425781
1531943817004825430,0.0,138.186496914,-4.79211425781
1531943817022858099,0.0,138.186496914,-4.79211425781
1531943817043716781,0.0,138.186496914,-4.79211425781
1531943817062456097,0.0,138.186496914,-4.79211425781
1531943817082220680,0.0,135.859655109,-5.66124725342
1531943817102770533,0.0,135.859655109,-5.66124725342
1531943817122722121,0.0,135.859655109,-5.66124725342
1531943817143456740,0.0,135.859655109,-5.66124725342
1531943817162772657,0.0,135.859655109,-5.66124725342
1531943817183627370,0.0,135.859655109,-5.66124725342
1531943817203270451,0.0,135.859655109,-5.66124725342
1531943817224457384,0.0,135.859655109,-5.66124725342
1531943817244090801,0.0,135.859655109,-5.66124725342
1531943817266052796,0.0,135.859655109,-5.66124725342
1531943817282616620,0.0,135.859655109,-5.66124725342
1531943817303725986,0.0,135.859655109,-5.66124725342
1531943817327778355,0.0,135.859655109,-5.66124725342
1531943817341552037,0.0,133.003456932,-6.56942749023
1531943817363103254,0.0,133.003456932,-6.56942749023
1531943817383040475,0.0,133.003456932,-6.56942749023
1531943817403713462,0.0,133.003456932,-6.56942749023
1531943817423851257,0.0,133.003456932,-6.56942749023
1531943817442781898,0.0,133.003456932,-6.56942749023
1531943817462711311,0.0,133.003456932,-6.56942749023
1531943817485207092,0.0,133.003456932,-6.56942749023
1531943817504364483,0.0,133.003456932,-6.56942749023
1531943817522876793,0.0,133.003456932,-6.56942749023
1531943817542967004,0.0,133.003456932,-6.56942749023
1531943817563644600,0.0,133.003456932,-6.56942749023
1531943817582307309,0.0,133.003456932,-6.56942749023
1531943817602690540,0.0,133.003456932,-6.56942749023
1531943817621920410,0.0,130.466143825,-7.05893707275
1531943817643695112,0.0,130.466143825,-7.05893707275
1531943817661681829,0.0,130.466143825,-7.05893707275
1531943817684877185,0.0,130.466143825,-7.05893707275
1531943817702516035,0.0,130.466143825,-7.05893707275
1531943817723960917,0.0,130.466143825,-7.05893707275
1531943817742846439,0.0,130.466143825,-7.05893707275
1531943817762708813,0.0,130.466143825,-7.05893707275
1531943817783389576,0.0,130.466143825,-7.05893707275
1531943817804628637,0.0,130.466143825,-7.05893707275
1531943817831250029,0.0,130.466143825,-7.05893707275
1531943817841699178,0.0,128.365370142,-7.14709472656
1531943817866099350,0.0,128.365370142,-7.14709472656
1531943817881586803,0.0,128.365370142,-7.14709472656
1531943817904769359,0.0,128.365370142,-7.14709472656
1531943817922795756,0.0,128.365370142,-7.14709472656
1531943817942551635,0.0,128.365370142,-7.14709472656
1531943817963853831,0.0,128.365370142,-7.14709472656
1531943817986216685,0.0,128.365370142,-7.14709472656
1531943818004026189,0.0,128.365370142,-7.14709472656
1531943818027758435,0.0,128.365370142,-7.14709472656
1531943818043785433,0.0,128.365370142,-7.14709472656
1531943818061431772,0.0,126.251782255,-7.00132751465
1531943818084200669,0.0,126.251782255,-7.00132751465
1531943818102677333,0.0,126.251782255,-7.00132751465
1531943818131172623,0.0,126.251782255,-7.00132751465
1531943818143180344,0.0,126.251782255,-7.00132751465
1531943818162110922,0.0,126.251782255,-7.00132751465
1531943818182411019,0.0,126.251782255,-7.00132751465
1531943818202647085,0.0,126.251782255,-7.00132751465
1531943818225458894,0.0,126.251782255,-7.00132751465
1531943818243256526,0.0,126.251782255,-7.00132751465
1531943818262467357,0.0,126.251782255,-7.00132751465
1531943818281168306,0.0,123.96228878,-6.61846542358
1531943818304074258,0.0,123.96228878,-6.61846542358
1531943818323724315,0.0,123.96228878,-6.61846542358
1531943818344446774,0.0,123.96228878,-6.61846542358
1531943818363066252,0.0,123.96228878,-6.61846542358
1531943818382137341,0.0,123.96228878,-6.61846542358
1531943818403362130,0.0,123.96228878,-6.61846542358
1531943818422977787,0.0,123.96228878,-6.61846542358
1531943818444817993,0.0,123.96228878,-6.61846542358
1531943818463395679,0.0,123.96228878,-6.61846542358
1531943818482696653,0.0,123.96228878,-6.61846542358
1531943818504263582,0.0,123.96228878,-6.61846542358
1531943818522624599,0.0,123.96228878,-6.61846542358
1531943818543924139,0.0,123.96228878,-6.61846542358
1531943818561343056,0.0,121.458509887,-6.03129959106
1531943818581998156,0.0,121.458509887,-6.03129959106
1531943818602789031,0.0,121.458509887,-6.03129959106
1531943818623222950,0.0,121.458509887,-6.03129959106
1531943818642771377,0.0,121.458509887,-6.03129959106
1531943818671806916,0.0,121.458509887,-6.03129959106
1531943818682179713,0.0,121.458509887,-6.03129959106
1531943818703095418,0.0,121.458509887,-6.03129959106
1531943818736074908,0.0,121.458509887,-6.03129959106
1531943818742153519,0.0,121.458509887,-6.03129959106
1531943818762330962,0.0,121.458509887,-6.03129959106
1531943818782640403,0.0,121.458509887,-6.03129959106
1531943818803134129,0.0,121.458509887,-6.03129959106
1531943818823929580,0.0,121.458509887,-6.03129959106
1531943818843793074,0.0,121.458509887,-6.03129959106
1531943818861399893,0.0,118.543654658,-5.21124267578
1531943818883796315,0.0,118.543654658,-5.21124267578
1531943818903449540,0.0,118.543654658,-5.21124267578
1531943818923871011,0.0,118.543654658,-5.21124267578
1531943818949079750,0.0,118.543654658,-5.21124267578
1531943818966686921,0.0,118.543654658,-5.21124267578
1531943818982488483,0.0,118.543654658,-5.21124267578
1531943819001120984,0.0,116.985297034,-4.72747802734
1531943819022316174,0.0,116.985297034,-4.72747802734
1531943819043171753,0.0,116.985297034,-4.72747802734
1531943819062656308,0.0,116.985297034,-4.72747802734
1531943819082694937,0.0,116.985297034,-4.72747802734
1531943819103749969,0.0,116.985297034,-4.72747802734
1531943819123698967,0.0,116.985297034,-4.72747802734
1531943819142355917,0.0,116.985297034,-4.72747802734
1531943819162502416,0.0,116.985297034,-4.72747802734
1531943819181805854,0.0,116.985297034,-4.72747802734
1531943819202169567,0.0,116.985297034,-4.72747802734
1531943819223313909,0.0,116.985297034,-4.72747802734
1531943819242461733,0.0,116.985297034,-4.72747802734
1531943819261731411,0.0,114.652431404,-3.9972038269
1531943819282363089,0.0,114.652431404,-3.9972038269
1531943819302175224,0.0,114.652431404,-3.9972038269
1531943819322173533,0.0,114.652431404,-3.9972038269
1531943819342721724,0.0,114.652431404,-3.9972038269
1531943819365690267,0.0,114.652431404,-3.9972038269
1531943819382745062,0.0,114.652431404,-3.9972038269
1531943819401981460,0.0,114.652431404,-3.9972038269
1531943819422010713,0.0,114.652431404,-3.9972038269
1531943819443181359,0.0,114.652431404,-3.9972038269
1531943819462415646,0.0,114.652431404,-3.9972038269
1531943819481127316,0.0,112.416916838,-3.34133911133
1531943819502896962,0.0,112.416916838,-3.34133911133
1531943819522252176,0.0,112.416916838,-3.34133911133
1531943819542706895,0.0,112.416916838,-3.34133911133
1531943819562712436,0.0,112.416916838,-3.34133911133
1531943819581817701,0.0,112.416916838,-3.34133911133
1531943819602268004,0.0,112.416916838,-3.34133911133
1531943819623578745,0.0,112.416916838,-3.34133911133
1531943819643687420,0.0,112.416916838,-3.34133911133
1531943819662937259,0.0,112.416916838,-3.34133911133
1531943819682737075,0.0,112.416916838,-3.34133911133
1531943819702528794,0.0,112.416916838,-3.34133911133
1531943819723960142,0.0,112.416916838,-3.34133911133
1531943819747698052,0.0,112.416916838,-3.34133911133
1531943819761481207,0.0,109.509764084,-2.56163787842
1531943819782984873,0.0,109.509764084,-2.56163787842
1531943819801938364,0.0,109.509764084,-2.56163787842
1531943819821894017,0.0,109.509764084,-2.56163787842
1531943819845099102,0.0,109.509764084,-2.56163787842
1531943819862766593,0.0,109.509764084,-2.56163787842
1531943819882656999,0.0,109.509764084,-2.56163787842
1531943819902191634,0.0,109.509764084,-2.56163787842
1531943819922470004,0.0,109.509764084,-2.56163787842
1531943819944623230,0.0,109.509764084,-2.56163787842
1531943819962757274,0.0,109.509764084,-2.56163787842
1531943819981229139,0.0,107.223750982,-2.02531814575
1531943820002977762,0.0,107.223750982,-2.02531814575
1531943820023116934,0.0,107.223750982,-2.02531814575
1531943820042835119,0.0,107.223750982,-2.02531814575
1531943820062750870,0.0,107.223750982,-2.02531814575
1531943820081841255,0.0,107.223750982,-2.02531814575
1531943820101872268,0.0,107.223750982,-2.02531814575
1531943820124501393,0.0,107.223750982,-2.02531814575
1531943820142488304,0.0,107.223750982,-2.02531814575
1531943820164950903,0.0,107.223750982,-2.02531814575
1531943820182278398,0.0,107.223750982,-2.02531814575
1531943820200833238,0.0,104.673572864,-1.53811645508
1531943820222359081,0.0,104.673572864,-1.53811645508
1531943820242704330,0.0,104.673572864,-1.53811645508
1531943820262116855,0.0,104.673572864,-1.53811645508
1531943820281789121,0.0,104.673572864,-1.53811645508
1531943820302378111,0.0,104.673572864,-1.53811645508
1531943820322507876,0.0,104.673572864,-1.53811645508
1531943820342164142,0.0,104.673572864,-1.53811645508
1531943820362123668,0.0,104.673572864,-1.53811645508
1531943820382297751,0.0,104.673572864,-1.53811645508
1531943820401726948,0.0,104.673572864,-1.53811645508
1531943820422718238,0.0,104.673572864,-1.53811645508
1531943820441746415,0.0,102.324021849,-1.19822692871
1531943820462233967,0.0,102.324021849,-1.19822692871
1531943820481725083,0.0,102.324021849,-1.19822692871
1531943820501874879,0.0,102.324021849,-1.19822692871
1531943820523151413,0.0,102.324021849,-1.19822692871
1531943820542308581,0.0,102.324021849,-1.19822692871
1531943820562526632,0.0,102.324021849,-1.19822692871
1531943820582158066,0.0,102.324021849,-1.19822692871
1531943820602271799,0.0,102.324021849,-1.19822692871
1531943820623219761,0.0,102.324021849,-1.19822692871
1531943820648256887,0.0,102.324021849,-1.19822692871
1531943820662283848,0.0,102.324021849,-1.19822692871
1531943820683908345,0.0,102.324021849,-1.19822692871
1531943820702510800,0.0,102.324021849,-1.19822692871
1531943820725488657,0.0,102.324021849,-1.19822692871
1531943820741287819,0.0,99.1691048018,-0.859760284424
1531943820761436015,0.0,99.1691048018,-0.859760284424
1531943820781453461,0.0,99.1691048018,-0.859760284424
1531943820801381979,0.0,99.1691048018,-0.859760284424
1531943820822227734,0.0,99.1691048018,-0.859760284424
1531943820841623044,0.0,99.1691048018,-0.859760284424
1531943820862024228,0.0,99.1691048018,-0.859760284424
1531943820881519376,0.0,99.1691048018,-0.859760284424
1531943820903544925,0.0,99.1691048018,-0.859760284424
1531943820921112225,0.0,99.1691048018,-0.859760284424
1531943820941600737,0.0,99.1691048018,-0.859760284424
1531943820961472168,0.0,99.1691048018,-0.859760284424
1531943820982109286,0.0,99.1691048018,-0.859760284424
1531943821004007764,0.0,96.7245753326,-0.688632965088
1531943821021829813,0.0,96.7245753326,-0.688632965088
1531943821042565458,0.0,96.7245753326,-0.688632965088
1531943821061813090,0.0,96.7245753326,-0.688632965088
1531943821081301614,0.0,96.7245753326,-0.688632965088
1531943821101155223,0.0,96.7245753326,-0.688632965088
1531943821122346382,0.0,96.7245753326,-0.688632965088
1531943821141661501,0.0,96.7245753326,-0.688632965088
1531943821162020863,0.0,96.7245753326,-0.688632965088
1531943821181438444,0.0,96.7245753326,-0.688632965088
1531943821201230517,0.0,94.5264341768,-0.546352386475
1531943821224577137,0.0,94.5264341768,-0.546352386475
1531943821241722811,0.0,94.5264341768,-0.546352386475
1531943821261110633,0.0,94.5264341768,-0.546352386475
1531943821283385907,0.0,94.5264341768,-0.546352386475
1531943821303905523,0.0,94.5264341768,-0.546352386475
1531943821321284186,0.0,94.5264341768,-0.546352386475
1531943821342289651,0.0,94.5264341768,-0.546352386475
1531943821362578870,0.0,94.5264341768,-0.546352386475
1531943821382166433,0.0,94.5264341768,-0.546352386475
1531943821401598767,0.0,94.5264341768,-0.546352386475
1531943821421903089,0.0,94.5264341768,-0.546352386475
1531943821442741773,0.0,94.5264341768,-0.546352386475
1531943821461326789,0.0,92.04499778,-0.406414031982
1531943821481201197,0.0,92.04499778,-0.406414031982
1531943821501864811,0.0,92.04499778,-0.406414031982
1531943821522985923,0.0,92.04499778,-0.406414031982
1531943821540940547,0.0,92.04499778,-0.406414031982
1531943821561557057,0.0,92.04499778,-0.406414031982
1531943821581540680,0.0,92.04499778,-0.406414031982
1531943821601308849,0.0,92.04499778,-0.406414031982
1531943821621460693,0.0,92.04499778,-0.406414031982
1531943821641171071,0.0,92.04499778,-0.406414031982
1531943821662301367,0.0,92.04499778,-0.406414031982
1531943821684628257,0.0,90.2175907695,-0.347202301025
1531943821701512846,0.0,90.2175907695,-0.347202301025
1531943821720847708,0.0,90.2175907695,-0.347202301025
1531943821741737463,0.0,90.2175907695,-0.347202301025
1531943821761111429,0.0,90.2175907695,-0.347202301025
1531943821781406056,0.0,90.2175907695,-0.347202301025
1531943821803509812,0.0,90.2175907695,-0.347202301025
1531943821821231063,0.0,90.2175907695,-0.347202301025
1531943821842204273,0.0,90.2175907695,-0.347202301025
1531943821861328770,0.0,90.2175907695,-0.347202301025
1531943821881661284,0.0,90.2175907695,-0.347202301025
1531943821901376622,0.0,90.2175907695,-0.347202301025
1531943821922126379,0.0,90.2175907695,-0.347202301025
1531943821941635479,0.0,90.2175907695,-0.347202301025
1531943821962212886,0.0,90.2175907695,-0.347202301025
1531943821985106200,0.0,49.0543844326,-0.245311737061
1531943822002006821,0.0,49.062821199,-0.245311737061
1531943822033119234,0.0,49.062821199,-0.245311737061
1531943822059109054,0.0,49.062821199,-0.245311737061
1531943822069849208,0.0,49.062821199,-0.245311737061
1531943822090871410,0.0,49.062821199,-0.245311737061
1531943822109753575,0.0,49.062821199,-0.245311737061
1531943822131813172,0.0,49.062821199,-0.245311737061
1531943822150990693,0.0,49.062821199,-0.245311737061
1531943822171794114,0.0,47.0223401567,-0.127975463867
1531943822193559666,0.0,47.0223401567,-0.127975463867
1531943822208951059,0.0,47.0223401567,-0.127975463867
1531943822238634817,0.0,47.0223401567,-0.127975463867
1531943822251374466,0.0,47.0223401567,-0.127975463867
1531943822277269023,0.0,47.0223401567,-0.127975463867
1531943822294287211,0.0,47.0223401567,-0.127975463867
1531943822309095347,0.0,47.0223401567,-0.127975463867
1531943822331638138,0.0,47.0223401567,-0.127975463867
1531943822350243922,0.0,47.0223401567,-0.127975463867
1531943822371853605,0.0,47.0223401567,-0.127975463867
1531943822392136296,0.0,44.3561623216,0.127479553223
1531943822410067976,0.0,44.3561623216,0.127479553223
1531943822433309319,0.0,44.3561623216,0.127479553223
1531943822460475924,0.0,44.3561623216,0.127479553223
1531943822470562167,0.0,44.3561623216,0.127479553223
1531943822489254798,0.0,44.3561623216,0.127479553223
1531943822511527640,0.0,44.3561623216,0.127479553223
1531943822534691255,0.0,44.3561623216,0.127479553223
1531943822551379751,0.0,44.3561623216,0.127479553223
1531943822572961307,0.0,44.3561623216,0.127479553223
1531943822591237239,0.0,44.3561623216,0.127479553223
1531943822612976680,0.0,44.3561623216,0.127479553223
1531943822632985295,0.0,41.3227132775,0.50874710083
1531943822657540925,0.0,41.3227132775,0.50874710083
1531943822670733816,0.0,41.3227132775,0.50874710083
1531943822691023643,0.0,41.3227132775,0.50874710083
1531943822709335671,0.0,41.3227132775,0.50874710083
1531943822731357381,0.0,41.3227132775,0.50874710083
1531943822754312903,0.0,41.3227132775,0.50874710083
1531943822770813305,0.0,41.3227132775,0.50874710083
1531943822796911956,0.0,41.3227132775,0.50874710083
1531943822809248730,0.0,41.3227132775,0.50874710083
1531943822832118653,0.0,41.3227132775,0.50874710083
1531943822855163134,0.0,41.3227132775,0.50874710083
1531943822869514795,0.0,41.3227132775,0.50874710083
1531943822892513996,0.0,41.3227132775,0.50874710083
1531943822916809950,0.0,38.1569021326,0.949569702148
1531943822929442912,0.0,38.1569021326,0.949569702148
1531943822950092799,0.0,38.1569021326,0.949569702148
1531943822971662258,0.0,38.1569021326,0.949569702148
1531943822993857886,0.0,38.1569021326,0.949569702148
1531943823010742635,0.0,38.1569021326,0.949569702148
1531943823033142837,0.0,38.1569021326,0.949569702148
1531943823052685698,0.0,38.1569021326,0.949569702148
1531943823073928730,0.0,38.1569021326,0.949569702148
1531943823091723900,0.0,38.1569021326,0.949569702148
1531943823111544038,0.0,38.1569021326,0.949569702148
1531943823133567220,0.0,38.1569021326,0.949569702148
1531943823154145844,0.0,38.1569021326,0.949569702148
1531943823175880006,0.0,34.5466284246,1.44045257568
1531943823193590826,0.0,34.5466284246,1.44045257568
1531943823212159811,0.0,34.5466284246,1.44045257568
1531943823231493938,0.0,34.5466284246,1.44045257568
1531943823254806000,0.0,34.5466284246,1.44045257568
1531943823271705502,0.0,34.5466284246,1.44045257568
1531943823289735070,0.0,34.5466284246,1.44045257568
1531943823311521967,0.0,34.5466284246,1.44045257568
1531943823329660942,0.0,34.5466284246,1.44045257568
1531943823350183598,0.0,34.5466284246,1.44045257568
1531943823373540300,0.0,34.5466284246,1.44045257568
1531943823391732394,0.0,31.4917124132,1.86884307861
1531943823411974318,0.0,31.4917124132,1.86884307861
1531943823432901098,0.0,31.4917124132,1.86884307861
1531943823453513641,0.0,31.4917124132,1.86884307861
1531943823472840025,0.0,31.4917124132,1.86884307861
1531943823491282164,0.0,31.4917124132,1.86884307861
1531943823508558429,0.0,31.4917124132,1.86884307861
1531943823533412232,0.0,31.4917124132,1.86884307861
1531943823552150175,0.0,31.4917124132,1.86884307861
1531943823570561114,0.0,31.4917124132,1.86884307861
1531943823591581301,0.0,31.4917124132,1.86884307861
1531943823610597096,0.0,31.4917124132,1.86884307861
1531943823631545572,0.0,28.3103521727,2.34879302979
1531943823654951393,0.0,28.3103521727,2.34879302979
1531943823674662315,0.0,28.3103521727,2.34879302979
1531943823691909941,0.0,28.3103521727,2.34879302979
1531943823711023655,0.0,28.3103521727,2.34879302979
1531943823733269011,0.0,28.3103521727,2.34879302979
1531943823754552394,0.0,28.3103521727,2.34879302979
1531943823773946553,0.0,28.3103521727,2.34879302979
1531943823793397607,0.0,28.3103521727,2.34879302979
1531943823810030296,0.0,28.3103521727,2.34879302979
1531943823831843337,0.0,28.3103521727,2.34879302979
1531943823850146853,0.0,28.3103521727,2.34879302979
1531943823870352234,0.0,28.3103521727,2.34879302979
1531943823892430007,0.0,24.1144000566,2.99833679199
1531943823910121531,0.0,24.1144000566,2.99833679199
1531943823931037175,0.0,24.1144000566,2.99833679199
1531943823953555519,0.0,24.1144000566,2.99833679199
1531943823974132863,0.0,24.1144000566,2.99833679199
1531943823996413674,0.0,24.1144000566,2.99833679199
1531943824016052343,0.0,24.1144000566,2.99833679199
1531943824032746247,0.0,24.1144000566,2.99833679199
1531943824052692944,0.0,24.1144000566,2.99833679199
1531943824073288656,0.0,24.1144000566,2.99833679199
1531943824090825494,0.0,24.1144000566,2.99833679199
1531943824111251385,0.0,24.1144000566,2.99833679199
1531943824129808722,0.0,24.1144000566,2.99833679199
1531943824150183958,0.0,20.3961298163,3.52763748169
1531943824172021766,0.0,20.3961298163,3.52763748169
1531943824191374230,0.0,20.3961298163,3.52763748169
1531943824213627682,0.0,20.3961298163,3.52763748169
1531943824230429969,0.0,20.3961298163,3.52763748169
1531943824255857078,0.0,20.3961298163,3.52763748169
1531943824272696613,0.0,20.3961298163,3.52763748169
1531943824292783788,0.0,20.3961298163,3.52763748169
1531943824309298815,0.0,20.3961298163,3.52763748169
1531943824333027992,0.0,20.3961298163,3.52763748169
1531943824353245341,0.0,20.3961298163,3.52763748169
1531943824373257285,0.0,20.3961298163,3.52763748169
1531943824391926781,0.0,20.3961298163,3.52763748169
1531943824410779155,0.0,20.3961298163,3.52763748169
1531943824431856077,0.0,16.0549965421,4.02355194092
1531943824452849577,0.0,16.0549965421,4.02355194092
1531943824472503989,0.0,16.0549965421,4.02355194092
1531943824499732131,0.0,16.0549965421,4.02355194092
1531943824509676263,0.0,16.0549965421,4.02355194092
1531943824529599344,0.0,16.0549965421,4.02355194092
1531943824550339503,0.0,16.0549965421,4.02355194092
1531943824571386345,0.0,16.0549965421,4.02355194092
1531943824592803935,0.0,16.0549965421,4.02355194092
1531943824616636984,0.0,12.8738808731,4.32696151733
1531943824628921951,0.0,12.8738808731,4.32696151733
1531943824652278141,0.0,12.8738808731,4.32696151733
1531943824671207890,0.0,12.8738808731,4.32696151733
1531943824692394315,0.0,12.8738808731,4.32696151733
1531943824710989828,0.0,12.8738808731,4.32696151733
1531943824731130794,0.0,12.8738808731,4.32696151733
1531943824754537768,0.0,12.8738808731,4.32696151733
1531943824771930608,0.0,12.8738808731,4.32696151733
1531943824792998826,0.0,12.8738808731,4.32696151733
1531943824814134564,0.0,12.8738808731,4.32696151733
1531943824828414771,0.0,12.8738808731,4.32696151733
1531943824852442729,0.0,12.8738808731,4.32696151733
1531943824875684904,0.0,12.8738808731,4.32696151733
1531943824892115260,0.0,12.8738808731,4.32696151733
1531943824901468072,0.0,9.7636237971,4.64435958862
1531943824929715337,0.0,9.7636237971,4.64435958862
1531943824950071213,0.0,9.7636237971,4.64435958862
1531943824971901310,0.0,9.7636237971,4.64435958862
1531943824993802254,0.0,9.7636237971,4.64435958862
1531943825010449663,0.0,9.7636237971,4.64435958862
1531943825033286981,0.0,9.7636237971,4.64435958862
1531943825053632105,0.0,9.7636237971,4.64435958862
1531943825069740065,0.0,9.7636237971,4.64435958862
1531943825099574735,0.0,9.7636237971,4.64435958862
1531943825109660339,0.0,9.7636237971,4.64435958862
1531943825130593551,0.0,9.7636237971,4.64435958862
1531943825141429481,0.0,7.50166337565,4.85782241821
1531943825173160064,0.0,7.50166337565,4.85782241821
1531943825197812911,0.0,7.50166337565,4.85782241821
1531943825212177341,0.0,7.50166337565,4.85782241821
1531943825231721675,0.0,7.50166337565,4.85782241821
1531943825254197076,0.0,7.50166337565,4.85782241821
1531943825274593624,0.0,7.50166337565,4.85782241821
1531943825292618616,0.0,7.50166337565,4.85782241821
1531943825317717601,0.0,7.50166337565,4.85782241821
1531943825329754956,0.0,7.50166337565,4.85782241821
1531943825340896770,0.0,6.00700345482,4.97304534912
1531943825361067816,0.0,6.00700345482,4.97304534912
1531943825381083920,0.0,6.00700345482,4.97304534912
1531943825401368949,0.0,6.00700345482,4.97304534912
1531943825421291070,0.0,6.00700345482,4.97304534912
1531943825441055594,0.0,6.00700345482,4.97304534912
1531943825461773865,0.0,6.00700345482,4.97304534912
1531943825481572148,0.0,6.00700345482,4.97304534912
1531943825502823085,0.0,6.00700345482,4.97304534912
1531943825522444121,0.0,6.00700345482,4.97304534912
1531943825541072691,0.0,6.00700345482,4.97304534912
1531943825561538421,0.0,6.00700345482,4.97304534912
1531943825582725711,0.0,6.00700345482,4.97304534912
1531943825605721042,0.0,6.00700345482,4.97304534912
1531943825622448035,0.0,4.52331274236,4.9693145752
1531943825641899954,0.0,4.52331274236,4.9693145752
1531943825662017561,0.0,4.52331274236,4.9693145752
1531943825681904706,0.0,4.52331274236,4.9693145752
1531943825702574786,0.0,4.52331274236,4.9693145752
1531943825722150992,0.0,4.52331274236,4.9693145752
1531943825741470016,0.0,4.52331274236,4.9693145752
1531943825761016462,0.0,4.52331274236,4.9693145752
1531943825781405650,0.0,4.52331274236,4.9693145752
1531943825801319323,0.0,4.52331274236,4.9693145752
1531943825821326723,0.0,4.52331274236,4.9693145752
1531943825841744646,0.0,4.52331274236,4.9693145752
1531943825861318612,0.0,4.52331274236,4.9693145752
1531943825881147902,0.0,3.76870974142,4.79237365723
1531943825901380388,0.0,3.76870974142,4.79237365723
1531943825922451871,0.0,3.76870974142,4.79237365723
1531943825942578277,0.0,3.76870974142,4.79237365723
1531943825962022869,0.0,3.76870974142,4.79237365723
1531943825981209575,0.0,3.76870974142,4.79237365723
1531943826001761736,0.0,3.76870974142,4.79237365723
1531943826021661970,0.0,3.76870974142,4.79237365723
1531943826042036022,0.0,3.76870974142,4.79237365723
1531943826062746390,0.0,3.76870974142,4.79237365723
1531943826081838826,0.0,3.76870974142,4.79237365723
1531943826102029233,0.0,3.45465402427,4.45330810547
1531943826122433525,0.0,3.45465402427,4.45330810547
1531943826141012719,0.0,3.45465402427,4.45330810547
1531943826160953401,0.0,3.45465402427,4.45330810547
1531943826181469467,0.0,3.45465402427,4.45330810547
1531943826201757760,0.0,3.45465402427,4.45330810547
1531943826221508172,0.0,3.45465402427,4.45330810547
1531943826241038747,0.0,3.45465402427,4.45330810547
1531943826261706139,0.0,3.45465402427,4.45330810547
1531943826281207274,0.0,3.45465402427,4.45330810547
1531943826301988617,0.0,3.45465402427,4.45330810547
1531943826321539928,0.0,3.45465402427,4.45330810547
1531943826341337059,0.0,3.45465402427,4.45330810547
1531943826361501962,0.0,3.40606656812,4.04861068726
1531943826381295445,0.0,3.40606656812,4.04861068726
1531943826404059260,0.0,3.40606656812,4.04861068726
1531943826425181527,0.0,3.40606656812,4.04861068726
1531943826441556108,0.0,3.40606656812,4.04861068726
1531943826461175290,0.0,3.40606656812,4.04861068726
1531943826481388224,0.0,3.40606656812,4.04861068726
1531943826501147404,0.0,3.40606656812,4.04861068726
1531943826526565073,0.0,3.40606656812,4.04861068726
1531943826541903924,0.0,3.40606656812,4.04861068726
1531943826561473570,0.0,3.40606656812,4.04861068726
1531943826581234542,0.0,3.54256156977,3.49233627319
1531943826601329749,0.0,3.54256156977,3.49233627319
1531943826621297758,0.0,3.54256156977,3.49233627319
1531943826641277959,0.0,3.54256156977,3.49233627319
1531943826664478921,0.0,3.54256156977,3.49233627319
1531943826681844434,0.0,3.54256156977,3.49233627319
1531943826702014585,0.0,3.54256156977,3.49233627319
1531943826721195852,0.0,3.54256156977,3.49233627319
1531943826743491480,0.0,3.54256156977,3.49233627319
1531943826762468589,0.0,3.54256156977,3.49233627319
1531943826781407555,0.0,3.54256156977,3.49233627319
1531943826801655305,0.0,3.54256156977,3.49233627319
1531943826821274743,0.0,3.73424836375,3.03594589233
1531943826840913028,0.0,3.73424836375,3.03594589233
1531943826861396135,0.0,3.73424836375,3.03594589233
1531943826883060827,0.0,3.73424836375,3.03594589233
1531943826901198427,0.0,3.73424836375,3.03594589233
1531943826921728253,0.0,3.73424836375,3.03594589233
1531943826941657575,0.0,3.73424836375,3.03594589233
1531943826961481330,0.0,3.73424836375,3.03594589233
1531943826984687667,0.0,3.73424836375,3.03594589233
1531943827002819379,0.0,3.73424836375,3.03594589233
1531943827021168208,0.0,3.73424836375,3.03594589233
1531943827040943996,0.0,3.73424836375,3.03594589233
1531943827064109215,0.0,3.73424836375,3.03594589233
1531943827081057518,0.0,3.93646006255,2.45212173462
1531943827101100502,0.0,3.93646006255,2.45212173462
1531943827122695756,0.0,3.93646006255,2.45212173462
1531943827141112905,0.0,3.93646006255,2.45212173462
1531943827161279312,0.0,3.93646006255,2.45212173462
1531943827182296237,0.0,3.93646006255,2.45212173462
1531943827201359170,0.0,3.93646006255,2.45212173462
1531943827222732250,0.0,3.93646006255,2.45212173462
1531943827241540946,0.0,3.93646006255,2.45212173462
1531943827261743737,0.0,3.93646006255,2.45212173462
1531943827281323367,0.0,3.93646006255,2.45212173462
1531943827301243634,0.0,3.93646006255,2.45212173462
1531943827322561131,0.0,3.93646006255,2.45212173462
1531943827341076198,0.0,4.14020047631,1.93016815186
1531943827360916594,0.0,4.14020047631,1.93016815186
1531943827381014842,0.0,4.14020047631,1.93016815186
1531943827401398078,0.0,4.14020047631,1.93016815186
1531943827421720068,0.0,4.14020047631,1.93016815186
1531943827442005481,0.0,4.14020047631,1.93016815186
1531943827461356443,0.0,4.14020047631,1.93016815186
1531943827481053256,0.0,4.14020047631,1.93016815186
1531943827501491436,0.0,4.14020047631,1.93016815186
1531943827521256696,0.0,4.14020047631,1.93016815186
1531943827541881561,0.0,4.14020047631,1.93016815186
1531943827561450504,0.0,4.14020047631,1.93016815186
1531943827581516561,0.0,4.14020047631,1.93016815186
1531943827602058899,0.0,4.22548692024,1.48741149902
1531943827622641909,0.0,4.22548692024,1.48741149902
1531943827642491456,0.0,4.22548692024,1.48741149902
1531943827663192257,0.0,4.22548692024,1.48741149902
1531943827680962918,0.0,4.22548692024,1.48741149902
1531943827701062350,0.0,4.22548692024,1.48741149902
1531943827722533285,0.0,4.22548692024,1.48741149902
1531943827741125152,0.0,4.22548692024,1.48741149902
1531943827761120201,0.0,4.22548692024,1.48741149902
1531943827781174034,0.0,4.22548692024,1.48741149902
1531943827802548074,0.0,4.22548692024,1.48741149902
1531943827820922088,0.0,4.24237621695,1.09699249268
1531943827840924625,0.0,4.24237621695,1.09699249268
1531943827861923950,0.0,4.24237621695,1.09699249268
1531943827881023170,0.0,4.24237621695,1.09699249268
1531943827904195940,0.0,4.24237621695,1.09699249268
1531943827921747020,0.0,4.24237621695,1.09699249268
1531943827941244987,0.0,4.24237621695,1.09699249268
1531943827962030747,0.0,4.24237621695,1.09699249268
1531943827981499531,0.0,4.24237621695,1.09699249268
1531943828001600115,0.0,4.24237621695,1.09699249268
1531943828021690044,0.0,4.24237621695,1.09699249268
1531943828041003598,0.0,4.2275187281,0.839126586914
1531943828061325940,0.0,4.2275187281,0.839126586914
1531943828081062401,0.0,4.2275187281,0.839126586914
1531943828101283816,0.0,4.2275187281,0.839126586914
1531943828121242578,0.0,4.2275187281,0.839126586914
1531943828140938175,0.0,4.2275187281,0.839126586914
1531943828161232934,0.0,4.2275187281,0.839126586914
1531943828183284534,0.0,4.2275187281,0.839126586914
1531943828202042543,0.0,4.2275187281,0.839126586914
1531943828221920698,0.0,4.2275187281,0.839126586914
1531943828244305575,0.0,4.2275187281,0.839126586914
1531943828261630801,0.0,4.2275187281,0.839126586914
1531943828281101634,0.0,4.2275187281,0.839126586914
1531943828308531504,0.0,4.2275187281,0.839126586914
1531943828326273846,0.0,4.14645323903,0.666446685791
1531943828341036160,0.0,4.14645323903,0.666446685791
1531943828362045053,0.0,4.14645323903,0.666446685791
1531943828382078150,0.0,4.14645323903,0.666446685791
1531943828401838611,0.0,4.14645323903,0.666446685791
1531943828421436034,0.0,4.14645323903,0.666446685791
1531943828441257870,0.0,4.14645323903,0.666446685791
1531943828461733138,0.0,4.14645323903,0.666446685791
1531943828481832602,0.0,4.14645323903,0.666446685791
1531943828501622887,0.0,4.14645323903,0.666446685791
1531943828524167409,0.0,4.14645323903,0.666446685791
1531943828541162784,0.0,3.86946978191,0.557136535645
1531943828560905645,0.0,3.86946978191,0.557136535645
1531943828581036341,0.0,3.86946978191,0.557136535645
1531943828601788757,0.0,3.86946978191,0.557136535645
1531943828621841118,0.0,3.86946978191,0.557136535645
1531943828641845480,0.0,3.86946978191,0.557136535645
1531943828661253785,0.0,3.86946978191,0.557136535645
1531943828681119909,0.0,3.86946978191,0.557136535645
1531943828701243533,0.0,3.86946978191,0.557136535645
1531943828722085580,0.0,3.86946978191,0.557136535645
1531943828741012163,0.0,3.86946978191,0.557136535645
1531943828761516135,0.0,3.86946978191,0.557136535645
1531943828781407250,0.0,3.86946978191,0.557136535645
1531943828801613401,0.0,3.86946978191,0.557136535645
1531943828821624067,0.0,3.5534532625,0.528633117676
1531943828841869929,0.0,3.5534532625,0.528633117676
1531943828862813832,0.0,3.5534532625,0.528633117676
1531943828881669631,0.0,3.5534532625,0.528633117676
1531943828901063665,0.0,3.5534532625,0.528633117676
1531943828921363863,0.0,3.5534532625,0.528633117676
1531943828941582622,0.0,3.5534532625,0.528633117676
1531943828960946895,0.0,3.5534532625,0.528633117676
1531943828981164278,0.0,3.5534532625,0.528633117676
1531943829003746976,0.0,3.5534532625,0.528633117676
1531943829022082719,0.0,3.139496039,0.567970275879
1531943829041324211,0.0,3.139496039,0.567970275879
1531943829062439983,0.0,3.139496039,0.567970275879
1531943829081198441,0.0,3.139496039,0.567970275879
1531943829101413264,0.0,3.139496039,0.567970275879
1531943829121544569,0.0,3.139496039,0.567970275879
1531943829147658424,0.0,3.139496039,0.567970275879
1531943829160964661,0.0,3.139496039,0.567970275879
1531943829181262715,0.0,3.139496039,0.567970275879
1531943829201978749,0.0,3.139496039,0.567970275879
1531943829221537389,0.0,3.139496039,0.567970275879
1531943829241157051,0.0,2.60880123652,0.613098144531
1531943829264846296,0.0,2.60880123652,0.613098144531
1531943829283101112,0.0,2.60880123652,0.613098144531
1531943829301338488,0.0,2.60880123652,0.613098144531
1531943829323233259,0.0,2.60880123652,0.613098144531
1531943829342520222,0.0,2.60880123652,0.613098144531
1531943829361248568,0.0,2.60880123652,0.613098144531
1531943829381179651,0.0,2.60880123652,0.613098144531
1531943829404225096,0.0,2.60880123652,0.613098144531
1531943829421835792,0.0,2.60880123652,0.613098144531
1531943829441110755,0.0,2.60880123652,0.613098144531
1531943829465948722,0.0,2.60880123652,0.613098144531
1531943829481468915,0.0,2.16451173194,0.650485992432
1531943829501848505,0.0,2.16451173194,0.650485992432
1531943829525476374,0.0,2.16451173194,0.650485992432
1531943829541436690,0.0,2.16451173194,0.650485992432
1531943829561134912,0.0,2.16451173194,0.650485992432
1531943829581228649,0.0,2.16451173194,0.650485992432
1531943829602057001,0.0,2.16451173194,0.650485992432
1531943829621458395,0.0,2.16451173194,0.650485992432
1531943829641253864,0.0,2.16451173194,0.650485992432
1531943829661149779,0.0,2.16451173194,0.650485992432
1531943829681571896,0.0,2.16451173194,0.650485992432
1531943829701005034,0.0,1.79483111814,0.687934875488
1531943829721488718,0.0,1.79483111814,0.687934875488
1531943829745761316,0.0,1.79483111814,0.687934875488
1531943829761162183,0.0,1.79483111814,0.687934875488
1531943829781250512,0.0,1.79483111814,0.687934875488
1531943829803878234,0.0,1.79483111814,0.687934875488
1531943829821262244,0.0,1.79483111814,0.687934875488
1531943829841532331,0.0,1.79483111814,0.687934875488
1531943829861200634,0.0,1.79483111814,0.687934875488
1531943829881248355,0.0,1.79483111814,0.687934875488
1531943829901164335,0.0,1.79483111814,0.687934875488
1531943829923918135,0.0,1.79483111814,0.687934875488
1531943829941490527,0.0,1.79483111814,0.687934875488
1531943829961648519,0.0,1.17333974963,0.760242462158
1531943829981018393,0.0,1.17333974963,0.760242462158
1531943830000818054,0.0,1.17333974963,0.760242462158
1531943830021542472,0.0,1.17333974963,0.760242462158
1531943830040833948,0.0,1.17333974963,0.760242462158
1531943830060925285,0.0,1.17333974963,0.760242462158
1531943830084416837,0.0,1.17333974963,0.760242462158
1531943830101337878,0.0,1.17333974963,0.760242462158
1531943830123588357,0.0,1.17333974963,0.760242462158
1531943830143597840,0.0,1.17333974963,0.760242462158
1531943830160956283,0.0,1.17333974963,0.760242462158
1531943830181597054,0.0,0.924530645354,0.856735229492
1531943830202110530,0.0,0.924530645354,0.856735229492
1531943830221378966,0.0,0.924530645354,0.856735229492
1531943830241756764,0.0,0.924530645354,0.856735229492
1531943830261120879,0.0,0.924530645354,0.856735229492
1531943830281632659,0.0,0.924530645354,0.856735229492
1531943830301933786,0.0,0.924530645354,0.856735229492
1531943830324176842,0.0,0.924530645354,0.856735229492
1531943830341542709,0.0,0.924530645354,0.856735229492
1531943830360946695,0.0,0.924530645354,0.856735229492
1531943830381113808,0.0,0.859992396136,0.892696380615
1531943830401625684,0.0,0.859992396136,0.892696380615
1531943830421578048,0.0,0.859992396136,0.892696380615
1531943830441637610,0.0,0.859992396136,0.892696380615
1531943830461281497,0.0,0.859992396136,0.892696380615
1531943830485411633,0.0,0.859992396136,0.892696380615
1531943830501248271,0.0,0.859992396136,0.892696380615
1531943830523027588,0.0,0.859992396136,0.892696380615
1531943830541394051,0.0,0.859992396136,0.892696380615
1531943830560978707,0.0,0.859992396136,0.892696380615
1531943830581402552,0.0,0.859992396136,0.892696380615
1531943830602265208,0.0,0.859992396136,0.892696380615
1531943830621752009,0.0,0.859992396136,0.892696380615
1531943830640995645,0.0,0.3556794899,0.908237457275
1531943830661375044,0.0,0.3556794899,0.908237457275
1531943830681491981,0.0,0.3556794899,0.908237457275
1531943830701366745,0.0,0.3556794899,0.908237457275
1531943830721648417,0.0,0.3556794899,0.908237457275
1531943830741271536,0.0,0.3556794899,0.908237457275
1531943830760927615,0.0,0.3556794899,0.908237457275
1531943830781206407,0.0,0.3556794899,0.908237457275
1531943830802325700,0.0,0.3556794899,0.908237457275
1531943830822313775,0.0,0.3556794899,0.908237457275
1531943830841592994,0.0,0.3556794899,0.908237457275
1531943830861088115,0.0,0.3556794899,0.908237457275
1531943830884422005,0.0,0.2474203729,0.989807128906
1531943830903122736,0.0,0.2474203729,0.989807128906
1531943830921275601,0.0,0.2474203729,0.989807128906
1531943830943470945,0.0,0.2474203729,0.989807128906
1531943830961622051,0.0,0.2474203729,0.989807128906
1531943830981351185,0.0,0.2474203729,0.989807128906
1531943831003132614,0.0,0.2474203729,0.989807128906
1531943831021950175,0.0,0.2474203729,0.989807128906
1531943831045375841,0.0,0.2474203729,0.989807128906
1531943831061393245,0.0,0.2474203729,0.989807128906
1531943831080909774,0.0,0.2474203729,0.989807128906
1531943831101304532,0.0,0.2474203729,0.989807128906
1531943831120998659,0.0,0.2474203729,0.989807128906
1531943831141355978,0.0,0.2474203729,0.989807128906
1531943831161266230,0.0,0.2474203729,0.989807128906
1531943831181669629,0.0,0.375520114048,1.08581542969
1531943831201213230,0.0,0.375520114048,1.08581542969
1531943831221944112,0.0,0.375520114048,1.08581542969
1531943831243161932,0.0,0.375520114048,1.08581542969
1531943831261263631,0.0,0.375520114048,1.08581542969
1531943831283058340,0.0,0.375520114048,1.08581542969
1531943831302108955,0.0,0.375520114048,1.08581542969
1531943831321006548,0.0,0.375520114048,1.08581542969
1531943831342081202,0.0,0.375520114048,1.08581542969
1531943831362000062,0.0,0.363132320815,1.08043289185
1531943831381150036,0.0,0.363132320815,1.08043289185
1531943831403551233,0.0,0.363132320815,1.08043289185
1531943831421359080,0.0,0.363132320815,1.08043289185
1531943831442749026,0.0,0.363132320815,1.08043289185
1531943831461409213,0.0,0.363132320815,1.08043289185
1531943831481612550,0.0,0.363132320815,1.08043289185
1531943831501005689,0.0,0.363132320815,1.08043289185
1531943831521165890,0.0,0.363132320815,1.08043289185
1531943831541706439,0.0,0.363132320815,1.08043289185
1531943831561047578,0.0,0.363132320815,1.08043289185
1531943831580897799,0.0,0.363132320815,1.08043289185
1531943831601716840,0.0,0.743190338235,0.912158966064
1531943831621244185,0.0,0.743190338235,0.912158966064
1531943831644222752,0.0,0.743190338235,0.912158966064
1531943831661935207,0.0,0.743190338235,0.912158966064
1531943831683513375,0.0,0.743190338235,0.912158966064
1531943831700943434,0.0,0.743190338235,0.912158966064
1531943831721528462,0.0,0.743190338235,0.912158966064
1531943831742256688,0.0,0.743190338235,0.912158966064
1531943831761356615,0.0,0.743190338235,0.912158966064
1531943831781489392,0.0,0.743190338235,0.912158966064
1531943831801255038,0.0,0.743190338235,0.912158966064
1531943831822323997,0.0,0.743190338235,0.912158966064
1531943831841204374,0.0,0.385410600177,0.615791320801
1531943831861283648,0.0,0.385410600177,0.615791320801
1531943831881146093,0.0,0.385410600177,0.615791320801
1531943831901231927,0.0,0.385410600177,0.615791320801
1531943831921751580,0.0,0.385410600177,0.615791320801
1531943831942787322,0.0,0.385410600177,0.615791320801
1531943831962096334,0.0,0.385410600177,0.615791320801
1531943831981293315,0.0,0.385410600177,0.615791320801
1531943832002867419,0.0,0.385410600177,0.615791320801
1531943832021724405,0.0,0.385410600177,0.615791320801
1531943832043020561,0.0,0.385410600177,0.615791320801
1531943832064754567,0.0,0.385410600177,0.615791320801
1531943832083305701,0.0,0.385410600177,0.615791320801
1531943832101730308,0.0,0.429805367997,0.396217346191
1531943832121277237,0.0,0.429805367997,0.396217346191
1531943832141412383,0.0,0.429805367997,0.396217346191
1531943832161087343,0.0,0.429805367997,0.396217346191
1531943832180980476,0.0,0.429805367997,0.396217346191
1531943832201189189,0.0,0.429805367997,0.396217346191
1531943832221605292,0.0,0.429805367997,0.396217346191
1531943832241436474,0.0,0.429805367997,0.396217346191
1531943832261853441,0.0,0.429805367997,0.396217346191
1531943832281403826,0.0,0.429805367997,0.396217346191
1531943832301907959,0.0,0.429805367997,0.396217346191
1531943832322421309,0.0,0.429805367997,0.396217346191
1531943832342206315,0.0,0.429805367997,0.396217346191
1531943832362223703,0.0,0.429805367997,0.396217346191
1531943832381568235,0.0,0.229674562827,0.285594940186
1531943832401856531,0.0,0.229674562827,0.285594940186
1531943832421167207,0.0,0.229674562827,0.285594940186
1531943832441102100,0.0,0.229674562827,0.285594940186
1531943832460940289,0.0,0.229674562827,0.285594940186
1531943832481050252,0.0,0.229674562827,0.285594940186
1531943832501227189,0.0,0.229674562827,0.285594940186
1531943832521144066,0.0,0.229674562827,0.285594940186
1531943832541355435,0.0,0.199016963181,0.278499603271
1531943832560866205,0.0,0.199016963181,0.278499603271
1531943832581778046,0.0,0.199016963181,0.278499603271
1531943832601375566,0.0,0.199016963181,0.278499603271
1531943832621343579,0.0,0.199016963181,0.278499603271
1531943832641991166,0.0,0.199016963181,0.278499603271
1531943832661173588,0.0,0.199016963181,0.278499603271
1531943832681223167,0.0,0.199016963181,0.278499603271
1531943832701876611,0.0,0.199016963181,0.278499603271
1531943832721456468,0.0,0.199016963181,0.278499603271
1531943832741352353,0.0,0.199016963181,0.278499603271
1531943832761218606,0.0,0.199016963181,0.278499603271
1531943832781362617,0.0,0.199016963181,0.278499603271
1531943832800917642,0.0,0.30686381347,0.207866668701
1531943832821143187,0.0,0.30686381347,0.207866668701
1531943832842156882,0.0,0.30686381347,0.207866668701
1531943832860994380,0.0,0.30686381347,0.207866668701
1531943832882068043,0.0,0.30686381347,0.207866668701
1531943832901424286,0.0,0.30686381347,0.207866668701
1531943832921876709,0.0,0.30686381347,0.207866668701
1531943832943766297,0.0,0.30686381347,0.207866668701
1531943832961813917,0.0,0.30686381347,0.207866668701
1531943832981431757,0.0,0.30686381347,0.207866668701
1531943833002795656,0.0,0.30686381347,0.207866668701
1531943833022109597,0.0,0.30686381347,0.207866668701
1531943833042047050,0.0,0.432522765242,0.0851783752441
1531943833061349119,0.0,0.432522765242,0.0851783752441
1531943833081615880,0.0,0.432522765242,0.0851783752441
1531943833103592380,0.0,0.432522765242,0.0851783752441
1531943833121424066,0.0,0.432522765242,0.0851783752441
1531943833142814878,0.0,0.432522765242,0.0851783752441
1531943833162205521,0.0,0.432522765242,0.0851783752441
1531943833180965549,0.0,0.432522765242,0.0851783752441
1531943833201121847,0.0,0.432522765242,0.0851783752441
1531943833221767483,0.0,0.432522765242,0.0851783752441
1531943833242561918,0.0,0.432522765242,0.0851783752441
1531943833261273114,0.0,0.432522765242,0.0851783752441
1531943833284367328,0.0,0.1768555494,-0.0813179016113
1531943833301441680,0.0,0.1768555494,-0.0813179016113
1531943833321488476,0.0,0.1768555494,-0.0813179016113
1531943833341403977,0.0,0.1768555494,-0.0813179016113
1531943833361250743,0.0,0.1768555494,-0.0813179016113
1531943833382291863,0.0,0.1768555494,-0.0813179016113
1531943833401122065,0.0,0.1768555494,-0.0813179016113
1531943833421298139,0.0,0.1768555494,-0.0813179016113
1531943833441760834,0.0,0.1768555494,-0.0813179016113
1531943833461040247,0.0,0.1768555494,-0.0813179016113
1531943833481435326,0.0,0.1768555494,-0.0813179016113
1531943833501660296,0.0,0.733921389252,-0.242107391357
1531943833522563849,0.0,0.733921389252,-0.242107391357
1531943833541980924,0.0,0.733921389252,-0.242107391357
1531943833562262405,0.0,0.733921389252,-0.242107391357
1531943833580796547,0.0,0.733921389252,-0.242107391357
1531943833601267594,0.0,0.733921389252,-0.242107391357
