%time,field.header.seq,field.header.stamp,field.header.frame_id,field.status.status,field.status.service,field.latitude,field.longitude,field.altitude,field.position_covariance0,field.position_covariance1,field.position_covariance2,field.position_covariance3,field.position_covariance4,field.position_covariance5,field.position_covariance6,field.position_covariance7,field.position_covariance8,field.position_covariance_type
1531943810885613340,981,1531943810884418155,base_link,0,1,40.5914577,-79.8994959,345.772220932,0.435600034618,0.0,0.0,0.0,0.435600034618,0.0,0.0,0.0,1.74240013847,1
1531943811114656398,982,1531943811112639880,base_link,0,1,40.5914588,-79.8994439,346.032273523,0.435600034618,0.0,0.0,0.0,0.435600034618,0.0,0.0,0.0,1.74240013847,1
1531943811369249054,983,1531943811368075341,base_link,0,1,40.5914596,-79.8993918,346.572326345,0.396899993992,0.0,0.0,0.0,0.396899993992,0.0,0.0,0.0,1.58759997597,1
1531943811635825813,984,1531943811634012524,base_link,0,1,40.5914581,-79.8993327,347.412387274,0.396899993992,0.0,0.0,0.0,0.396899993992,0.0,0.0,0.0,1.58759997597,1
1531943811883567644,985,1531943811882505033,base_link,0,1,40.5914569,-79.8992836,348.292437878,0.396899993992,0.0,0.0,0.0,0.396899993992,0.0,0.0,0.0,1.58759997597,1
1531943812110368657,986,1531943812109279103,base_link,0,1,40.5914577,-79.8992358,349.162486326,0.396899993992,0.0,0.0,0.0,0.396899993992,0.0,0.0,0.0,1.58759997597,1
1531943812391546132,987,1531943812390208837,base_link,0,1,40.5914613,-79.8991884,349.872533201,0.435600034618,0.0,0.0,0.0,0.435600034618,0.0,0.0,0.0,1.74240013847,1
1531943812625354003,988,1531943812622984241,base_link,0,1,40.5914683,-79.8991376,350.36258213,0.372100017452,0.0,0.0,0.0,0.372100017452,0.0,0.0,0.0,1.48840006981,1
1531943812861345494,989,1531943812860496001,base_link,0,1,40.5914784,-79.8990918,350.692624666,0.372100017452,0.0,0.0,0.0,0.372100017452,0.0,0.0,0.0,1.48840006981,1
1531943813108363920,990,1531943813107751800,base_link,0,1,40.5914931,-79.8990482,350.972663039,0.372100017452,0.0,0.0,0.0,0.372100017452,0.0,0.0,0.0,1.48840006981,1
1531943813388587528,991,1531943813387689876,base_link,0,1,40.5915175,-79.8990015,351.322700533,0.372100017452,0.0,0.0,0.0,0.372100017452,0.0,0.0,0.0,1.48840006981,1
1531943813609798958,992,1531943813608992153,base_link,0,1,40.591545,-79.8989667,351.652724588,0.372100017452,0.0,0.0,0.0,0.372100017452,0.0,0.0,0.0,1.48840006981,1
1531943813895016999,993,1531943813893765239,base_link,0,1,40.5915833,-79.8989348,352.142741182,0.372100017452,0.0,0.0,0.0,0.372100017452,0.0,0.0,0.0,1.48840006981,1
1531943814119930881,994,1531943814118171095,base_link,0,1,40.5916134,-79.8989182,352.522745581,0.372100017452,0.0,0.0,0.0,0.372100017452,0.0,0.0,0.0,1.48840006981,1
1531943814359529283,995,1531943814358612015,base_link,0,1,40.5916557,-79.8989052,353.072741224,0.372100017452,0.0,0.0,0.0,0.372100017452,0.0,0.0,0.0,1.48840006981,1
1531943814605898032,996,1531943814604922781,base_link,0,1,40.5916959,-79.8989033,353.672726419,0.372100017452,0.0,0.0,0.0,0.372100017452,0.0,0.0,0.0,1.48840006981,1
1531943814857324669,997,1531943814856207019,base_link,0,1,40.5917386,-79.8989136,354.462698126,0.372100017452,0.0,0.0,0.0,0.372100017452,0.0,0.0,0.0,1.48840006981,1
1531943815106321067,998,1531943815102901142,base_link,0,1,40.5917759,-79.8989322,355.272663619,0.372100017452,0.0,0.0,0.0,0.372100017452,0.0,0.0,0.0,1.48840006981,1
1531943815376568208,999,1531943815375462174,base_link,0,1,40.5918149,-79.8989634,356.432615554,0.372100017452,0.0,0.0,0.0,0.372100017452,0.0,0.0,0.0,1.48840006981,1
1531943815637325901,1000,1531943815633082467,base_link,0,1,40.5918432,-79.8989962,357.692570315,0.348099969053,0.0,0.0,0.0,0.348099969053,0.0,0.0,0.0,1.39239987621,1
1531943815872176242,1001,1531943815871283453,base_link,0,1,40.5918692,-79.8990345,359.222520428,0.372100017452,0.0,0.0,0.0,0.372100017452,0.0,0.0,0.0,1.48840006981,1
1531943816102073336,1002,1531943816100951463,base_link,0,1,40.5918886,-79.899067,360.582479207,0.348099969053,0.0,0.0,0.0,0.348099969053,0.0,0.0,0.0,1.39239987621,1
1531943816380120483,1003,1531943816376534608,base_link,0,1,40.5919118,-79.8991065,362.392429272,0.348099969053,0.0,0.0,0.0,0.348099969053,0.0,0.0,0.0,1.39239987621,1
1531943816604186679,1004,1531943816601476249,base_link,0,1,40.5919294,-79.8991359,363.742391972,0.348099969053,0.0,0.0,0.0,0.348099969053,0.0,0.0,0.0,1.39239987621,1
1531943816828972994,1005,1531943816820825993,base_link,0,1,40.5919469,-79.8991644,364.862355636,0.348099969053,0.0,0.0,0.0,0.348099969053,0.0,0.0,0.0,1.39239987621,1
1531943817059423367,1006,1531943817058233110,base_link,0,1,40.5919661,-79.8991945,365.832316966,0.348099969053,0.0,0.0,0.0,0.348099969053,0.0,0.0,0.0,1.39239987621,1
1531943817327225178,1007,1531943817321907869,base_link,0,1,40.5919872,-79.899226,366.682276086,0.348099969053,0.0,0.0,0.0,0.348099969053,0.0,0.0,0.0,1.39239987621,1
1531943817594120728,1008,1531943817593108741,base_link,0,1,40.5920107,-79.8992584,367.222233299,0.348099969053,0.0,0.0,0.0,0.348099969053,0.0,0.0,0.0,1.39239987621,1
1531943817828145876,1009,1531943817825960144,base_link,0,1,40.5920291,-79.8992832,367.312200381,0.348099969053,0.0,0.0,0.0,0.348099969053,0.0,0.0,0.0,1.39239987621,1
1531943818040645345,1010,1531943818039791948,base_link,0,1,40.5920479,-79.8993082,367.172167098,0.348099969053,0.0,0.0,0.0,0.348099969053,0.0,0.0,0.0,1.39239987621,1
1531943818269436133,1011,1531943818267702555,base_link,0,1,40.5920684,-79.8993354,366.782130872,0.348099969053,0.0,0.0,0.0,0.348099969053,0.0,0.0,0.0,1.39239987621,1
1531943818536554600,1012,1531943818535321015,base_link,0,1,40.592091,-79.8993649,366.202091435,0.348099969053,0.0,0.0,0.0,0.348099969053,0.0,0.0,0.0,1.39239987621,1
1531943818808536461,1013,1531943818807633016,base_link,0,1,40.5921161,-79.8993971,365.432048217,0.348099969053,0.0,0.0,0.0,0.348099969053,0.0,0.0,0.0,1.39239987621,1
1531943818987750112,1014,1531943818986468881,base_link,0,1,40.5921325,-79.8994178,364.892020328,0.348099969053,0.0,0.0,0.0,0.348099969053,0.0,0.0,0.0,1.39239987621,1
1531943819238459127,1015,1531943819237648546,base_link,0,1,40.5921546,-79.8994455,364.16198295,0.348099969053,0.0,0.0,0.0,0.348099969053,0.0,0.0,0.0,1.39239987621,1
1531943819460218522,1016,1531943819459180903,base_link,0,1,40.5921736,-79.8994694,363.561950731,0.348099969053,0.0,0.0,0.0,0.348099969053,0.0,0.0,0.0,1.39239987621,1
1531943819738382745,1017,1531943819736714894,base_link,0,1,40.5922025,-79.8995063,362.731901174,0.348099969053,0.0,0.0,0.0,0.348099969053,0.0,0.0,0.0,1.39239987621,1
1531943819968357844,1018,1531943819965838868,base_link,0,1,40.5922235,-79.8995333,362.19186498,0.348099969053,0.0,0.0,0.0,0.348099969053,0.0,0.0,0.0,1.39239987621,1
1531943820165819884,1019,1531943820164565692,base_link,0,1,40.592245,-79.8995611,361.741827768,0.348099969053,0.0,0.0,0.0,0.348099969053,0.0,0.0,0.0,1.39239987621,1
1531943820422275491,1020,1531943820420710519,base_link,0,1,40.5922685,-79.8995912,361.361787392,0.348099969053,0.0,0.0,0.0,0.348099969053,0.0,0.0,0.0,1.39239987621,1
1531943820727460408,1021,1531943820721700288,base_link,0,1,40.592298,-79.8996286,361.021737108,0.348099969053,0.0,0.0,0.0,0.348099969053,0.0,0.0,0.0,1.39239987621,1
1531943820981084626,1022,1531943820980117055,base_link,0,1,40.5923216,-79.8996575,360.851697927,0.348099969053,0.0,0.0,0.0,0.348099969053,0.0,0.0,0.0,1.39239987621,1
1531943821168299664,1023,1531943821167245725,base_link,0,1,40.5923434,-79.8996835,360.711662448,0.348099969053,0.0,0.0,0.0,0.348099969053,0.0,0.0,0.0,1.39239987621,1
1531943821450299311,1024,1531943821449380570,base_link,0,1,40.5923693,-79.8997126,360.571622126,0.348099969053,0.0,0.0,0.0,0.348099969053,0.0,0.0,0.0,1.39239987621,1
1531943821656175940,1025,1531943821655378126,base_link,0,1,40.5923898,-79.8997338,360.511592083,0.348099969053,0.0,0.0,0.0,0.348099969053,0.0,0.0,0.0,1.39239987621,1
1531943821954628597,1026,1531943821952701261,base_link,0,1,40.592421,-79.8997634,360.41154908,0.348099969053,0.0,0.0,0.0,0.348099969053,0.0,0.0,0.0,1.39239987621,1
1531943822133351937,1027,1531943822132452716,base_link,0,1,40.5924398,-79.8997799,360.291524533,0.348099969053,0.0,0.0,0.0,0.348099969053,0.0,0.0,0.0,1.39239987621,1
1531943822371564776,1028,1531943822370562837,base_link,0,1,40.5924649,-79.8998001,360.041493628,0.348099969053,0.0,0.0,0.0,0.348099969053,0.0,0.0,0.0,1.39239987621,1
1531943822609805487,1029,1531943822608058437,base_link,0,1,40.5924918,-79.8998181,359.691464228,0.348099969053,0.0,0.0,0.0,0.348099969053,0.0,0.0,0.0,1.39239987621,1
1531943822889881325,1030,1531943822889009368,base_link,0,1,40.5925247,-79.899834,359.221434505,0.348099969053,0.0,0.0,0.0,0.348099969053,0.0,0.0,0.0,1.39239987621,1
1531943823167067699,1031,1531943823166139455,base_link,0,1,40.5925594,-79.8998437,358.721410361,0.348099969053,0.0,0.0,0.0,0.348099969053,0.0,0.0,0.0,1.39239987621,1
1531943823370623728,1032,1531943823369897977,base_link,0,1,40.5925883,-79.899847,358.301395125,0.348099969053,0.0,0.0,0.0,0.348099969053,0.0,0.0,0.0,1.39239987621,1
1531943823602596300,1033,1531943823602003987,base_link,0,1,40.5926178,-79.8998461,357.821383922,0.372100017452,0.0,0.0,0.0,0.372100017452,0.0,0.0,0.0,1.48840006981,1
1531943823873045801,1034,1531943823871784312,base_link,0,1,40.5926554,-79.8998382,357.171376526,0.348099969053,0.0,0.0,0.0,0.348099969053,0.0,0.0,0.0,1.39239987621,1
1531943824117672873,1035,1531943824117042161,base_link,0,1,40.5926871,-79.8998243,356.641377666,0.348099969053,0.0,0.0,0.0,0.348099969053,0.0,0.0,0.0,1.39239987621,1
1531943824396190888,1036,1531943824395246580,base_link,0,1,40.5927221,-79.8997992,356.14138886,0.348099969053,0.0,0.0,0.0,0.348099969053,0.0,0.0,0.0,1.39239987621,1
1531943824609166516,1037,1531943824608107425,base_link,0,1,40.5927452,-79.8997762,355.861402801,0.348099969053,0.0,0.0,0.0,0.348099969053,0.0,0.0,0.0,1.39239987621,1
1531943824884717304,1038,1531943824883812931,base_link,0,1,40.592772,-79.8997401,355.541428566,0.348099969053,0.0,0.0,0.0,0.348099969053,0.0,0.0,0.0,1.39239987621,1
1531943825114215130,1039,1531943825113539138,base_link,0,1,40.5927942,-79.8996973,355.311463042,0.348099969053,0.0,0.0,0.0,0.348099969053,0.0,0.0,0.0,1.39239987621,1
1531943825330816991,1040,1531943825330160935,base_link,0,1,40.5928077,-79.8996607,355.191494775,0.348099969053,0.0,0.0,0.0,0.348099969053,0.0,0.0,0.0,1.39239987621,1
1531943825606658790,1041,1531943825601493350,base_link,0,1,40.5928212,-79.8996059,355.201545044,0.348099969053,0.0,0.0,0.0,0.348099969053,0.0,0.0,0.0,1.39239987621,1
1531943825853217560,1042,1531943825851511181,base_link,0,1,40.5928279,-79.8995571,355.371591995,0.348099969053,0.0,0.0,0.0,0.348099969053,0.0,0.0,0.0,1.39239987621,1
1531943826073583761,1043,1531943826070323609,base_link,0,1,40.5928306,-79.899513,355.681635803,0.348099969053,0.0,0.0,0.0,0.348099969053,0.0,0.0,0.0,1.39239987621,1
1531943826328490114,1044,1531943826327550125,base_link,0,1,40.592831,-79.8994649,356.121684631,0.348099969053,0.0,0.0,0.0,0.348099969053,0.0,0.0,0.0,1.39239987621,1
1531943826567286202,1045,1531943826566314022,base_link,0,1,40.5928298,-79.8994101,356.671740944,0.348099969053,0.0,0.0,0.0,0.348099969053,0.0,0.0,0.0,1.39239987621,1
1531943826805891093,1046,1531943826804055403,base_link,0,1,40.5928282,-79.8993677,357.131784794,0.348099969053,0.0,0.0,0.0,0.348099969053,0.0,0.0,0.0,1.39239987621,1
1531943827070974154,1047,1531943827066613280,base_link,0,1,40.5928263,-79.8993187,357.711835494,0.348099969053,0.0,0.0,0.0,0.348099969053,0.0,0.0,0.0,1.39239987621,1
1531943827329166137,1048,1531943827327174194,base_link,0,1,40.5928248,-79.8992705,358.23188522,0.348099969053,0.0,0.0,0.0,0.348099969053,0.0,0.0,0.0,1.39239987621,1
1531943827571868744,1049,1531943827570534040,base_link,0,1,40.5928238,-79.8992262,358.68193077,0.348099969053,0.0,0.0,0.0,0.348099969053,0.0,0.0,0.0,1.39239987621,1
1531943827819815989,1050,1531943827810326378,base_link,0,1,40.5928235,-79.8991823,359.071975629,0.348099969053,0.0,0.0,0.0,0.348099969053,0.0,0.0,0.0,1.39239987621,1
1531943828012767689,1051,1531943828011740182,base_link,0,1,40.5928237,-79.8991421,359.332016515,0.348099969053,0.0,0.0,0.0,0.348099969053,0.0,0.0,0.0,1.39239987621,1
1531943828294796441,1052,1531943828290816714,base_link,0,1,40.5928247,-79.8990952,359.502063903,0.348099969053,0.0,0.0,0.0,0.348099969053,0.0,0.0,0.0,1.39239987621,1
1531943828519922597,1053,1531943828518151355,base_link,0,1,40.5928268,-79.8990514,359.612107685,0.348099969053,0.0,0.0,0.0,0.348099969053,0.0,0.0,0.0,1.39239987621,1
1531943828791866001,1054,1531943828790713055,base_link,0,1,40.5928304,-79.8990036,359.64215493,0.348099969053,0.0,0.0,0.0,0.348099969053,0.0,0.0,0.0,1.39239987621,1
1531943828996532569,1055,1531943828994993836,base_link,0,1,40.5928336,-79.8989668,359.60219113,0.348099969053,0.0,0.0,0.0,0.348099969053,0.0,0.0,0.0,1.39239987621,1
1531943829207936180,1056,1531943829207011903,base_link,0,1,40.5928378,-79.8989227,359.562234363,0.348099969053,0.0,0.0,0.0,0.348099969053,0.0,0.0,0.0,1.39239987621,1
1531943829457216893,1057,1531943829456506310,base_link,0,1,40.5928419,-79.8988809,359.522275295,0.348099969053,0.0,0.0,0.0,0.348099969053,0.0,0.0,0.0,1.39239987621,1
1531943829671981838,1058,1531943829671032826,base_link,0,1,40.5928464,-79.8988352,359.482320042,0.348099969053,0.0,0.0,0.0,0.348099969053,0.0,0.0,0.0,1.39239987621,1
1531943829945688812,1059,1531943829944622425,base_link,0,1,40.5928511,-79.898785,359.402369299,0.348099969053,0.0,0.0,0.0,0.348099969053,0.0,0.0,0.0,1.39239987621,1
1531943830165992797,1060,1531943830164818763,base_link,0,1,40.5928549,-79.8987412,359.312412403,0.348099969053,0.0,0.0,0.0,0.348099969053,0.0,0.0,0.0,1.39239987621,1
1531943830368306605,1061,1531943830367019484,base_link,0,1,40.5928581,-79.8987008,359.272452289,0.348099969053,0.0,0.0,0.0,0.348099969053,0.0,0.0,0.0,1.39239987621,1
1531943830624091309,1062,1531943830622593567,base_link,0,1,40.5928614,-79.8986489,359.262503865,0.384400005913,0.0,0.0,0.0,0.384400005913,0.0,0.0,0.0,1.53760002365,1
1531943830871323190,1063,1531943830869708457,base_link,0,1,40.5928638,-79.8985957,359.182557141,0.384400005913,0.0,0.0,0.0,0.384400005913,0.0,0.0,0.0,1.53760002365,1
1531943831138798217,1064,1531943831137766582,base_link,0,1,40.5928649,-79.8985427,359.082610753,0.384400005913,0.0,0.0,0.0,0.384400005913,0.0,0.0,0.0,1.53760002365,1
1531943831347522863,1065,1531943831345741605,base_link,0,1,40.5928647,-79.8985028,359.082651538,0.384400005913,0.0,0.0,0.0,0.384400005913,0.0,0.0,0.0,1.53760002365,1
1531943831576655931,1066,1531943831576000131,base_link,0,1,40.5928641,-79.8984572,359.232698307,0.384400005913,0.0,0.0,0.0,0.384400005913,0.0,0.0,0.0,1.53760002365,1
1531943831828676175,1067,1531943831825881137,base_link,0,1,40.5928636,-79.8984033,359.552753506,0.384400005913,0.0,0.0,0.0,0.384400005913,0.0,0.0,0.0,1.53760002365,1
1531943832075807232,1068,1531943832074912395,base_link,0,1,40.5928636,-79.8983546,359.772803199,0.384400005913,0.0,0.0,0.0,0.384400005913,0.0,0.0,0.0,1.53760002365,1
1531943832335158881,1069,1531943832333398551,base_link,0,1,40.5928635,-79.8982968,359.882862223,0.384400005913,0.0,0.0,0.0,0.384400005913,0.0,0.0,0.0,1.53760002365,1
1531943832525738826,1070,1531943832524864981,base_link,0,1,40.5928634,-79.8982593,359.882900535,0.384400005913,0.0,0.0,0.0,0.384400005913,0.0,0.0,0.0,1.53760002365,1
1531943832795801320,1071,1531943832788958524,base_link,0,1,40.5928631,-79.8982019,359.962959243,0.384400005913,0.0,0.0,0.0,0.384400005913,0.0,0.0,0.0,1.53760002365,1
1531943833027314302,1072,1531943833024618302,base_link,0,1,40.5928628,-79.8981562,360.083006014,0.384400005913,0.0,0.0,0.0,0.384400005913,0.0,0.0,0.0,1.53760002365,1
1531943833256648210,1073,1531943833254346062,base_link,0,1,40.5928626,-79.8981101,360.233053155,0.384400005913,0.0,0.0,0.0,0.384400005913,0.0,0.0,0.0,1.53760002365,1
1531943833476572409,1074,1531943833475971393,base_link,0,1,40.5928622,-79.8980603,360.403104159,0.384400005913,0.0,0.0,0.0,0.384400005913,0.0,0.0,0.0,1.53760002365,1
1531943833730267493,1075,1531943833729329585,base_link,0,1,40.5928616,-79.8980111,360.473154638,0.384400005913,0.0,0.0,0.0,0.384400005913,0.0,0.0,0.0,1.53760002365,1
1531943833962486998,1076,1531943833961601537,base_link,0,1,40.5928613,-79.897961,360.513205916,0.384400005913,0.0,0.0,0.0,0.384400005913,0.0,0.0,0.0,1.53760002365,1
1531943834230237084,1077,1531943834229259496,base_link,0,1,40.5928614,-79.8979073,360.55326071,0.384400005913,0.0,0.0,0.0,0.384400005913,0.0,0.0,0.0,1.53760002365,1
1531943834476528967,1078,1531943834475835504,base_link,0,1,40.5928619,-79.8978575,360.573311361,0.384400005913,0.0,0.0,0.0,0.384400005913,0.0,0.0,0.0,1.53760002365,1
1531943834775781294,1079,1531943834774755579,base_link,0,1,40.5928622,-79.8977953,360.653374764,0.384400005913,0.0,0.0,0.0,0.384400005913,0.0,0.0,0.0,1.53760002365,1
1531943834952282667,1080,1531943834951241527,base_link,0,1,40.5928621,-79.8977582,360.703412699,0.384400005913,0.0,0.0,0.0,0.384400005913,0.0,0.0,0.0,1.53760002365,1
1531943835164251516,1081,1531943835162734254,base_link,0,1,40.5928616,-79.8977137,360.733458361,0.384400005913,0.0,0.0,0.0,0.384400005913,0.0,0.0,0.0,1.53760002365,1
1531943835424430373,1082,1531943835423653903,base_link,0,1,40.5928609,-79.8976644,360.793509012,0.384400005913,0.0,0.0,0.0,0.384400005913,0.0,0.0,0.0,1.53760002365,1
1531943835615532341,1083,1531943835614428674,base_link,0,1,40.5928602,-79.8976232,360.843551391,0.435600034618,0.0,0.0,0.0,0.435600034618,0.0,0.0,0.0,1.74240013847,1
1531943835877846788,1084,1531943835876865328,base_link,0,1,40.5928589,-79.8975655,360.71361088,0.47609999671,0.0,0.0,0.0,0.47609999671,0.0,0.0,0.0,1.90439998684,1
1531943836105880022,1085,1531943836105203070,base_link,0,1,40.5928578,-79.8975203,360.383657519,0.396899993992,0.0,0.0,0.0,0.396899993992,0.0,0.0,0.0,1.58759997597,1
1531943836372080220,1086,1531943836359879632,base_link,0,1,40.5928568,-79.8974707,360.023708617,0.384400005913,0.0,0.0,0.0,0.384400005913,0.0,0.0,0.0,1.53760002365,1
1531943836582753987,1087,1531943836581667696,base_link,0,1,40.5928565,-79.8974242,359.713756262,0.384400005913,0.0,0.0,0.0,0.384400005913,0.0,0.0,0.0,1.53760002365,1
1531943836823250593,1088,1531943836822401163,base_link,0,1,40.5928565,-79.8973695,359.423812169,0.384400005913,0.0,0.0,0.0,0.384400005913,0.0,0.0,0.0,1.53760002365,1
1531943837035550933,1089,1531943837033506637,base_link,0,1,40.5928567,-79.8973214,359.263861251,0.384400005913,0.0,0.0,0.0,0.384400005913,0.0,0.0,0.0,1.53760002365,1
1531943837313921133,1090,1531943837313241558,base_link,0,1,40.5928577,-79.8972644,359.173919106,0.384400005913,0.0,0.0,0.0,0.384400005913,0.0,0.0,0.0,1.53760002365,1
1531943837527120667,1091,1531943837525666220,base_link,0,1,40.5928588,-79.897217,359.20396711,0.384400005913,0.0,0.0,0.0,0.384400005913,0.0,0.0,0.0,1.53760002365,1
1531943837768770608,1092,1531943837767838107,base_link,0,1,40.5928603,-79.8971593,359.334025484,0.384400005913,0.0,0.0,0.0,0.384400005913,0.0,0.0,0.0,1.53760002365,1
1531943838015730309,1093,1531943838014799088,base_link,0,1,40.5928617,-79.8971109,359.534074395,0.384400005913,0.0,0.0,0.0,0.384400005913,0.0,0.0,0.0,1.53760002365,1
1531943838231480632,1094,1531943838230590434,base_link,0,1,40.5928631,-79.897059,359.754126889,0.384400005913,0.0,0.0,0.0,0.384400005913,0.0,0.0,0.0,1.53760002365,1
1531943838492846660,1095,1531943838491624883,base_link,0,1,40.5928646,-79.8970068,359.954179652,0.435600034618,0.0,0.0,0.0,0.435600034618,0.0,0.0,0.0,1.74240013847,1
1531943838756612115,1096,1531943838755160709,base_link,0,1,40.5928661,-79.8969462,360.084241012,0.384400005913,0.0,0.0,0.0,0.384400005913,0.0,0.0,0.0,1.53760002365,1
1531943839022491690,1097,1531943839020735839,base_link,0,1,40.592867,-79.8968913,360.204296795,0.384400005913,0.0,0.0,0.0,0.384400005913,0.0,0.0,0.0,1.53760002365,1
1531943839213845575,1098,1531943839212905427,base_link,0,1,40.5928671,-79.8968526,360.314336342,0.384400005913,0.0,0.0,0.0,0.384400005913,0.0,0.0,0.0,1.53760002365,1
1531943839457670893,1099,1531943839456229150,base_link,0,1,40.5928665,-79.8967966,360.484393878,0.384400005913,0.0,0.0,0.0,0.384400005913,0.0,0.0,0.0,1.53760002365,1
1531943839714110267,1100,1531943839712980008,base_link,0,1,40.5928654,-79.8967412,360.474451013,0.384400005913,0.0,0.0,0.0,0.384400005913,0.0,0.0,0.0,1.53760002365,1
1531943839957477254,1101,1531943839956618288,base_link,0,1,40.5928639,-79.8966894,360.474504634,0.384400005913,0.0,0.0,0.0,0.384400005913,0.0,0.0,0.0,1.53760002365,1
1531943840236269067,1102,1531943840234714718,base_link,0,1,40.5928613,-79.8966287,360.414567823,0.384400005913,0.0,0.0,0.0,0.384400005913,0.0,0.0,0.0,1.53760002365,1
1531943840485415798,1103,1531943840484424066,base_link,0,1,40.592858,-79.896582,360.314616979,0.384400005913,0.0,0.0,0.0,0.384400005913,0.0,0.0,0.0,1.53760002365,1
1531943840741108658,1104,1531943840740353435,base_link,0,1,40.5928519,-79.8965261,360.164676713,0.384400005913,0.0,0.0,0.0,0.384400005913,0.0,0.0,0.0,1.53760002365,1
1531943840971223010,1105,1531943840970311085,base_link,0,1,40.5928431,-79.8964703,360.054737468,0.435600034618,0.0,0.0,0.0,0.435600034618,0.0,0.0,0.0,1.74240013847,1
1531943841208264771,1106,1531943841207225904,base_link,0,1,40.5928336,-79.8964238,359.964788999,0.435600034618,0.0,0.0,0.0,0.435600034618,0.0,0.0,0.0,1.74240013847,1
1531943841447216398,1107,1531943841446059612,base_link,0,1,40.592821,-79.8963731,359.794846117,0.435600034618,0.0,0.0,0.0,0.435600034618,0.0,0.0,0.0,1.74240013847,1
1531943841662702771,1108,1531943841661513953,base_link,0,1,40.5928072,-79.896327,359.544899028,0.435600034618,0.0,0.0,0.0,0.435600034618,0.0,0.0,0.0,1.74240013847,1
1531943841926083161,1109,1531943841925082181,base_link,0,1,40.5927875,-79.896274,359.204961454,0.384400005913,0.0,0.0,0.0,0.384400005913,0.0,0.0,0.0,1.53760002365,1
1531943842194106891,1110,1531943842193154870,base_link,0,1,40.5927607,-79.89622,358.965027854,0.435600034618,0.0,0.0,0.0,0.435600034618,0.0,0.0,0.0,1.74240013847,1
1531943842453173962,1111,1531943842452264149,base_link,0,1,40.5927301,-79.8961731,358.835088568,0.384400005913,0.0,0.0,0.0,0.384400005913,0.0,0.0,0.0,1.53760002365,1
1531943842651489345,1112,1531943842650316400,base_link,0,1,40.5927067,-79.896142,358.665130124,0.384400005913,0.0,0.0,0.0,0.384400005913,0.0,0.0,0.0,1.53760002365,1
1531943842871200088,1113,1531943842870560096,base_link,0,1,40.5926769,-79.896107,358.355178336,0.384400005913,0.0,0.0,0.0,0.384400005913,0.0,0.0,0.0,1.53760002365,1
1531943843125469492,1114,1531943843123703529,base_link,0,1,40.5926415,-79.8960721,357.985228778,0.384400005913,0.0,0.0,0.0,0.384400005913,0.0,0.0,0.0,1.53760002365,1
1531943843375190761,1115,1531943843374178261,base_link,0,1,40.5925963,-79.8960385,357.625281968,0.384400005913,0.0,0.0,0.0,0.384400005913,0.0,0.0,0.0,1.53760002365,1
1531943843643902266,1116,1531943843642838759,base_link,0,1,40.5925515,-79.8960156,357.425324043,0.384400005913,0.0,0.0,0.0,0.384400005913,0.0,0.0,0.0,1.53760002365,1
1531943843874688882,1117,1531943843871808052,base_link,0,1,40.5925076,-79.8960021,357.485356124,0.435600034618,0.0,0.0,0.0,0.435600034618,0.0,0.0,0.0,1.74240013847,1
1531943844130440481,1118,1531943844128221916,base_link,0,1,40.5924631,-79.895995,357.675381906,0.384400005913,0.0,0.0,0.0,0.384400005913,0.0,0.0,0.0,1.53760002365,1
1531943844354375663,1119,1531943844351721231,base_link,0,1,40.5924193,-79.8959926,357.805402591,0.384400005913,0.0,0.0,0.0,0.384400005913,0.0,0.0,0.0,1.53760002365,1
1531943844593529576,1120,1531943844592109337,base_link,0,1,40.5923769,-79.8959943,357.9254185,0.348099969053,0.0,0.0,0.0,0.348099969053,0.0,0.0,0.0,1.39239987621,1
1531943844837197131,1121,1531943844836192055,base_link,0,1,40.5923389,-79.8959993,358.095429202,0.348099969053,0.0,0.0,0.0,0.348099969053,0.0,0.0,0.0,1.39239987621,1
1531943845056733039,1122,1531943845055442558,base_link,0,1,40.5922986,-79.8960079,358.455437179,0.348099969053,0.0,0.0,0.0,0.348099969053,0.0,0.0,0.0,1.39239987621,1
1531943845363084620,1123,1531943845362344181,base_link,0,1,40.5922534,-79.8960201,359.095443517,0.348099969053,0.0,0.0,0.0,0.348099969053,0.0,0.0,0.0,1.39239987621,1
1531943845575181964,1124,1531943845574375126,base_link,0,1,40.5922186,-79.8960298,359.635448088,0.348099969053,0.0,0.0,0.0,0.348099969053,0.0,0.0,0.0,1.39239987621,1
1531943845824487345,1125,1531943845822678375,base_link,0,1,40.5921785,-79.8960404,360.205453954,0.348099969053,0.0,0.0,0.0,0.348099969053,0.0,0.0,0.0,1.39239987621,1
1531943846074918186,1126,1531943846074136212,base_link,0,1,40.5921422,-79.8960492,360.625460085,0.348099969053,0.0,0.0,0.0,0.348099969053,0.0,0.0,0.0,1.39239987621,1
1531943846329112699,1127,1531943846327647692,base_link,0,1,40.592103,-79.8960573,360.975468152,0.348099969053,0.0,0.0,0.0,0.348099969053,0.0,0.0,0.0,1.39239987621,1
1531943846571678773,1128,1531943846569857195,base_link,0,1,40.5920641,-79.8960637,361.175477843,0.348099969053,0.0,0.0,0.0,0.348099969053,0.0,0.0,0.0,1.39239987621,1
1531943846798700873,1129,1531943846797320057,base_link,0,1,40.5920347,-79.8960672,361.285486543,0.348099969053,0.0,0.0,0.0,0.348099969053,0.0,0.0,0.0,1.39239987621,1
1531943847041277316,1130,1531943847040050291,base_link,0,1,40.5919955,-79.89607,361.375500063,0.348099969053,0.0,0.0,0.0,0.348099969053,0.0,0.0,0.0,1.39239987621,1
1531943847286423654,1131,1531943847285328531,base_link,0,1,40.5919562,-79.8960707,361.395515786,0.348099969053,0.0,0.0,0.0,0.348099969053,0.0,0.0,0.0,1.39239987621,1
1531943847545694240,1132,1531943847544961096,base_link,0,1,40.5919232,-79.89607,361.345530315,0.348099969053,0.0,0.0,0.0,0.348099969053,0.0,0.0,0.0,1.39239987621,1
1531943847808248338,1133,1531943847806055500,base_link,0,1,40.5918836,-79.8960684,361.185548536,0.348099969053,0.0,0.0,0.0,0.348099969053,0.0,0.0,0.0,1.39239987621,1
1531943848046225162,1134,1531943848043765191,base_link,0,1,40.5918436,-79.8960662,360.925567548,0.348099969053,0.0,0.0,0.0,0.348099969053,0.0,0.0,0.0,1.39239987621,1
1531943848283071698,1135,1531943848282425594,base_link,0,1,40.5918063,-79.896064,360.635585436,0.348099969053,0.0,0.0,0.0,0.348099969053,0.0,0.0,0.0,1.39239987621,1
1531943848568580762,1136,1531943848564466347,base_link,0,1,40.5917622,-79.8960616,360.285606389,0.348099969053,0.0,0.0,0.0,0.348099969053,0.0,0.0,0.0,1.39239987621,1
1531943848794193639,1137,1531943848792825112,base_link,0,1,40.5917268,-79.8960599,360.045622983,0.348099969053,0.0,0.0,0.0,0.348099969053,0.0,0.0,0.0,1.39239987621,1
1531943849045330695,1138,1531943849043665787,base_link,0,1,40.591685,-79.8960584,359.815642065,0.348099969053,0.0,0.0,0.0,0.348099969053,0.0,0.0,0.0,1.39239987621,1
1531943849279548884,1139,1531943849278669919,base_link,0,1,40.5916459,-79.8960574,359.615659509,0.348099969053,0.0,0.0,0.0,0.348099969053,0.0,0.0,0.0,1.39239987621,1
1531943849535203779,1140,1531943849534175696,base_link,0,1,40.5916065,-79.8960569,359.505676574,0.348099969053,0.0,0.0,0.0,0.348099969053,0.0,0.0,0.0,1.39239987621,1
1531943849744861139,1141,1531943849735292868,base_link,0,1,40.5915702,-79.896057,359.515691728,0.348099969053,0.0,0.0,0.0,0.348099969053,0.0,0.0,0.0,1.39239987621,1
1531943850034517328,1142,1531943850033212864,base_link,0,1,40.5915241,-79.8960585,359.695709574,0.348099969053,0.0,0.0,0.0,0.348099969053,0.0,0.0,0.0,1.39239987621,1
1531943850244612511,1143,1531943850243055442,base_link,0,1,40.5914876,-79.8960605,359.885722878,0.348099969053,0.0,0.0,0.0,0.348099969053,0.0,0.0,0.0,1.39239987621,1
1531943850472651738,1144,1531943850469872475,base_link,0,1,40.591448,-79.8960628,360.075737185,0.348099969053,0.0,0.0,0.0,0.348099969053,0.0,0.0,0.0,1.39239987621,1
1531943850731301452,1145,1531943850729654175,base_link,0,1,40.5914102,-79.8960651,360.165750743,0.348099969053,0.0,0.0,0.0,0.348099969053,0.0,0.0,0.0,1.39239987621,1
1531943850968035968,1146,1531943850966065271,base_link,0,1,40.5913679,-79.8960679,360.18576569,0.348099969053,0.0,0.0,0.0,0.348099969053,0.0,0.0,0.0,1.39239987621,1
1531943851226924019,1147,1531943851226073469,base_link,0,1,40.5913287,-79.8960702,360.185779852,0.348099969053,0.0,0.0,0.0,0.348099969053,0.0,0.0,0.0,1.39239987621,1
1531943851496387306,1148,1531943851495531092,base_link,0,1,40.5912833,-79.8960721,360.255797047,0.348099969053,0.0,0.0,0.0,0.348099969053,0.0,0.0,0.0,1.39239987621,1
1531943851707817261,1149,1531943851706311871,base_link,0,1,40.5912506,-79.8960729,360.325810022,0.348099969053,0.0,0.0,0.0,0.348099969053,0.0,0.0,0.0,1.39239987621,1
1531943851963835746,1150,1531943851961452223,base_link,0,1,40.5912112,-79.8960734,360.395826138,0.348099969053,0.0,0.0,0.0,0.348099969053,0.0,0.0,0.0,1.39239987621,1
1531943852172602121,1151,1531943852171389655,base_link,0,1,40.5911724,-79.8960737,360.505842214,0.348099969053,0.0,0.0,0.0,0.348099969053,0.0,0.0,0.0,1.39239987621,1
1531943852410965972,1152,1531943852410075774,base_link,0,1,40.5911337,-79.8960741,360.635858152,0.348099969053,0.0,0.0,0.0,0.348099969053,0.0,0.0,0.0,1.39239987621,1
1531943852666788401,1153,1531943852665720094,base_link,0,1,40.5910916,-79.8960754,360.775874612,0.348099969053,0.0,0.0,0.0,0.348099969053,0.0,0.0,0.0,1.39239987621,1
1531943852921188063,1154,1531943852919470707,base_link,0,1,40.5910532,-79.8960778,360.875888386,0.348099969053,0.0,0.0,0.0,0.348099969053,0.0,0.0,0.0,1.39239987621,1
1531943853159028531,1155,1531943853158055775,base_link,0,1,40.5910147,-79.8960818,360.905900568,0.348099969053,0.0,0.0,0.0,0.348099969053,0.0,0.0,0.0,1.39239987621,1
1531943853402396168,1156,1531943853398105754,base_link,0,1,40.5909793,-79.8960869,360.815910315,0.348099969053,0.0,0.0,0.0,0.348099969053,0.0,0.0,0.0,1.39239987621,1
1531943853653305091,1157,1531943853649213524,base_link,0,1,40.5909375,-79.8960954,360.505919288,0.348099969053,0.0,0.0,0.0,0.348099969053,0.0,0.0,0.0,1.39239987621,1
1531943853870323758,1158,1531943853869055260,base_link,0,1,40.5909028,-79.8961055,360.155923619,0.348099969053,0.0,0.0,0.0,0.348099969053,0.0,0.0,0.0,1.39239987621,1
1531943854102197835,1159,1531943854100048229,base_link,0,1,40.5908642,-79.8961207,359.745924373,0.348099969053,0.0,0.0,0.0,0.348099969053,0.0,0.0,0.0,1.39239987621,1
1531943854361448363,1160,1531943854359928605,base_link,0,1,40.5908231,-79.896142,359.275919932,0.348099969053,0.0,0.0,0.0,0.348099969053,0.0,0.0,0.0,1.39239987621,1
1531943854630441112,1161,1531943854628458896,base_link,0,1,40.5907837,-79.8961686,358.825909336,0.348099969053,0.0,0.0,0.0,0.348099969053,0.0,0.0,0.0,1.39239987621,1
1531943854854297207,1162,1531943854850247783,base_link,0,1,40.5907517,-79.8961959,358.475894888,0.348099969053,0.0,0.0,0.0,0.348099969053,0.0,0.0,0.0,1.39239987621,1
1531943855110801529,1163,1531943855109914308,base_link,0,1,40.5907134,-79.8962365,358.065869466,0.348099969053,0.0,0.0,0.0,0.348099969053,0.0,0.0,0.0,1.39239987621,1
1531943855329751030,1164,1531943855328893312,base_link,0,1,40.5906888,-79.8962693,357.85584624,0.348099969053,0.0,0.0,0.0,0.348099969053,0.0,0.0,0.0,1.39239987621,1
1531943855582582341,1165,1531943855581657712,base_link,0,1,40.5906629,-79.8963123,357.695813099,0.348099969053,0.0,0.0,0.0,0.348099969053,0.0,0.0,0.0,1.39239987621,1
1531943855847083468,1166,1531943855843783763,base_link,0,1,40.5906378,-79.8963666,357.595768025,0.348099969053,0.0,0.0,0.0,0.348099969053,0.0,0.0,0.0,1.39239987621,1
1531943856072944153,1167,1531943856071930245,base_link,0,1,40.5906219,-79.8964111,357.545729105,0.348099969053,0.0,0.0,0.0,0.348099969053,0.0,0.0,0.0,1.39239987621,1
1531943856355866734,1168,1531943856353408522,base_link,0,1,40.5906069,-79.8964681,357.485676979,0.348099969053,0.0,0.0,0.0,0.348099969053,0.0,0.0,0.0,1.39239987621,1
1531943856571447477,1169,1531943856570308227,base_link,0,1,40.5905983,-79.8965181,357.485629322,0.348099969053,0.0,0.0,0.0,0.348099969053,0.0,0.0,0.0,1.39239987621,1
1531943856854975587,1170,1531943856853117177,base_link,0,1,40.5905932,-79.8965761,357.615571973,0.348099969053,0.0,0.0,0.0,0.348099969053,0.0,0.0,0.0,1.39239987621,1
1531943857103875048,1171,1531943857102721557,base_link,0,1,40.5905924,-79.8966248,357.795522345,0.348099969053,0.0,0.0,0.0,0.348099969053,0.0,0.0,0.0,1.39239987621,1
1531943857322261044,1172,1531943857319007674,base_link,0,1,40.5905938,-79.8966687,358.015476712,0.348099969053,0.0,0.0,0.0,0.348099969053,0.0,0.0,0.0,1.39239987621,1
1531943857569299985,1173,1531943857566031735,base_link,0,1,40.5905972,-79.8967187,358.385423975,0.348099969053,0.0,0.0,0.0,0.348099969053,0.0,0.0,0.0,1.39239987621,1
1531943857802119477,1174,1531943857799755408,base_link,0,1,40.590601,-79.8967601,358.785379895,0.348099969053,0.0,0.0,0.0,0.348099969053,0.0,0.0,0.0,1.39239987621,1
1531943858108908475,1175,1531943858107950502,base_link,0,1,40.5906067,-79.8968185,359.485317575,0.348099969053,0.0,0.0,0.0,0.348099969053,0.0,0.0,0.0,1.39239987621,1
1531943858300836319,1176,1531943858299548046,base_link,0,1,40.5906097,-79.8968504,359.865283585,0.348099969053,0.0,0.0,0.0,0.348099969053,0.0,0.0,0.0,1.39239987621,1
1531943858573214586,1177,1531943858572551138,base_link,0,1,40.590614,-79.8968995,360.385231407,0.348099969053,0.0,0.0,0.0,0.348099969053,0.0,0.0,0.0,1.39239987621,1
1531943858811628801,1178,1531943858810028308,base_link,0,1,40.5906175,-79.8969411,360.715187264,0.348099969053,0.0,0.0,0.0,0.348099969053,0.0,0.0,0.0,1.39239987621,1
1531943859057566097,1179,1531943859056732027,base_link,0,1,40.5906207,-79.8969823,360.905143661,0.348099969053,0.0,0.0,0.0,0.348099969053,0.0,0.0,0.0,1.39239987621,1
1531943859325232264,1180,1531943859323188224,base_link,0,1,40.5906234,-79.8970266,360.975097095,0.348099969053,0.0,0.0,0.0,0.348099969053,0.0,0.0,0.0,1.39239987621,1
1531943859559078184,1181,1531943859558172371,base_link,0,1,40.590625,-79.8970674,360.935054587,0.348099969053,0.0,0.0,0.0,0.348099969053,0.0,0.0,0.0,1.39239987621,1
1531943859798954658,1182,1531943859798331562,base_link,0,1,40.5906258,-79.8971092,360.855011396,0.348099969053,0.0,0.0,0.0,0.348099969053,0.0,0.0,0.0,1.39239987621,1
1531943860074796860,1183,1531943860074118820,base_link,0,1,40.5906258,-79.8971552,360.694964242,0.348099969053,0.0,0.0,0.0,0.348099969053,0.0,0.0,0.0,1.39239987621,1
1531943860303601403,1184,1531943860299996293,base_link,0,1,40.5906253,-79.8971981,360.39492048,0.384400005913,0.0,0.0,0.0,0.384400005913,0.0,0.0,0.0,1.53760002365,1
1531943860590524951,1185,1531943860585657776,base_link,0,1,40.590624,-79.8972501,359.864867735,0.384400005913,0.0,0.0,0.0,0.384400005913,0.0,0.0,0.0,1.53760002365,1
1531943860810492381,1186,1531943860809734246,base_link,0,1,40.5906223,-79.8972919,359.394825616,0.384400005913,0.0,0.0,0.0,0.384400005913,0.0,0.0,0.0,1.53760002365,1
1531943861077667232,1187,1531943861076615180,base_link,0,1,40.5906195,-79.8973432,358.844774231,0.384400005913,0.0,0.0,0.0,0.384400005913,0.0,0.0,0.0,1.53760002365,1
1531943861284439748,1188,1531943861283179218,base_link,0,1,40.5906164,-79.8973876,358.434730047,0.384400005913,0.0,0.0,0.0,0.384400005913,0.0,0.0,0.0,1.53760002365,1
1531943861557171851,1189,1531943861555565022,base_link,0,1,40.5906121,-79.8974416,358.044676539,0.435600034618,0.0,0.0,0.0,0.435600034618,0.0,0.0,0.0,1.74240013847,1
1531943861777121014,1190,1531943861775860772,base_link,0,1,40.5906079,-79.8974914,357.924627296,0.435600034618,0.0,0.0,0.0,0.435600034618,0.0,0.0,0.0,1.74240013847,1
1531943862071957918,1191,1531943862071138824,base_link,0,1,40.5906033,-79.8975498,358.034569416,0.384400005913,0.0,0.0,0.0,0.384400005913,0.0,0.0,0.0,1.53760002365,1
1531943862294735564,1192,1531943862292778915,base_link,0,1,40.5906002,-79.8975949,358.214524529,0.348099969053,0.0,0.0,0.0,0.348099969053,0.0,0.0,0.0,1.39239987621,1
1531943862512273655,1193,1531943862511332002,base_link,0,1,40.5905977,-79.8976397,358.434479699,0.348099969053,0.0,0.0,0.0,0.348099969053,0.0,0.0,0.0,1.39239987621,1
1531943862779944958,1194,1531943862777442363,base_link,0,1,40.5905952,-79.8976963,358.664422787,0.384400005913,0.0,0.0,0.0,0.384400005913,0.0,0.0,0.0,1.53760002365,1
1531943863006787677,1195,1531943863005913288,base_link,0,1,40.5905941,-79.8977407,358.814377781,0.384400005913,0.0,0.0,0.0,0.384400005913,0.0,0.0,0.0,1.53760002365,1
1531943863265664719,1196,1531943863264060705,base_link,0,1,40.5905937,-79.8977928,358.954324597,0.384400005913,0.0,0.0,0.0,0.384400005913,0.0,0.0,0.0,1.53760002365,1
1531943863500756787,1197,1531943863499164901,base_link,0,1,40.590594,-79.8978398,359.094276344,0.384400005913,0.0,0.0,0.0,0.384400005913,0.0,0.0,0.0,1.53760002365,1
1531943863768547805,1198,1531943863767811302,base_link,0,1,40.5905949,-79.8978961,359.284218318,0.384400005913,0.0,0.0,0.0,0.384400005913,0.0,0.0,0.0,1.53760002365,1
1531943864014105161,1199,1531943864012889015,base_link,0,1,40.5905961,-79.8979443,359.474168464,0.348099969053,0.0,0.0,0.0,0.348099969053,0.0,0.0,0.0,1.39239987621,1
1531943864293157494,1200,1531943864292341248,base_link,0,1,40.5905976,-79.8979953,359.69411562,0.384400005913,0.0,0.0,0.0,0.384400005913,0.0,0.0,0.0,1.53760002365,1
1531943864498229113,1201,1531943864497132742,base_link,0,1,40.5905988,-79.8980391,359.894070278,0.384400005913,0.0,0.0,0.0,0.384400005913,0.0,0.0,0.0,1.53760002365,1
1531943864783120547,1202,1531943864782458379,base_link,0,1,40.5906007,-79.8980987,360.124008471,0.384400005913,0.0,0.0,0.0,0.384400005913,0.0,0.0,0.0,1.53760002365,1
1531943864996499942,1203,1531943864995801998,base_link,0,1,40.5906021,-79.8981375,360.263968169,0.384400005913,0.0,0.0,0.0,0.384400005913,0.0,0.0,0.0,1.53760002365,1
1531943865276817418,1204,1531943865276068691,base_link,0,1,40.5906036,-79.8981888,360.403915036,0.384400005913,0.0,0.0,0.0,0.384400005913,0.0,0.0,0.0,1.53760002365,1
1531943865469231811,1205,1531943865467937426,base_link,0,1,40.5906044,-79.8982319,360.433870594,0.384400005913,0.0,0.0,0.0,0.384400005913,0.0,0.0,0.0,1.53760002365,1
1531943865706412728,1206,1531943865705467810,base_link,0,1,40.5906047,-79.8982791,360.373822171,0.384400005913,0.0,0.0,0.0,0.384400005913,0.0,0.0,0.0,1.53760002365,1
1531943865973821168,1207,1531943865972202787,base_link,0,1,40.5906048,-79.8983265,360.283773632,0.384400005913,0.0,0.0,0.0,0.384400005913,0.0,0.0,0.0,1.53760002365,1
1531943866205617319,1208,1531943866205027502,base_link,0,1,40.590605,-79.8983785,360.183720349,0.384400005913,0.0,0.0,0.0,0.384400005913,0.0,0.0,0.0,1.53760002365,1
1531943866454273756,1209,1531943866453224840,base_link,0,1,40.5906051,-79.8984264,360.133671306,0.384400005913,0.0,0.0,0.0,0.384400005913,0.0,0.0,0.0,1.53760002365,1
1531943866694072088,1210,1531943866693344480,base_link,0,1,40.5906052,-79.8984742,360.12362237,0.384400005913,0.0,0.0,0.0,0.384400005913,0.0,0.0,0.0,1.53760002365,1
1531943866922719763,1211,1531943866921878397,base_link,0,1,40.590605,-79.8985186,360.143577042,0.384400005913,0.0,0.0,0.0,0.384400005913,0.0,0.0,0.0,1.53760002365,1
1531943867204491631,1212,1531943867203827543,base_link,0,1,40.5906048,-79.8985746,360.183519854,0.384400005913,0.0,0.0,0.0,0.384400005913,0.0,0.0,0.0,1.53760002365,1
1531943867432398552,1213,1531943867431663808,base_link,0,1,40.5906044,-79.8986219,360.293471652,0.384400005913,0.0,0.0,0.0,0.384400005913,0.0,0.0,0.0,1.53760002365,1
1531943867673966595,1214,1531943867672988302,base_link,0,1,40.5906037,-79.8986696,360.503423171,0.384400005913,0.0,0.0,0.0,0.384400005913,0.0,0.0,0.0,1.53760002365,1
1531943867912848237,1215,1531943867909124792,base_link,0,1,40.5906026,-79.898717,360.65337517,0.384400005913,0.0,0.0,0.0,0.384400005913,0.0,0.0,0.0,1.53760002365,1
1531943868169286224,1216,1531943868168062494,base_link,0,1,40.5906011,-79.898767,360.803324683,0.384400005913,0.0,0.0,0.0,0.384400005913,0.0,0.0,0.0,1.53760002365,1
1531943868407443238,1217,1531943868403878831,base_link,0,1,40.5905997,-79.8988108,360.963280496,0.384400005913,0.0,0.0,0.0,0.384400005913,0.0,0.0,0.0,1.53760002365,1
1531943868666716522,1218,1531943868665263547,base_link,0,1,40.5905981,-79.8988663,361.253224437,0.384400005913,0.0,0.0,0.0,0.384400005913,0.0,0.0,0.0,1.53760002365,1
1531943868926240171,1219,1531943868924851707,base_link,0,1,40.590597,-79.8989132,361.553176962,0.384400005913,0.0,0.0,0.0,0.384400005913,0.0,0.0,0.0,1.53760002365,1
1531943869172828228,1220,1531943869169940837,base_link,0,1,40.5905964,-79.8989597,361.883129689,0.384400005913,0.0,0.0,0.0,0.384400005913,0.0,0.0,0.0,1.53760002365,1
1531943869428539638,1221,1531943869427766366,base_link,0,1,40.5905963,-79.8990141,362.263074135,0.384400005913,0.0,0.0,0.0,0.384400005913,0.0,0.0,0.0,1.53760002365,1
1531943869667934210,1222,1531943869665810234,base_link,0,1,40.5905965,-79.8990565,362.533030721,0.384400005913,0.0,0.0,0.0,0.384400005913,0.0,0.0,0.0,1.53760002365,1
1531943869925329056,1223,1531943869924156782,base_link,0,1,40.5905971,-79.8991062,362.812979683,0.384400005913,0.0,0.0,0.0,0.384400005913,0.0,0.0,0.0,1.53760002365,1
1531943870166458876,1224,1531943870165360552,base_link,0,1,40.5905982,-79.8991553,362.962929051,0.384400005913,0.0,0.0,0.0,0.384400005913,0.0,0.0,0.0,1.53760002365,1
1531943870424427320,1225,1531943870423129511,base_link,0,1,40.5905998,-79.8992005,362.992882197,0.384400005913,0.0,0.0,0.0,0.384400005913,0.0,0.0,0.0,1.53760002365,1
1531943870659908598,1226,1531943870658818082,base_link,0,1,40.5906013,-79.8992415,362.892839679,0.384400005913,0.0,0.0,0.0,0.384400005913,0.0,0.0,0.0,1.53760002365,1
1531943870878982863,1227,1531943870877893147,base_link,0,1,40.5906032,-79.8992865,362.68279291,0.384400005913,0.0,0.0,0.0,0.384400005913,0.0,0.0,0.0,1.53760002365,1
1531943871147983856,1228,1531943871139559568,base_link,0,1,40.5906053,-79.8993351,362.362742383,0.384400005913,0.0,0.0,0.0,0.384400005913,0.0,0.0,0.0,1.53760002365,1
1531943871368559260,1229,1531943871366931055,base_link,0,1,40.5906072,-79.8993805,362.112695213,0.384400005913,0.0,0.0,0.0,0.384400005913,0.0,0.0,0.0,1.53760002365,1
1531943871606658688,1230,1531943871605678155,base_link,0,1,40.5906091,-79.8994263,361.962647638,0.384400005913,0.0,0.0,0.0,0.384400005913,0.0,0.0,0.0,1.53760002365,1
1531943871869722439,1231,1531943871868835697,base_link,0,1,40.5906109,-79.8994761,361.962596024,0.384400005913,0.0,0.0,0.0,0.384400005913,0.0,0.0,0.0,1.53760002365,1
1531943872122543654,1232,1531943872120799609,base_link,0,1,40.5906122,-79.8995216,361.972549016,0.384400005913,0.0,0.0,0.0,0.384400005913,0.0,0.0,0.0,1.53760002365,1
1531943872340671697,1233,1531943872339414176,base_link,0,1,40.5906128,-79.899559,362.002510576,0.384400005913,0.0,0.0,0.0,0.384400005913,0.0,0.0,0.0,1.53760002365,1
1531943872642136456,1234,1531943872640750648,base_link,0,1,40.5906128,-79.8996154,362.162452994,0.384400005913,0.0,0.0,0.0,0.384400005913,0.0,0.0,0.0,1.53760002365,1
1531943872806724950,1235,1531943872805443364,base_link,0,1,40.5906123,-79.8996528,362.312415023,0.384400005913,0.0,0.0,0.0,0.384400005913,0.0,0.0,0.0,1.53760002365,1
1531943873077871719,1236,1531943873077002161,base_link,0,1,40.5906113,-79.8996967,362.51237063,0.384400005913,0.0,0.0,0.0,0.384400005913,0.0,0.0,0.0,1.53760002365,1
1531943873343577017,1237,1531943873342778498,base_link,0,1,40.5906097,-79.8997479,362.692319042,0.384400005913,0.0,0.0,0.0,0.384400005913,0.0,0.0,0.0,1.53760002365,1
1531943873587232550,1238,1531943873582992822,base_link,0,1,40.5906081,-79.8997872,362.812279603,0.384400005913,0.0,0.0,0.0,0.384400005913,0.0,0.0,0.0,1.53760002365,1
1531943873820081102,1239,1531943873818966650,base_link,0,1,40.5906059,-79.8998332,362.922233582,0.384400005913,0.0,0.0,0.0,0.384400005913,0.0,0.0,0.0,1.53760002365,1
1531943874058827891,1240,1531943874058084284,base_link,0,1,40.590604,-79.899876,362.912190703,0.384400005913,0.0,0.0,0.0,0.384400005913,0.0,0.0,0.0,1.53760002365,1
1531943874292875378,1241,1531943874290913000,base_link,0,1,40.5906025,-79.8999149,362.732151638,0.384400005913,0.0,0.0,0.0,0.384400005913,0.0,0.0,0.0,1.53760002365,1
1531943874545491933,1242,1531943874541876902,base_link,0,1,40.5906011,-79.8999613,362.392104881,0.384400005913,0.0,0.0,0.0,0.384400005913,0.0,0.0,0.0,1.53760002365,1
1531943874770793215,1243,1531943874769906025,base_link,0,1,40.5906002,-79.9000043,362.032061386,0.384400005913,0.0,0.0,0.0,0.384400005913,0.0,0.0,0.0,1.53760002365,1
1531943875055467328,1244,1531943875054610281,base_link,0,1,40.5905996,-79.9000523,361.702012667,0.384400005913,0.0,0.0,0.0,0.384400005913,0.0,0.0,0.0,1.53760002365,1
1531943875284495834,1245,1531943875283202665,base_link,0,1,40.5905996,-79.900097,361.391967066,0.384400005913,0.0,0.0,0.0,0.384400005913,0.0,0.0,0.0,1.53760002365,1
1531943875512323971,1246,1531943875510767860,base_link,0,1,40.5906002,-79.9001419,361.021921012,0.384400005913,0.0,0.0,0.0,0.384400005913,0.0,0.0,0.0,1.53760002365,1
1531943875777766337,1247,1531943875776874571,base_link,0,1,40.5906019,-79.9001911,360.621870113,0.384400005913,0.0,0.0,0.0,0.384400005913,0.0,0.0,0.0,1.53760002365,1
1531943876051660800,1248,1531943876049832340,base_link,0,1,40.5906049,-79.9002407,360.221818264,0.348099969053,0.0,0.0,0.0,0.348099969053,0.0,0.0,0.0,1.39239987621,1
1531943876267120824,1249,1531943876265730344,base_link,0,1,40.5906087,-79.9002821,359.961774446,0.348099969053,0.0,0.0,0.0,0.348099969053,0.0,0.0,0.0,1.39239987621,1
1531943876489957470,1250,1531943876489132679,base_link,0,1,40.5906151,-79.9003274,359.781725561,0.348099969053,0.0,0.0,0.0,0.348099969053,0.0,0.0,0.0,1.39239987621,1
1531943876723537033,1251,1531943876722071066,base_link,0,1,40.5906232,-79.9003677,359.731681065,0.348099969053,0.0,0.0,0.0,0.348099969053,0.0,0.0,0.0,1.39239987621,1
1531943877005900749,1252,1531943877004372638,base_link,0,1,40.5906374,-79.9004205,359.821621266,0.348099969053,0.0,0.0,0.0,0.348099969053,0.0,0.0,0.0,1.39239987621,1
1531943877239981783,1253,1531943877238737445,base_link,0,1,40.5906484,-79.9004542,360.00158229,0.348099969053,0.0,0.0,0.0,0.348099969053,0.0,0.0,0.0,1.39239987621,1
1531943877473664198,1254,1531943877472410900,base_link,0,1,40.5906631,-79.9004935,360.221536055,0.348099969053,0.0,0.0,0.0,0.348099969053,0.0,0.0,0.0,1.39239987621,1
1531943877732545304,1255,1531943877730977577,base_link,0,1,40.5906809,-79.9005338,360.431487505,0.348099969053,0.0,0.0,0.0,0.348099969053,0.0,0.0,0.0,1.39239987621,1
1531943877974819973,1256,1531943877973101785,base_link,0,1,40.5907001,-79.9005722,360.52144031,0.348099969053,0.0,0.0,0.0,0.348099969053,0.0,0.0,0.0,1.39239987621,1
1531943878232591687,1257,1531943878231480916,base_link,0,1,40.5907191,-79.9006066,360.401397282,0.348099969053,0.0,0.0,0.0,0.348099969053,0.0,0.0,0.0,1.39239987621,1
1531943878476054731,1258,1531943878474392958,base_link,0,1,40.5907414,-79.9006422,360.141351652,0.348099969053,0.0,0.0,0.0,0.348099969053,0.0,0.0,0.0,1.39239987621,1
1531943878729050051,1259,1531943878727977615,base_link,0,1,40.5907658,-79.9006744,359.841308614,0.348099969053,0.0,0.0,0.0,0.348099969053,0.0,0.0,0.0,1.39239987621,1
1531943878965871026,1260,1531943878964832510,base_link,0,1,40.5907913,-79.9007013,359.651270521,0.348099969053,0.0,0.0,0.0,0.348099969053,0.0,0.0,0.0,1.39239987621,1
1531943879220464412,1261,1531943879219096908,base_link,0,1,40.5908187,-79.9007248,359.611235103,0.348099969053,0.0,0.0,0.0,0.348099969053,0.0,0.0,0.0,1.39239987621,1
1531943879473495929,1262,1531943879469745795,base_link,0,1,40.5908471,-79.900745,359.671202635,0.348099969053,0.0,0.0,0.0,0.348099969053,0.0,0.0,0.0,1.39239987621,1
1531943879728018629,1263,1531943879727024272,base_link,0,1,40.5908787,-79.9007641,359.801169954,0.348099969053,0.0,0.0,0.0,0.348099969053,0.0,0.0,0.0,1.39239987621,1
1531943879996521395,1264,1531943879990003772,base_link,0,1,40.5909081,-79.9007796,359.851141867,0.348099969053,0.0,0.0,0.0,0.348099969053,0.0,0.0,0.0,1.39239987621,1
1531943880237436348,1265,1531943880229477557,base_link,0,1,40.59094,-79.9007944,359.801113454,0.348099969053,0.0,0.0,0.0,0.348099969053,0.0,0.0,0.0,1.39239987621,1
1531943880479777012,1266,1531943880469546887,base_link,0,1,40.5909723,-79.9008052,359.811088954,0.348099969053,0.0,0.0,0.0,0.348099969053,0.0,0.0,0.0,1.39239987621,1
1531943880720595294,1267,1531943880719408171,base_link,0,1,40.5910026,-79.9008106,360.001070796,0.348099969053,0.0,0.0,0.0,0.348099969053,0.0,0.0,0.0,1.39239987621,1
1531943880969732906,1268,1531943880968666614,base_link,0,1,40.5910353,-79.9008122,360.47105551,0.348099969053,0.0,0.0,0.0,0.348099969053,0.0,0.0,0.0,1.39239987621,1
1531943881213189337,1269,1531943881212191845,base_link,0,1,40.5910648,-79.900812,360.851043399,0.348099969053,0.0,0.0,0.0,0.348099969053,0.0,0.0,0.0,1.39239987621,1
1531943881465978720,1270,1531943881465221609,base_link,0,1,40.5910942,-79.9008112,361.161031945,0.348099969053,0.0,0.0,0.0,0.348099969053,0.0,0.0,0.0,1.39239987621,1
1531943881750773663,1271,1531943881749387887,base_link,0,1,40.5911284,-79.9008098,361.421019103,0.348099969053,0.0,0.0,0.0,0.348099969053,0.0,0.0,0.0,1.39239987621,1
1531943881928743087,1272,1531943881926984803,base_link,0,1,40.5911525,-79.9008085,361.561010377,0.348099969053,0.0,0.0,0.0,0.348099969053,0.0,0.0,0.0,1.39239987621,1
1531943882210688242,1273,1531943882209115748,base_link,0,1,40.5911843,-79.9008064,361.590999259,0.348099969053,0.0,0.0,0.0,0.348099969053,0.0,0.0,0.0,1.39239987621,1
1531943882408978049,1274,1531943882407317364,base_link,0,1,40.5912091,-79.9008047,361.560990655,0.348099969053,0.0,0.0,0.0,0.348099969053,0.0,0.0,0.0,1.39239987621,1
1531943882691520255,1275,1531943882690423979,base_link,0,1,40.5912469,-79.9008021,361.460977556,0.348099969053,0.0,0.0,0.0,0.348099969053,0.0,0.0,0.0,1.39239987621,1
1531943882933175431,1276,1531943882932013172,base_link,0,1,40.5912778,-79.9008003,361.310966521,0.348099969053,0.0,0.0,0.0,0.348099969053,0.0,0.0,0.0,1.39239987621,1
1531943883162607355,1277,1531943883161844132,base_link,0,1,40.5913091,-79.9007992,361.110954612,0.348099969053,0.0,0.0,0.0,0.348099969053,0.0,0.0,0.0,1.39239987621,1
1531943883451443255,1278,1531943883449727882,base_link,0,1,40.5913434,-79.9007991,360.840940442,0.348099969053,0.0,0.0,0.0,0.348099969053,0.0,0.0,0.0,1.39239987621,1
1531943883657171157,1279,1531943883655918211,base_link,0,1,40.5913697,-79.9007994,360.650929198,0.348099969053,0.0,0.0,0.0,0.348099969053,0.0,0.0,0.0,1.39239987621,1
1531943883897708398,1280,1531943883890315617,base_link,0,1,40.5914021,-79.9007999,360.480915217,0.348099969053,0.0,0.0,0.0,0.348099969053,0.0,0.0,0.0,1.39239987621,1
1531943884168031035,1281,1531943884162831189,base_link,0,1,40.5914404,-79.9008012,360.460897975,0.348099969053,0.0,0.0,0.0,0.348099969053,0.0,0.0,0.0,1.39239987621,1
1531943884418512296,1282,1531943884417509715,base_link,0,1,40.5914734,-79.9008038,360.540881619,0.348099969053,0.0,0.0,0.0,0.348099969053,0.0,0.0,0.0,1.39239987621,1
1531943884625362045,1283,1531943884621057197,base_link,0,1,40.591506,-79.900807,360.660864824,0.348099969053,0.0,0.0,0.0,0.348099969053,0.0,0.0,0.0,1.39239987621,1
1531943884869150805,1284,1531943884868427741,base_link,0,1,40.5915389,-79.9008104,360.830847707,0.348099969053,0.0,0.0,0.0,0.348099969053,0.0,0.0,0.0,1.39239987621,1
1531943885095275284,1285,1531943885094543548,base_link,0,1,40.5915682,-79.9008132,360.9708327,0.348099969053,0.0,0.0,0.0,0.348099969053,0.0,0.0,0.0,1.39239987621,1
1531943885303093603,1286,1531943885302372619,base_link,0,1,40.591595,-79.9008154,361.120819344,0.348099969053,0.0,0.0,0.0,0.348099969053,0.0,0.0,0.0,1.39239987621,1
1531943885556458996,1287,1531943885552936571,base_link,0,1,40.59163,-79.9008175,361.260802694,0.348099969053,0.0,0.0,0.0,0.348099969053,0.0,0.0,0.0,1.39239987621,1
1531943885810778811,1288,1531943885809936036,base_link,0,1,40.5916649,-79.9008187,361.310787008,0.348099969053,0.0,0.0,0.0,0.348099969053,0.0,0.0,0.0,1.39239987621,1
1531943886018662920,1289,1531943886017607508,base_link,0,1,40.5916915,-79.9008191,361.300775581,0.348099969053,0.0,0.0,0.0,0.348099969053,0.0,0.0,0.0,1.39239987621,1
1531943886266055104,1290,1531943886264441842,base_link,0,1,40.5917241,-79.9008188,361.200762385,0.348099969053,0.0,0.0,0.0,0.348099969053,0.0,0.0,0.0,1.39239987621,1
1531943886536204986,1291,1531943886534746730,base_link,0,1,40.5917622,-79.9008171,361.030748342,0.348099969053,0.0,0.0,0.0,0.348099969053,0.0,0.0,0.0,1.39239987621,1
1531943886768588537,1292,1531943886767535237,base_link,0,1,40.5917947,-79.9008143,360.940737742,0.348099969053,0.0,0.0,0.0,0.348099969053,0.0,0.0,0.0,1.39239987621,1
1531943887027143573,1293,1531943887023044354,base_link,0,1,40.5918282,-79.9008104,360.960727853,0.348099969053,0.0,0.0,0.0,0.348099969053,0.0,0.0,0.0,1.39239987621,1
1531943887273737177,1294,1531943887272965474,base_link,0,1,40.5918645,-79.9008056,361.010717728,0.348099969053,0.0,0.0,0.0,0.348099969053,0.0,0.0,0.0,1.39239987621,1
1531943887498406610,1295,1531943887497111296,base_link,0,1,40.5918954,-79.9008018,361.040708823,0.348099969053,0.0,0.0,0.0,0.348099969053,0.0,0.0,0.0,1.39239987621,1
1531943887764759418,1296,1531943887763667302,base_link,0,1,40.5919319,-79.9007978,361.040697812,0.348099969053,0.0,0.0,0.0,0.348099969053,0.0,0.0,0.0,1.39239987621,1
1531943888031491294,1297,1531943888029918512,base_link,0,1,40.5919682,-79.9007948,360.930685874,0.348099969053,0.0,0.0,0.0,0.348099969053,0.0,0.0,0.0,1.39239987621,1
1531943888247665433,1298,1531943888247043392,base_link,0,1,40.5920019,-79.9007933,360.770673488,0.348099969053,0.0,0.0,0.0,0.348099969053,0.0,0.0,0.0,1.39239987621,1
1531943888518059448,1299,1531943888517183906,base_link,0,1,40.5920384,-79.9007928,360.610658936,0.348099969053,0.0,0.0,0.0,0.348099969053,0.0,0.0,0.0,1.39239987621,1
1531943888740928840,1300,1531943888739058173,base_link,0,1,40.592067,-79.900793,360.480646937,0.348099969053,0.0,0.0,0.0,0.348099969053,0.0,0.0,0.0,1.39239987621,1
1531943889005769797,1301,1531943889005133420,base_link,0,1,40.5921097,-79.9007943,360.29062801,0.348099969053,0.0,0.0,0.0,0.348099969053,0.0,0.0,0.0,1.39239987621,1
1531943889237896081,1302,1531943889236084998,base_link,0,1,40.5921409,-79.9007961,360.170613322,0.348099969053,0.0,0.0,0.0,0.348099969053,0.0,0.0,0.0,1.39239987621,1
1531943889474405645,1303,1531943889473574902,base_link,0,1,40.5921756,-79.9007988,360.130596282,0.348099969053,0.0,0.0,0.0,0.348099969053,0.0,0.0,0.0,1.39239987621,1
1531943889719901509,1304,1531943889716922374,base_link,0,1,40.5922102,-79.900802,360.160578781,0.348099969053,0.0,0.0,0.0,0.348099969053,0.0,0.0,0.0,1.39239987621,1
1531943889979615359,1305,1531943889978783240,base_link,0,1,40.5922473,-79.9008051,360.260560359,0.348099969053,0.0,0.0,0.0,0.348099969053,0.0,0.0,0.0,1.39239987621,1
1531943890215135242,1306,1531943890214395922,base_link,0,1,40.5922816,-79.9008071,360.400544214,0.348099969053,0.0,0.0,0.0,0.348099969053,0.0,0.0,0.0,1.39239987621,1
1531943890469463620,1307,1531943890468534927,base_link,0,1,40.5923185,-79.9008081,360.600528024,0.348099969053,0.0,0.0,0.0,0.348099969053,0.0,0.0,0.0,1.39239987621,1
1531943890733702865,1308,1531943890732531998,base_link,0,1,40.592355,-79.900808,360.760513124,0.348099969053,0.0,0.0,0.0,0.348099969053,0.0,0.0,0.0,1.39239987621,1
1531943890981726321,1309,1531943890981062872,base_link,0,1,40.5923875,-79.9008067,360.830501093,0.348099969053,0.0,0.0,0.0,0.348099969053,0.0,0.0,0.0,1.39239987621,1
1531943891217665979,1310,1531943891216587175,base_link,0,1,40.5924209,-79.9008041,360.90049002,0.348099969053,0.0,0.0,0.0,0.348099969053,0.0,0.0,0.0,1.39239987621,1
1531943891497199842,1311,1531943891496236301,base_link,0,1,40.5924598,-79.9007989,360.900479339,0.348099969053,0.0,0.0,0.0,0.348099969053,0.0,0.0,0.0,1.39239987621,1
1531943891732801616,1312,1531943891729978863,base_link,0,1,40.5924895,-79.9007931,360.900473049,0.348099969053,0.0,0.0,0.0,0.348099969053,0.0,0.0,0.0,1.39239987621,1
1531943892011673246,1313,1531943892011013349,base_link,0,1,40.5925279,-79.9007834,360.92046716,0.348099969053,0.0,0.0,0.0,0.348099969053,0.0,0.0,0.0,1.39239987621,1
1531943892244715692,1314,1531943892242871936,base_link,0,1,40.5925605,-79.9007732,360.920464164,0.348099969053,0.0,0.0,0.0,0.348099969053,0.0,0.0,0.0,1.39239987621,1
1531943892510283953,1315,1531943892508520325,base_link,0,1,40.5925953,-79.9007604,360.900462915,0.348099969053,0.0,0.0,0.0,0.348099969053,0.0,0.0,0.0,1.39239987621,1
1531943892714425791,1316,1531943892713746502,base_link,0,1,40.5926245,-79.9007476,360.820463964,0.348099969053,0.0,0.0,0.0,0.348099969053,0.0,0.0,0.0,1.39239987621,1
1531943892967058900,1317,1531943892965526436,base_link,0,1,40.5926591,-79.9007296,360.590468093,0.348099969053,0.0,0.0,0.0,0.348099969053,0.0,0.0,0.0,1.39239987621,1
1531943893226285603,1318,1531943893222914952,base_link,0,1,40.5926908,-79.9007102,360.220474837,0.348099969053,0.0,0.0,0.0,0.348099969053,0.0,0.0,0.0,1.39239987621,1
1531943893455945689,1319,1531943893455144322,base_link,0,1,40.5927189,-79.9006887,359.910485194,0.348099969053,0.0,0.0,0.0,0.348099969053,0.0,0.0,0.0,1.39239987621,1
1531943893737596241,1320,1531943893736527645,base_link,0,1,40.5927556,-79.900652,359.660507489,0.348099969053,0.0,0.0,0.0,0.348099969053,0.0,0.0,0.0,1.39239987621,1
1531943893972539181,1321,1531943893971104541,base_link,0,1,40.5927807,-79.9006205,359.540529247,0.348099969053,0.0,0.0,0.0,0.348099969053,0.0,0.0,0.0,1.39239987621,1
1531943894190796836,1322,1531943894188486110,base_link,0,1,40.5928055,-79.9005835,359.460556723,0.348099969053,0.0,0.0,0.0,0.348099969053,0.0,0.0,0.0,1.39239987621,1
1531943894422321258,1323,1531943894419930980,base_link,0,1,40.5928263,-79.900546,359.470586346,0.348099969053,0.0,0.0,0.0,0.348099969053,0.0,0.0,0.0,1.39239987621,1
1531943894691025589,1324,1531943894690256765,base_link,0,1,40.5928488,-79.9004948,359.560629207,0.348099969053,0.0,0.0,0.0,0.348099969053,0.0,0.0,0.0,1.39239987621,1
1531943894892027403,1325,1531943894887537244,base_link,0,1,40.5928614,-79.9004561,359.680663408,0.348099969053,0.0,0.0,0.0,0.348099969053,0.0,0.0,0.0,1.39239987621,1
1531943895134311451,1326,1531943895133499684,base_link,0,1,40.5928726,-79.9004084,359.870707336,0.348099969053,0.0,0.0,0.0,0.348099969053,0.0,0.0,0.0,1.39239987621,1
1531943895398700826,1327,1531943895396883566,base_link,0,1,40.5928803,-79.9003551,360.150758394,0.348099969053,0.0,0.0,0.0,0.348099969053,0.0,0.0,0.0,1.39239987621,1
1531943895646794252,1328,1531943895643748430,base_link,0,1,40.5928842,-79.9003061,360.420806636,0.348099969053,0.0,0.0,0.0,0.348099969053,0.0,0.0,0.0,1.39239987621,1
1531943895868415074,1329,1531943895867389389,base_link,0,1,40.5928856,-79.9002576,360.730855395,0.348099969053,0.0,0.0,0.0,0.348099969053,0.0,0.0,0.0,1.39239987621,1
1531943896117335244,1330,1531943896116425686,base_link,0,1,40.5928851,-79.9002093,361.090904731,0.348099969053,0.0,0.0,0.0,0.348099969053,0.0,0.0,0.0,1.39239987621,1
1531943896388502339,1331,1531943896385899360,base_link,0,1,40.5928833,-79.9001617,361.470953891,0.348099969053,0.0,0.0,0.0,0.348099969053,0.0,0.0,0.0,1.39239987621,1
1531943896611099057,1332,1531943896610021084,base_link,0,1,40.5928808,-79.9001118,361.771005681,0.348099969053,0.0,0.0,0.0,0.348099969053,0.0,0.0,0.0,1.39239987621,1
1531943896872986094,1333,1531943896868954874,base_link,0,1,40.5928779,-79.9000619,361.86105764,0.348099969053,0.0,0.0,0.0,0.348099969053,0.0,0.0,0.0,1.39239987621,1
1531943897122282807,1334,1531943897121450496,base_link,0,1,40.5928751,-79.9000158,361.761105696,0.348099969053,0.0,0.0,0.0,0.348099969053,0.0,0.0,0.0,1.39239987621,1
1531943897371201607,1335,1531943897370263185,base_link,0,1,40.5928721,-79.8999657,361.481157908,0.348099969053,0.0,0.0,0.0,0.348099969053,0.0,0.0,0.0,1.39239987621,1
1531943897679424554,1336,1531943897678019450,base_link,0,1,40.5928691,-79.8999113,361.011214501,0.348099969053,0.0,0.0,0.0,0.348099969053,0.0,0.0,0.0,1.39239987621,1
1531943897874846630,1337,1531943897873720210,base_link,0,1,40.5928672,-79.8998674,360.581259961,0.348099969053,0.0,0.0,0.0,0.348099969053,0.0,0.0,0.0,1.39239987621,1
1531943898126027326,1338,1531943898125155496,base_link,0,1,40.5928656,-79.8998143,360.151314667,0.348099969053,0.0,0.0,0.0,0.348099969053,0.0,0.0,0.0,1.39239987621,1
1531943898366720012,1339,1531943898365868501,base_link,0,1,40.5928647,-79.8997653,359.801364918,0.348099969053,0.0,0.0,0.0,0.348099969053,0.0,0.0,0.0,1.39239987621,1
