%time,field.header.seq,field.header.stamp,field.header.frame_id,field.coordinate_frame,field.type_mask,field.latitude,field.longitude,field.altitude,field.velocity.x,field.velocity.y,field.velocity.z,field.acceleration_or_force.x,field.acceleration_or_force.y,field.acceleration_or_force.z,field.yaw,field.yaw_rate
1531943810865211553,2056,1531943810863209339,,5,65528,40.5914654,-79.89959,380.350006104,0.0,0.0,0.0,19.5083808899,-0.541918158531,-0.0922092348337,-15.0,-17.666934967
1531943810912319527,2057,1531943810910726171,,5,65528,40.5914654,-79.89959,380.350006104,0.0,0.0,0.0,19.4825019836,-0.2640645504,0.00670956075192,-15.0,-17.3725376129
1531943810937148169,2058,1531943810936581328,,5,65528,40.5914654,-79.89959,380.350006104,0.0,0.0,0.0,19.4533367157,-0.00183778582141,0.154980897903,-15.0,-17.3725376129
1531943810997412646,2059,1531943810996560529,,5,65528,40.5914654,-79.89959,380.350006104,0.0,0.0,0.0,19.4102115631,0.287958741188,0.444431036711,-15.0,-17.3264045715
1531943811057063853,2060,1531943811056638291,,5,65528,40.5914654,-79.89959,380.350006104,0.0,0.0,0.0,19.3523750305,0.503621160984,0.739515006542,-15.0,-17.3264045715
1531943811093487836,2061,1531943811092444746,,5,65528,40.5914654,-79.89959,380.350006104,0.0,0.0,0.0,19.2947731018,0.592965960503,0.90782982111,-15.0,-17.3904266357
1531943811148692892,2062,1531943811147844167,,5,65528,40.5914654,-79.89959,380.350006104,0.0,0.0,0.0,19.2453575134,0.650941610336,1.09418237209,-15.0,-17.3904266357
1531943811220558119,2063,1531943811219276440,,5,65528,40.5914654,-79.89959,380.350006104,3.94430452611e-31,16.0,-1.95943496414e-15,19.1237545013,0.624664783478,1.43765950203,-15.0,-17.5180244446
1531943811237951977,2064,1531943811237588270,,5,65528,40.5914654,-79.89959,380.350006104,3.94430452611e-31,16.0,-1.95943496414e-15,19.0924320221,0.614077448845,1.49041223526,-15.0,-17.5180244446
1531943811300957797,2065,1531943811300642953,,5,65528,40.5914654,-79.89959,380.350006104,3.94430452611e-31,16.0,-1.95943496414e-15,18.9831924438,0.519733786583,1.65944707394,-16.0,-17.5699577332
1531943811342113592,2066,1531943811341220356,,5,65528,40.5914654,-79.89959,380.350006104,3.94430452611e-31,16.0,-1.95943496414e-15,18.9081287384,0.423013180494,1.77984261513,-16.0,-17.5699577332
1531943811434732794,2067,1531943811430648943,,5,65528,40.5914654,-79.89959,380.350006104,3.94430452611e-31,16.0,-1.95943496414e-15,18.6986713409,0.134112998843,2.0672018528,-16.0,-17.6487178802
1531943811555907600,2068,1531943811553909834,,5,65528,40.5914654,-79.89959,380.350006104,3.94430452611e-31,16.0,-1.95943496414e-15,18.4194946289,-0.0567498654127,2.43074703217,-16.0,-17.8103218079
1531943811626122352,2069,1531943811625151421,,5,65528,40.5914654,-79.89959,380.350006104,3.94430452611e-31,16.0,-1.95943496414e-15,18.1669864655,-0.107041597366,2.68267726898,-16.0,-18.0105991364
1531943811665228285,2070,1531943811664758403,,5,65528,40.5914654,-79.89959,380.350006104,3.94430452611e-31,16.0,-1.95943496414e-15,18.0525093079,-0.0922260433435,2.76522421837,-16.0,-18.0105991364
1531943811749064304,2071,1531943811746410514,,5,65528,40.5914654,-79.89959,380.350006104,3.94430452611e-31,16.0,-1.95943496414e-15,17.7937259674,0.0293931700289,2.98441433907,-16.0,-18.1939353943
1531943811824584460,2072,1531943811824234801,,5,65528,40.5914654,-79.89959,380.350006104,3.94430452611e-31,16.0,-1.95943496414e-15,17.614654541,0.160167992115,3.06430220604,-16.0,-18.2109794617
1531943811877523177,2073,1531943811877002223,,5,65528,40.5914654,-79.89959,380.350006104,3.94430452611e-31,16.0,-1.95943496414e-15,17.3863525391,0.399682939053,3.12066054344,-16.0,-18.0062847137
1531943811910910719,2074,1531943811910294407,,5,65528,40.5914654,-79.89959,380.350006104,3.94430452611e-31,16.0,-1.95943496414e-15,17.2887077332,0.520256996155,3.11388421059,-16.0,-18.0062847137
1531943811974183255,2075,1531943811973533920,,5,65528,40.5914654,-79.89959,380.350006104,3.94430452611e-31,16.0,-1.95943496414e-15,17.2137508392,0.637219786644,3.0983300209,-16.0,-17.5892124176
1531943812019449046,2076,1531943812017501679,,5,65528,40.5914654,-79.89959,380.350006104,3.94430452611e-31,16.0,-1.95943496414e-15,17.096162796,0.843904435635,3.07292604446,-16.0,-17.5892124176
1531943812071622974,2077,1531943812069234588,,5,65528,40.5914654,-79.89959,380.350006104,3.94430452611e-31,16.0,-1.95943496414e-15,17.0087623596,1.02809095383,3.07845854759,-16.0,-17.5892124176
1531943812095180690,2078,1531943812093587398,,5,65528,40.5914654,-79.89959,380.350006104,3.94430452611e-31,16.0,-1.95943496414e-15,16.9278392792,1.20769274235,3.06063294411,-16.0,-17.4574756622
1531943812173017267,2079,1531943812171190186,,5,65528,40.5914654,-79.89959,380.350006104,3.94430452611e-31,16.0,-1.95943496414e-15,16.8426952362,1.48414409161,2.98650813103,-16.0,-17.4574756622
1531943812231044400,2080,1531943812230419032,,5,65528,40.5914654,-79.89959,380.350006104,3.94430452611e-31,16.0,-1.95943496414e-15,16.7726669312,1.83861744404,2.83498907089,-16.0,-17.3443050385
1531943812320475389,2081,1531943812317603810,,5,65528,40.5914654,-79.89959,380.350006104,3.94430452611e-31,16.0,-1.95943496414e-15,16.7409877777,2.16132211685,2.61174201965,-16.0,-17.0668945312
1531943812378717592,2082,1531943812376739985,,5,65528,40.5914654,-79.89959,380.350006104,3.94430452611e-31,16.0,-1.95943496414e-15,16.7139987946,2.33887767792,2.49127268791,-16.0,-17.0668945312
1531943812428214913,2083,1531943812418329343,,5,65528,40.5914654,-79.89959,380.350006104,3.94430452611e-31,16.0,-1.95943496414e-15,16.6350097656,2.6168949604,2.30276465416,-16.0,-16.6344661713
1531943812466611481,2084,1531943812464990477,,5,65528,40.5914654,-79.89959,380.350006104,3.94430452611e-31,16.0,-1.95943496414e-15,16.5713100433,2.79250097275,2.15091347694,-16.0,-16.6344661713
1531943812496472636,2085,1531943812494799474,,5,65528,40.5914654,-79.89959,380.350006104,3.94430452611e-31,16.0,-1.95943496414e-15,16.504114151,2.96962165833,2.04768466949,-16.0,-16.2761611938
1531943812560994535,2086,1531943812559661528,,5,65528,40.5914654,-79.89959,380.350006104,3.94430452611e-31,16.0,-1.95943496414e-15,16.3674221039,3.31223273277,1.89837086201,-16.0,-16.2761611938
1531943812626954527,2087,1531943812620065079,,5,65528,40.5914654,-79.89959,380.350006104,3.94430452611e-31,16.0,-1.95943496414e-15,16.2134799957,3.70033025742,1.81975495815,-16.0,-16.1145191193
1531943812653207121,2088,1531943812652036991,,5,65528,40.5914654,-79.89959,380.350006104,3.94430452611e-31,16.0,-1.95943496414e-15,16.1548271179,3.84707665443,1.79434132576,-16.0,-16.1145191193
1531943812714296263,2089,1531943812713848172,,5,65528,40.5914654,-79.89959,380.350006104,3.94430452611e-31,16.0,-1.95943496414e-15,15.9208278656,4.38798236847,1.67238867283,-16.0,-16.1450061798
1531943812781883082,2090,1531943812781075092,,5,65528,40.5914654,-79.89959,380.350006104,3.94430452611e-31,16.0,-1.95943496414e-15,15.7751913071,4.81911468506,1.57740080357,-16.0,-16.1973133087
1531943812832754722,2091,1531943812832345448,,5,65528,40.5914654,-79.89959,380.350006104,3.94430452611e-31,16.0,-1.95943496414e-15,15.6837310791,5.13972616196,1.52837097645,-16.0,-16.1973133087
1531943812844940423,2092,1531943812842438471,,5,65528,40.5914654,-79.89959,380.350006104,3.94430452611e-31,16.0,-1.95943496414e-15,15.6333351135,5.29278230667,1.51708090305,-16.0,-16.1973133087
1531943812899517872,2093,1531943812896168923,,5,65528,40.5914654,-79.89959,380.350006104,3.94430452611e-31,16.0,-1.95943496414e-15,15.4541988373,5.82594251633,1.49092531204,-16.0,-16.3381690979
1531943812945536806,2094,1531943812943079334,,5,65528,40.5914654,-79.89959,380.350006104,3.94430452611e-31,16.0,-1.95943496414e-15,15.3120174408,6.19468927383,1.50037550926,-16.0,-16.3381690979
1531943813020071986,2095,1531943813019584152,,5,65528,40.5914654,-79.89959,380.350006104,3.94430452611e-31,16.0,-1.95943496414e-15,15.1144742966,6.78923749924,1.51538038254,-16.0,-16.5089912415
1531943813082638903,2096,1531943813082325947,,5,65528,40.5914654,-79.89959,380.350006104,3.94430452611e-31,16.0,-1.95943496414e-15,14.749001503,7.59845638275,1.56053674221,-16.0,-16.8226852417
1531943813107675417,2097,1531943813107367741,,5,65528,40.5914654,-79.89959,380.350006104,3.94430452611e-31,16.0,-1.95943496414e-15,14.6478805542,7.80958652496,1.58854222298,-16.0,-16.8226852417
1531943813143860749,2098,1531943813143163286,,5,65528,40.5914654,-79.89959,380.350006104,3.94430452611e-31,16.0,-1.95943496414e-15,14.4276647568,8.23575019836,1.60748541355,-16.0,-16.8226852417
1531943813235233125,2099,1531943813234919113,,5,65528,40.5914654,-79.89959,380.350006104,3.94430452611e-31,16.0,-1.95943496414e-15,13.8326482773,9.30880737305,1.68813872337,-16.0,-17.1945075989
1531943813369927477,2100,1531943813369536986,,5,65528,40.5914654,-79.89959,380.350006104,3.94430452611e-31,16.0,-1.95943496414e-15,12.9134950638,10.7011871338,1.85753536224,-16.0,-17.5254211426
1531943813425249079,2101,1531943813418435053,,5,65528,40.5914654,-79.89959,380.350006104,3.94430452611e-31,16.0,-1.95943496414e-15,12.4562587738,11.319106102,1.8886743784,-16.0,-17.9018363953
1531943813446242988,2102,1531943813444395683,,5,65528,40.5914654,-79.89959,380.350006104,3.94430452611e-31,16.0,-1.95943496414e-15,12.2728223801,11.5264215469,1.89733850956,-16.0,-17.9018363953
1531943813514299595,2103,1531943813513643092,,5,65528,40.5914654,-79.89959,380.350006104,3.94430452611e-31,16.0,-1.95943496414e-15,11.6035251617,12.3156328201,1.95664179325,-16.0,-17.9684391022
1531943813569007636,2104,1531943813567311786,,5,65528,40.5914654,-79.89959,380.350006104,3.94430452611e-31,16.0,-1.95943496414e-15,11.2196788788,12.7549505234,2.02988243103,-16.0,-17.9684391022
1531943813599482513,2105,1531943813599058359,,5,65528,40.5914654,-79.89959,380.350006104,3.94430452611e-31,16.0,-1.95943496414e-15,10.7869777679,13.1695137024,2.1248061657,-16.0,-18.0248756409
1531943813675830279,2106,1531943813671544958,,5,65528,40.5914654,-79.89959,380.350006104,3.94430452611e-31,16.0,-1.95943496414e-15,10.1629037857,13.7556915283,2.228307724,-16.0,-18.0248756409
1531943813702734322,2107,1531943813701818653,,5,65528,40.5914654,-79.89959,380.350006104,3.94430452611e-31,16.0,-1.95943496414e-15,9.73349380493,14.0968160629,2.27782940865,-16.0,-18.1173343658
1531943813827007143,2108,1531943813826232017,,5,65528,40.5914654,-79.89959,380.350006104,3.94430452611e-31,16.0,-1.95943496414e-15,8.72535800934,14.9029121399,2.31027197838,-16.0,-18.0835418701
1531943813871206774,2109,1531943813870663644,,5,65528,40.5914654,-79.89959,380.350006104,3.94430452611e-31,16.0,-1.95943496414e-15,8.07820129395,15.3436412811,2.34061717987,-16.0,-18.0835418701
1531943813941199356,2110,1531943813939467026,,5,65528,40.5914654,-79.89959,380.350006104,3.94430452611e-31,16.0,-1.95943496414e-15,7.43210268021,15.7592477798,2.34857940674,-16.0,-18.0057830811
1531943813955881090,2111,1531943813954985997,,5,65528,40.5914654,-79.89959,380.350006104,3.94430452611e-31,16.0,-1.95943496414e-15,6.98219013214,16.0058174133,2.34442591667,-16.0,-18.0057830811
1531943814005707561,2112,1531943814001289857,,5,65528,40.5914654,-79.89959,380.350006104,3.94430452611e-31,16.0,-1.95943496414e-15,6.50434446335,16.2708778381,2.35845780373,-16.0,-18.0658493042
1531943814042897585,2113,1531943814041567746,,5,65528,40.5914654,-79.89959,380.350006104,3.94430452611e-31,16.0,-1.95943496414e-15,6.00507497787,16.5215091705,2.37282347679,-16.0,-18.0658493042
1531943814117831932,2114,1531943814115811765,,5,65528,40.5914654,-79.89959,380.350006104,3.94430452611e-31,16.0,-1.95943496414e-15,5.19453191757,16.8507633209,2.41029667854,-16.0,-18.1995658875
1531943814150242849,2115,1531943814149169198,,5,65528,40.5914654,-79.89959,380.350006104,3.94430452611e-31,16.0,-1.95943496414e-15,4.63568401337,17.0585231781,2.42485809326,-16.0,-18.1995658875
1531943814228696702,2116,1531943814226597977,,5,65528,40.5914654,-79.89959,380.350006104,3.94430452611e-31,16.0,-1.95943496414e-15,3.63020968437,17.3920536041,2.40619158745,-16.0,-18.3209953308
1531943814254590550,2117,1531943814254257562,,5,65528,40.5914654,-79.89959,380.350006104,3.94430452611e-31,16.0,-1.95943496414e-15,3.14347338676,17.5262565613,2.42283368111,-16.0,-18.3209953308
1531943814297643124,2118,1531943814297260121,,5,65528,40.5914654,-79.89959,380.350006104,3.94430452611e-31,16.0,-1.95943496414e-15,2.59827637672,17.6125030518,2.46319556236,-16.0,-18.4952163696
1531943814347265727,2119,1531943814346870692,,5,65528,40.5914654,-79.89959,380.350006104,3.94430452611e-31,16.0,-1.95943496414e-15,2.02017879486,17.7190666199,2.49597740173,-16.0,-18.4952163696
1531943814398889904,2120,1531943814398629076,,5,65528,40.5914654,-79.89959,380.350006104,3.94430452611e-31,16.0,-1.95943496414e-15,1.13635826111,17.8538722992,2.60154986382,-16.0,-18.8080158234
1531943814466755252,2121,1531943814466431992,,5,65528,40.5914654,-79.89959,380.350006104,3.94430452611e-31,16.0,-1.95943496414e-15,0.239315509796,17.9512367249,2.69503474236,-16.0,-18.8080158234
1531943814498756318,2122,1531943814498486690,,5,65528,40.5914654,-79.89959,380.350006104,3.94430452611e-31,16.0,-1.95943496414e-15,-0.379688858986,17.9694004059,2.73970293999,-16.0,-19.0157260895
1531943814561211559,2123,1531943814560983338,,5,65528,40.5914654,-79.89959,380.350006104,3.94430452611e-31,16.0,-1.95943496414e-15,-1.35551536083,17.992805481,2.86376667023,-16.0,-19.0157260895
1531943814603824906,2124,1531943814601458344,,5,65528,40.5914654,-79.89959,380.350006104,3.94430452611e-31,16.0,-1.95943496414e-15,-1.9932268858,17.9853172302,2.95092463493,-16.0,-19.2669639587
1531943814643794256,2125,1531943814643417749,,5,65528,40.5914654,-79.89959,380.350006104,3.94430452611e-31,16.0,-1.95943496414e-15,-2.6450984478,17.9308834076,3.04858708382,-16.0,-19.2669639587
1531943814721534070,2126,1531943814719578319,,5,65528,40.5914654,-79.89959,380.350006104,3.94430452611e-31,16.0,-1.95943496414e-15,-3.83193159103,17.7825565338,3.16528010368,-16.0,-19.5359992981
1531943814762186515,2127,1531943814761304830,,5,65528,40.5914654,-79.89959,380.350006104,3.94430452611e-31,16.0,-1.95943496414e-15,-4.40330457687,17.6958618164,3.2117664814,-16.0,-19.5359992981
1531943814818364651,2128,1531943814817507222,,5,65528,40.5914654,-79.89959,380.350006104,3.94430452611e-31,16.0,-1.95943496414e-15,-5.21787452698,17.5095214844,3.2549135685,-16.0,-19.719379425
1531943814850352117,2129,1531943814849199396,,5,65528,40.5914654,-79.89959,380.350006104,3.94430452611e-31,16.0,-1.95943496414e-15,-5.48457670212,17.4593429565,3.25412321091,-16.0,-19.719379425
1531943814899437319,2130,1531943814897615070,,5,65528,40.5914654,-79.89959,380.350006104,3.94430452611e-31,16.0,-1.95943496414e-15,-6.3027176857,17.1903495789,3.30861568451,-16.0,-19.9013710022
1531943814963886614,2131,1531943814961864783,,5,65528,40.5914654,-79.89959,380.350006104,3.94430452611e-31,16.0,-1.95943496414e-15,-7.03703212738,16.9364204407,3.32853460312,-16.0,-19.9013710022
1531943814998702652,2132,1531943814994578609,,5,65528,40.5914654,-79.89959,380.350006104,3.94430452611e-31,16.0,-1.95943496414e-15,-7.51799869537,16.7296504974,3.3250977993,-16.0,-19.9703636169
1531943815053555206,2133,1531943815052265239,,5,65528,40.5914654,-79.89959,380.350006104,3.94430452611e-31,16.0,-1.95943496414e-15,-7.98801469803,16.5003604889,3.36033797264,-16.0,-19.9703636169
1531943815106040750,2134,1531943815102086272,,5,65528,40.5914654,-79.89959,380.350006104,3.94430452611e-31,16.0,-1.95943496414e-15,-8.72879981995,16.0862731934,3.45707345009,-16.0,-20.0048141479
1531943815154342315,2135,1531943815152136295,,5,65528,40.5914654,-79.89959,380.350006104,3.94430452611e-31,16.0,-1.95943496414e-15,-9.22001934052,15.7788887024,3.54795956612,-16.0,-20.0048141479
1531943815196632596,2136,1531943815196307992,,5,65528,40.5914654,-79.89959,380.350006104,3.94430452611e-31,16.0,-1.95943496414e-15,-9.88813686371,15.3044729233,3.72328233719,-16.0,-20.011089325
1531943815261707261,2137,1531943815261134372,,5,65528,40.5914654,-79.89959,380.350006104,3.94430452611e-31,16.0,-1.95943496414e-15,-10.5458345413,14.7630939484,3.88834238052,-16.0,-20.011089325
1531943815314607584,2138,1531943815314264772,,5,65528,40.5914654,-79.89959,380.350006104,3.94430452611e-31,16.0,-1.95943496414e-15,-11.1562395096,14.1843652725,4.07356405258,-16.0,-20.001329422
1531943815366922122,2139,1531943815366116340,,5,65528,40.5914654,-79.89959,380.350006104,3.94430452611e-31,16.0,-1.95943496414e-15,-11.5000190735,13.8176164627,4.16480731964,-16.0,-19.9561233521
1531943815395769917,2140,1531943815394693259,,5,65528,40.5914654,-79.89959,380.350006104,3.94430452611e-31,16.0,-1.95943496414e-15,-11.8323698044,13.4261426926,4.28805303574,-16.0,-19.9561233521
1531943815448858077,2141,1531943815448550593,,5,65528,40.5914654,-79.89959,380.350006104,3.94430452611e-31,16.0,-1.95943496414e-15,-12.1337995529,13.042760849,4.38134050369,-16.0,-19.9561233521
1531943815497252313,2142,1531943815494411933,,5,65528,40.5914654,-79.89959,380.350006104,3.94430452611e-31,16.0,-1.95943496414e-15,-12.5237722397,12.4848136902,4.51116991043,-16.0,-19.849937439
1531943815550192635,2143,1531943815549369030,,5,65528,40.5914654,-79.89959,380.350006104,3.94430452611e-31,16.0,-1.95943496414e-15,-12.7502098083,12.1109247208,4.58052158356,-16.0,-19.849937439
1531943815633710139,2144,1531943815630096264,,5,65528,40.5914654,-79.89959,380.350006104,3.94430452611e-31,16.0,-1.95943496414e-15,-13.089094162,11.4513425827,4.7271566391,-16.0,-19.5042457581
1531943815654093721,2145,1531943815653164101,,5,65528,40.5914654,-79.89959,380.350006104,3.94430452611e-31,16.0,-1.95943496414e-15,-13.1536893845,11.2962722778,4.73452854156,-16.0,-19.5042457581
1531943815698977537,2146,1531943815697171608,,5,65528,40.5914654,-79.89959,380.350006104,3.94430452611e-31,16.0,-1.95943496414e-15,-13.3464698792,10.8260154724,4.82482290268,-16.0,-19.0291595459
1531943815755821266,2147,1531943815754924221,,5,65528,40.5914654,-79.89959,380.350006104,3.94430452611e-31,16.0,-1.95943496414e-15,-13.497590065,10.3534889221,4.93529176712,-16.0,-19.0291595459
1531943815843173953,2148,1531943815842547561,,5,65528,40.5914654,-79.89959,380.350006104,3.94430452611e-31,16.0,-1.95943496414e-15,-13.6270456314,9.80222225189,5.04157209396,-16.0,-18.6213169098
1531943815895221774,2149,1531943815893999006,,5,65528,40.5914654,-79.89959,380.350006104,3.94430452611e-31,16.0,-1.95943496414e-15,-13.6579284668,9.50224304199,4.99362277985,-16.0,-18.2678985596
1531943815972576796,2150,1531943815971244876,,5,65528,40.5914654,-79.89959,380.350006104,3.94430452611e-31,16.0,-1.95943496414e-15,-13.6460971832,9.19536209106,4.9958615303,-16.0,-18.2678985596
1531943816004324266,2151,1531943816000880534,,5,65528,40.5914654,-79.89959,380.350006104,3.94430452611e-31,16.0,-1.95943496414e-15,-13.6157398224,9.00301456451,5.01567173004,-16.0,-17.9106330872
1531943816080385450,2152,1531943816079698067,,5,65528,40.5914654,-79.89959,380.350006104,3.94430452611e-31,16.0,-1.95943496414e-15,-13.5512628555,8.7422990799,5.0619726181,-16.0,-17.9106330872
1531943816102028857,2153,1531943816099633303,,5,65528,40.5914654,-79.89959,380.350006104,3.94430452611e-31,16.0,-1.95943496414e-15,-13.4804258347,8.56424331665,5.14232826233,-16.0,-17.6782665253
1531943816158468241,2154,1531943816158048342,,5,65528,40.5914654,-79.89959,380.350006104,3.94430452611e-31,16.0,-1.95943496414e-15,-13.3438491821,8.32537555695,5.26260089874,-16.0,-17.6782665253
1531943816205461439,2155,1531943816204824904,,5,65528,40.5914654,-79.89959,380.350006104,3.94430452611e-31,16.0,-1.95943496414e-15,-13.2551326752,8.21136760712,5.29811525345,-16.0,-17.6331615448
1531943816247021555,2156,1531943816245355848,,5,65528,40.5914654,-79.89959,380.350006104,3.94430452611e-31,16.0,-1.95943496414e-15,-13.1625041962,8.10001373291,5.30915737152,-16.0,-17.6331615448
1531943816351866216,2157,1531943816350427002,,5,65528,40.5914654,-79.89959,380.350006104,3.94430452611e-31,16.0,-1.95943496414e-15,-12.9332752228,7.9021191597,5.22965192795,-16.0,-17.4253425598
1531943816416811284,2158,1531943816415811905,,5,65528,40.5914654,-79.89959,380.350006104,3.94430452611e-31,16.0,-1.95943496414e-15,-12.7081365585,7.79439783096,5.18684959412,-16.0,-17.0589027405
1531943816455431948,2159,1531943816454286651,,5,65528,40.5914654,-79.89959,380.350006104,3.94430452611e-31,16.0,-1.95943496414e-15,-12.6062021255,7.74807357788,5.14008998871,-16.0,-17.0589027405
1531943816498042707,2160,1531943816497034847,,5,65528,40.5914654,-79.89959,380.350006104,3.94430452611e-31,16.0,-1.95943496414e-15,-12.5093679428,7.70745754242,5.03910636902,-16.0,-16.6981430054
1531943816553985457,2161,1531943816553345529,,5,65528,40.5914654,-79.89959,380.350006104,3.94430452611e-31,16.0,-1.95943496414e-15,-12.4204149246,7.68894338608,4.93310928345,-16.0,-16.6981430054
1531943816604830767,2162,1531943816601227260,,5,65528,40.5914654,-79.89959,380.350006104,3.94430452611e-31,16.0,-1.95943496414e-15,-12.2931556702,7.67564678192,4.69766521454,-16.0,-16.3766460419
1531943816642730993,2163,1531943816640611915,,5,65528,40.5914654,-79.89959,380.350006104,3.94430452611e-31,16.0,-1.95943496414e-15,-12.2196159363,7.66582679749,4.53373908997,-16.0,-16.3766460419
1531943816710639063,2164,1531943816710420570,,5,65528,40.5914654,-79.89959,380.350006104,3.94430452611e-31,16.0,-1.95943496414e-15,-12.0825281143,7.67001581192,4.14310693741,-16.0,-15.923283577
1531943816753428731,2165,1531943816752377481,,5,65528,40.5914654,-79.89959,380.350006104,3.94430452611e-31,16.0,-1.95943496414e-15,-12.0429639816,7.68379735947,4.04254770279,-16.0,-15.923283577
1531943816792701580,2166,1531943816792296241,,5,65528,40.5914654,-79.89959,380.350006104,3.94430452611e-31,16.0,-1.95943496414e-15,-11.9265708923,7.71088886261,3.77199196815,-16.0,-15.4441156387
1531943816828540743,2167,1531943816816210467,,5,65528,40.5914654,-79.89959,380.350006104,3.94430452611e-31,16.0,-1.95943496414e-15,-11.8829574585,7.72027540207,3.69475865364,-16.0,-15.4441156387
1531943816866998050,2168,1531943816864856029,,5,65528,40.5914654,-79.89959,380.350006104,3.94430452611e-31,16.0,-1.95943496414e-15,-11.8151655197,7.73216295242,3.53686094284,-16.0,-15.4441156387
1531943816910018787,2169,1531943816909630536,,5,65528,40.5914654,-79.89959,380.350006104,3.94430452611e-31,16.0,-1.95943496414e-15,-11.6799030304,7.75818109512,3.36053943634,-16.0,-14.9172477722
1531943816986813114,2170,1531943816986195585,,5,65528,40.5914654,-79.89959,380.350006104,3.94430452611e-31,16.0,-1.95943496414e-15,-11.530705452,7.81839418411,3.22545266151,-16.0,-14.7753286362
1531943817019155394,2171,1531943817015440209,,5,65528,40.5914654,-79.89959,380.350006104,3.94430452611e-31,16.0,-1.95943496414e-15,-11.4394569397,7.84988927841,3.12371945381,-16.0,-14.7753286362
1531943817051849926,2172,1531943817051331693,,5,65528,40.5914654,-79.89959,380.350006104,3.94430452611e-31,16.0,-1.95943496414e-15,-11.3865480423,7.86948490143,3.08076643944,-16.0,-14.7753286362
1531943817096171256,2173,1531943817095070470,,5,65528,40.5914654,-79.89959,380.350006104,3.94430452611e-31,16.0,-1.95943496414e-15,-11.2403326035,7.93386650085,2.95569729805,-16.0,-14.6474161148
1531943817152956845,2174,1531943817152565650,,5,65528,40.5914654,-79.89959,380.350006104,3.94430452611e-31,16.0,-1.95943496414e-15,-11.1361427307,7.98814821243,2.85722708702,-16.0,-14.6474161148
1531943817219182219,2175,1531943817217104613,,5,65528,40.5914654,-79.89959,380.350006104,3.94430452611e-31,16.0,-1.95943496414e-15,-10.955783844,8.09303951263,2.60482811928,-16.0,-14.5267677307
1531943817259226962,2176,1531943817258887926,,5,65528,40.5914654,-79.89959,380.350006104,3.94430452611e-31,16.0,-1.95943496414e-15,-10.9051904678,8.12358093262,2.52587080002,-16.0,-14.5267677307
1531943817327149979,2177,1531943817320556046,,5,65528,40.5914654,-79.89959,380.350006104,3.94430452611e-31,16.0,-1.95943496414e-15,-10.7567968369,8.21429538727,2.17201519012,-16.0,-14.3597536087
1531943817374752899,2178,1531943817372176963,,5,65528,40.5914654,-79.89959,380.350006104,3.94430452611e-31,16.0,-1.95943496414e-15,-10.6887969971,8.26648330688,1.98182141781,-16.0,-14.1585121155
1531943817428190562,2179,1531943817426488279,,5,65528,40.5914654,-79.89959,380.350006104,3.94430452611e-31,16.0,-1.95943496414e-15,-10.5840892792,8.34368228912,1.64812397957,-16.0,-14.1585121155
1531943817448788895,2180,1531943817446891446,,5,65528,40.5914654,-79.89959,380.350006104,3.94430452611e-31,16.0,-1.95943496414e-15,-10.5614061356,8.36361122131,1.52148544788,-16.0,-14.1585121155
1531943817512024098,2181,1531943817511356170,,5,65528,40.5914654,-79.89959,380.350006104,3.94430452611e-31,16.0,-1.95943496414e-15,-10.4575605392,8.44665050507,1.04145264626,-16.0,-13.8797807693
1531943817556619568,2182,1531943817555538686,,5,65528,40.5914654,-79.89959,380.350006104,3.94430452611e-31,16.0,-1.95943496414e-15,-10.4128255844,8.49292469025,0.810033321381,-16.0,-13.613237381
1531943817627053881,2183,1531943817625447821,,5,65528,40.5914654,-79.89959,380.350006104,3.94430452611e-31,16.0,-1.95943496414e-15,-10.3346853256,8.5612077713,0.478989779949,-16.0,-13.613237381
1531943817644156482,2184,1531943817642070588,,5,65528,40.5914654,-79.89959,380.350006104,3.94430452611e-31,16.0,-1.95943496414e-15,-10.3152103424,8.58013057709,0.360840260983,-16.0,-13.613237381
1531943817677378975,2185,1531943817677039524,,5,65528,40.5914654,-79.89959,380.350006104,3.94430452611e-31,16.0,-1.95943496414e-15,-10.2898902893,8.60190296173,0.116701103747,-16.0,-13.4800348282
1531943817736450423,2186,1531943817736032029,,5,65528,40.5914654,-79.89959,380.350006104,3.94430452611e-31,16.0,-1.95943496414e-15,-10.2258358002,8.65277671814,-0.201957151294,-16.0,-13.4800348282
1531943817822079937,2187,1531943817818745099,,5,65528,40.5914654,-79.89959,380.350006104,3.94430452611e-31,16.0,-1.95943496414e-15,-10.1605272293,8.72142505646,-0.578548133373,-16.0,-13.4877243042
1531943817897549418,2188,1531943817896640662,,5,65528,40.5914654,-79.89959,380.350006104,3.94430452611e-31,16.0,-1.95943496414e-15,-10.1002321243,8.79323577881,-0.921617269516,-16.0,-13.6111011505
1531943817936673245,2189,1531943817936365569,,5,65528,40.5914654,-79.89959,380.350006104,4.99999987724e-06,16.0,-1.95943435181e-15,-10.083316803,8.82239627838,-1.09807837009,-16.0,-13.6111011505
1531943817979911517,2190,1531943817978666637,,5,65528,40.5914654,-79.89959,380.350006104,4.99999987724e-06,16.0,-1.95943435181e-15,-10.0543489456,8.86610412598,-1.26238584518,-16.0,-13.718706131
1531943818017717313,2191,1531943818015259040,,5,65528,40.5914654,-79.89959,380.350006104,4.99999987724e-06,16.0,-1.95943435181e-15,-10.0378246307,8.8985042572,-1.43048489094,-16.0,-13.718706131
1531943818073817632,2192,1531943818073616034,,5,65528,40.5914654,-79.89959,380.350006104,4.99999987724e-06,16.0,-1.95943435181e-15,-10.0325775146,8.92297077179,-1.61019945145,-16.0,-13.718706131
1531943818130971474,2193,1531943818123717037,,5,65528,40.5914654,-79.89959,380.350006104,4.99999987724e-06,16.0,-1.95943435181e-15,-10.009768486,8.97284317017,-1.84789431095,-16.0,-13.8342590332
1531943818151837003,2194,1531943818151041493,,5,65528,40.5914654,-79.89959,380.350006104,0.00134800001979,16.0,-1.95926988175e-15,-10.0049915314,8.9914226532,-1.92712128162,-16.0,-13.8342590332
1531943818196303644,2195,1531943818193740861,,5,65528,40.5914654,-79.89959,380.350006104,0.00134800001979,16.0,-1.95926988175e-15,-10.0027961731,9.03711795807,-2.15127182007,-16.0,-13.9871110916
1531943818238826502,2196,1531943818236012489,,5,65528,40.5914654,-79.89959,380.350006104,0.00134800001979,16.0,-1.95926988175e-15,-9.99386501312,9.07948493958,-2.2785885334,-16.0,-13.9871110916
1531943818358231529,2197,1531943818356163363,,5,65528,40.5914654,-79.89959,380.350006104,0.00856500025839,15.9999980927,-1.9583856306e-15,-10.0058584213,9.17014408112,-2.55753183365,-16.0,-14.0650701523
1531943818395624307,2198,1531943818394825949,,5,65528,40.5914654,-79.89959,380.350006104,0.00856500025839,15.9999980927,-1.9583856306e-15,-10.0012340546,9.24623012543,-2.68886089325,-16.0,-14.1447515488
1531943818454786635,2199,1531943818453146976,,5,65528,40.5914654,-79.89959,380.350006104,0.00856500025839,15.9999980927,-1.9583856306e-15,-10.0068445206,9.29382610321,-2.78065824509,-16.0,-14.1447515488
1531943818512573749,2200,1531943818512143066,,5,65528,40.5914654,-79.89959,380.350006104,0.00856500025839,15.9999980927,-1.9583856306e-15,-10.0230350494,9.38594245911,-2.93297314644,-16.0,-14.1906957626
1531943818576058583,2201,1531943818572021706,,5,65528,40.5914654,-79.89959,380.350006104,0.00856500025839,15.9999980927,-1.9583856306e-15,-10.0205049515,9.4456653595,-2.99533224106,-16.0,-14.3723144531
1531943818593022690,2202,1531943818592441993,,5,65528,40.5914654,-79.89959,380.350006104,0.00856500025839,15.9999980927,-1.9583856306e-15,-10.025677681,9.50529003143,-3.05961585045,-16.0,-14.3723144531
1531943818667184126,2203,1531943818664324994,,5,65528,40.5914654,-79.89959,380.350006104,0.060993000865,15.9998836517,-1.95195107625e-15,-10.0423593521,9.57859802246,-3.14971423149,-16.0,-14.3723144531
1531943818710164545,2204,1531943818708756627,,5,65528,40.5914654,-79.89959,380.350006104,0.060993000865,15.9998836517,-1.95195107625e-15,-10.0457983017,9.6316318512,-3.21519470215,-16.0,-14.5553646088
1531943818755688069,2205,1531943818755140524,,5,65528,40.5914654,-79.89959,380.350006104,0.060993000865,15.9998836517,-1.95195107625e-15,-10.0470075607,9.71953201294,-3.30839347839,-16.0,-14.5553646088
1531943818867443497,2206,1531943818862817763,,5,65528,40.5914654,-79.89959,380.350006104,0.060993000865,15.9998836517,-1.95195107625e-15,-10.0725812912,9.81020641327,-3.4324221611,-16.0,-14.6952257156
1531943818921761982,2207,1531943818920463694,,5,65528,40.5914654,-79.89959,380.350006104,0.060993000865,15.9998836517,-1.95195107625e-15,-10.0902824402,9.91580295563,-3.48773241043,-16.0,-14.8492717743
1531943818960823859,2208,1531943818960318937,,5,65528,40.5914654,-79.89959,380.350006104,0.197430998087,15.9987821579,-1.93510735059e-15,-10.0947475433,9.94390296936,-3.50082302094,-16.0,-14.8492717743
1531943818982930333,2209,1531943818982659072,,5,65528,40.5914654,-79.89959,380.350006104,0.197430998087,15.9987821579,-1.93510735059e-15,-10.1116247177,9.99467849731,-3.53561449051,-16.0,-15.0066423416
1531943819039225210,2210,1531943819038035049,,5,65528,40.5914654,-79.89959,380.350006104,0.197430998087,15.9987821579,-1.93510735059e-15,-10.1456346512,10.0605897903,-3.55411744118,-16.0,-15.0066423416
1531943819106534542,2211,1531943819105891830,,5,65528,40.5914654,-79.89959,380.350006104,0.197430998087,15.9987821579,-1.93510735059e-15,-10.1753339767,10.1344661713,-3.55456399918,-16.0,-15.2223815918
1531943819143385824,2212,1531943819143055364,,5,65528,40.5914654,-79.89959,380.350006104,0.197430998087,15.9987821579,-1.93510735059e-15,-10.1949720383,10.1897888184,-3.54403710365,-16.0,-15.2223815918
1531943819176992090,2213,1531943819175697259,,5,65528,40.5914654,-79.89959,380.350006104,0.197430998087,15.9987821579,-1.93510735059e-15,-10.2204065323,10.2367153168,-3.52775907516,-16.0,-15.4656658173
1531943819229576711,2214,1531943819229255403,,5,65528,40.5914654,-79.89959,380.350006104,0.197430998087,15.9987821579,-1.93510735059e-15,-10.2571277618,10.276093483,-3.51158571243,-16.0,-15.4656658173
1531943819274428084,2215,1531943819272962855,,5,65528,40.5914654,-79.89959,380.350006104,0.197430998087,15.9987821579,-1.93510735059e-15,-10.2932500839,10.3163385391,-3.48531389236,-16.0,-15.4656658173
1531943819293938751,2216,1531943819291883641,,5,65528,40.5914654,-79.89959,380.350006104,0.197430998087,15.9987821579,-1.93510735059e-15,-10.3230333328,10.3626832962,-3.46693205833,-16.0,-15.6490077972
1531943819365808026,2217,1531943819365166658,,5,65528,40.5914654,-79.89959,380.350006104,0.638037025929,15.9872732162,-1.8797392116e-15,-10.3613853455,10.4280509949,-3.44889521599,-16.0,-15.6490077972
1531943819413581539,2218,1531943819413231559,,5,65528,40.5914654,-79.89959,380.350006104,0.638037025929,15.9872732162,-1.8797392116e-15,-10.417517662,10.4785852432,-3.41416025162,-16.0,-15.8639755249
1531943819451993473,2219,1531943819450484820,,5,65528,40.5914654,-79.89959,380.350006104,0.638037025929,15.9872732162,-1.8797392116e-15,-10.4385957718,10.4961099625,-3.39273667336,-16.0,-15.8639755249
1531943819477111974,2220,1531943819476577229,,5,65528,40.5914654,-79.89959,380.350006104,0.638037025929,15.9872732162,-1.8797392116e-15,-10.4729013443,10.5339927673,-3.34863591194,-16.0,-16.0896129608
1531943819517811815,2221,1531943819517243086,,5,65528,40.5914654,-79.89959,380.350006104,0.638037025929,15.9872732162,-1.8797392116e-15,-10.4989500046,10.5734910965,-3.32275128365,-16.0,-16.0896129608
1531943819588461841,2222,1531943819587275680,,5,65528,40.5914654,-79.89959,380.350006104,0.862006008625,15.9767627716,-1.85102385526e-15,-10.55996418,10.6392688751,-3.24829745293,-16.0,-16.1821365356
1531943819676037319,2223,1531943819673691300,,5,65528,40.5914654,-79.89959,380.350006104,0.862006008625,15.9767627716,-1.85102385526e-15,-10.6157102585,10.6747570038,-3.17682003975,-16.0,-16.3755493164
1531943819714388134,2224,1531943819712957272,,5,65528,40.5914654,-79.89959,380.350006104,0.862006008625,15.9767627716,-1.85102385526e-15,-10.6600856781,10.7184534073,-3.0819849968,-16.0,-16.3755493164
1531943819789246779,2225,1531943819788812608,,5,65528,40.5914654,-79.89959,380.350006104,0.862006008625,15.9767627716,-1.85102385526e-15,-10.6868610382,10.7603273392,-3.00814414024,-16.0,-16.4772033691
1531943819813640233,2226,1531943819813201902,,5,65528,40.5914654,-79.89959,380.350006104,0.862006008625,15.9767627716,-1.85102385526e-15,-10.7069377899,10.7827358246,-2.96370363235,-16.0,-16.4772033691
1531943819885080233,2227,1531943819884761549,,5,65528,40.5914654,-79.89959,380.350006104,1.12842607498,15.9601583481,-1.81636329276e-15,-10.7498178482,10.8059835434,-2.89295125008,-16.0,-16.4656867981
1531943819945277142,2228,1531943819944079397,,5,65528,40.5914654,-79.89959,380.350006104,1.12842607498,15.9601583481,-1.81636329276e-15,-10.7873163223,10.8322992325,-2.77944588661,-16.0,-16.4656867981
1531943819987968958,2229,1531943819986759213,,5,65528,40.5914654,-79.89959,380.350006104,1.12842607498,15.9601583481,-1.81636329276e-15,-10.8165369034,10.8663311005,-2.63597178459,-16.0,-16.5490570068
1531943820058592938,2230,1531943820058178863,,5,65528,40.5914654,-79.89959,380.350006104,1.43828892708,15.9352226257,-1.77536227223e-15,-10.8289518356,10.8899078369,-2.5472536087,-16.0,-16.5490570068
1531943820082833371,2231,1531943820077912216,,5,65528,40.5914654,-79.89959,380.350006104,1.43828892708,15.9352226257,-1.77536227223e-15,-10.8319768906,10.9051609039,-2.4911365509,-16.0,-16.5862045288
1531943820120888222,2232,1531943820120461764,,5,65528,40.5914654,-79.89959,380.350006104,1.43828892708,15.9352226257,-1.77536227223e-15,-10.8466901779,10.9421882629,-2.36861634254,-16.0,-16.5862045288
1531943820148038955,2233,1531943820147686735,,5,65528,40.5914654,-79.89959,380.350006104,1.43828892708,15.9352226257,-1.77536227223e-15,-10.8505907059,10.9510440826,-2.321652174,-16.0,-16.5862045288
1531943820220630334,2234,1531943820218008063,,5,65528,40.5914654,-79.89959,380.350006104,1.43828892708,15.9352226257,-1.77536227223e-15,-10.8583250046,10.9870824814,-2.14828300476,-16.0,-16.5934371948
1531943820246864694,2235,1531943820246370972,,5,65528,40.5914654,-79.89959,380.350006104,2.62126898766,15.7838191986,-1.61194744655e-15,-10.8568696976,10.9956655502,-2.10777807236,-16.0,-16.5934371948
1531943820303864141,2236,1531943820302597821,,5,65528,40.5914654,-79.89959,380.350006104,2.62126898766,15.7838191986,-1.61194744655e-15,-10.8446502686,11.0215129852,-2.00611543655,-16.0,-16.6546573639
1531943820373074987,2237,1531943820372501458,,5,65528,40.5914654,-79.89959,380.350006104,2.62126898766,15.7838191986,-1.61194744655e-15,-10.8082904816,11.0517883301,-1.86288106441,-16.0,-16.6304855347
1531943820419008460,2238,1531943820416196175,,5,65528,40.5914654,-79.89959,380.350006104,2.62126898766,15.7838191986,-1.61194744655e-15,-10.7887878418,11.0680398941,-1.79231846333,-16.0,-16.6304855347
1531943820455420100,2239,1531943820452659655,,5,65528,40.5914654,-79.89959,380.350006104,2.62126898766,15.7838191986,-1.61194744655e-15,-10.7810592651,11.0719671249,-1.76052236557,-16.0,-16.6304855347
1531943820516172268,2240,1531943820515200152,,5,65528,40.5914654,-79.89959,380.350006104,3.09101390839,15.6985874176,-1.54398229818e-15,-10.749578476,11.089764595,-1.61559414864,-16.0,-16.5097885132
1531943820544238765,2241,1531943820539084909,,5,65528,40.5914654,-79.89959,380.350006104,3.09101390839,15.6985874176,-1.54398229818e-15,-10.7355060577,11.0931720734,-1.57343745232,-16.0,-16.5097885132
1531943820595564203,2242,1531943820594024542,,5,65528,40.5914654,-79.89959,380.350006104,3.09101390839,15.6985874176,-1.54398229818e-15,-10.6833992004,11.1142597198,-1.44460761547,-16.0,-16.4892024994
1531943820651180883,2243,1531943820649498216,,5,65528,40.5914654,-79.89959,380.350006104,3.09101390839,15.6985874176,-1.54398229818e-15,-10.6341514587,11.134270668,-1.32886517048,-16.0,-16.4892024994
1531943820776633073,2244,1531943820775983129,,5,65528,40.5914654,-79.89959,380.350006104,3.09101390839,15.6985874176,-1.54398229818e-15,-10.5603179932,11.1506252289,-1.16125392914,-16.0,-16.4041500092
1531943820834107394,2245,1531943820833696071,,5,65528,40.5914654,-79.89959,380.350006104,3.59026193619,15.5919857025,-1.46978736472e-15,-10.4697418213,11.1793136597,-1.05108618736,-16.0,-16.4041500092
1531943820976883143,2246,1531943820976199664,,5,65528,40.5914654,-79.89959,380.350006104,3.59026193619,15.5919857025,-1.46978736472e-15,-10.3325300217,11.2164068222,-0.939729213715,-16.0,-16.4254436493
1531943821047052602,2247,1531943821044554329,,5,65528,40.5914654,-79.89959,380.350006104,3.59026193619,15.5919857025,-1.46978736472e-15,-10.2309923172,11.2451610565,-0.91141974926,-16.0,-16.3357601166
1531943821094742983,2248,1531943821094206701,,5,65528,40.5914654,-79.89959,380.350006104,5.18455791473,15.1367225647,-1.21878859185e-15,-10.1399774551,11.275800705,-0.915805578232,-16.0,-16.2830276489
1531943821156313830,2249,1531943821155491792,,5,65528,40.5914654,-79.89959,380.350006104,5.18455791473,15.1367225647,-1.21878859185e-15,-10.0541687012,11.3010511398,-0.896245419979,-16.0,-16.2830276489
1531943821228671806,2250,1531943821228112933,,5,65528,40.5914654,-79.89959,380.350006104,5.18455791473,15.1367225647,-1.21878859185e-15,-9.94026565552,11.347158432,-0.840511500835,-16.0,-16.1580162048
1531943821251257092,2251,1531943821248920353,,5,65528,40.5914654,-79.89959,380.350006104,5.18455791473,15.1367225647,-1.21878859185e-15,-9.90859603882,11.3607988358,-0.826056838036,-16.0,-16.1580162048
1531943821319113269,2252,1531943821318526012,,5,65528,40.5914654,-79.89959,380.350006104,5.71701383591,14.9437532425,-1.12994975218e-15,-9.74986171722,11.4370603561,-0.719673097134,-16.0,-16.1115665436
1531943821362545366,2253,1531943821361156232,,5,65528,40.5914654,-79.89959,380.350006104,5.71701383591,14.9437532425,-1.12994975218e-15,-9.71115779877,11.455496788,-0.688984751701,-16.0,-16.1115665436
1531943821450133937,2254,1531943821445812327,,5,65528,40.5914654,-79.89959,380.350006104,5.71701383591,14.9437532425,-1.12994975218e-15,-9.47819042206,11.5729379654,-0.529268622398,-16.0,-16.1042671204
1531943821522201933,2255,1531943821517240811,,5,65528,40.5914654,-79.89959,380.350006104,5.71701383591,14.9437532425,-1.12994975218e-15,-9.28572940826,11.6712255478,-0.443888366222,-16.0,-16.0971736908
1531943821555462605,2256,1531943821553743139,,5,65528,40.5914654,-79.89959,380.350006104,5.71701383591,14.9437532425,-1.12994975218e-15,-9.22712135315,11.6940374374,-0.431027144194,-16.0,-16.0971736908
1531943821620375363,2257,1531943821620115622,,5,65528,40.5914654,-79.89959,380.350006104,7.26878070831,14.2535896301,-8.55392465602e-16,-9.02845478058,11.7737827301,-0.417861521244,-15.9899997711,-15.9544630051
1531943821652220245,2258,1531943821651575197,,5,65528,40.5914654,-79.89959,380.350006104,7.26878070831,14.2535896301,-8.55392465602e-16,-8.97548961639,11.7925958633,-0.412784188986,-15.9899997711,-15.9544630051
1531943821696888807,2259,1531943821696415661,,5,65528,40.5914654,-79.89959,380.350006104,7.26878070831,14.2535896301,-8.55392465602e-16,-8.83585739136,11.8509683609,-0.420015752316,-15.9899997711,-15.8257598877
1531943821712901023,2260,1531943821712536548,,5,65528,40.5914654,-79.89959,380.350006104,7.26878070831,14.2535896301,-8.55392465602e-16,-8.78483200073,11.8690443039,-0.412920981646,-15.9899997711,-15.8257598877
1531943821808289848,2261,1531943821804718181,,5,65528,40.5914654,-79.89959,380.350006104,8.25883769989,13.703707695,-6.66804216142e-16,-8.59032058716,11.9326124191,-0.419000476599,-16.0,-15.7624177933
1531943821820239907,2262,1531943821819253903,,5,65528,40.5914654,-79.89959,380.350006104,8.25883769989,13.703707695,-6.66804216142e-16,-8.55182743073,11.9467153549,-0.43179923296,-16.0,-15.7624177933
1531943821951039074,2263,1531943821950385482,,5,65528,40.5914654,-79.89959,380.350006104,8.25883769989,13.703707695,-6.66804216142e-16,-8.29255580902,12.0331993103,-0.596739888191,-16.0,-15.6177501678
1531943821988504686,2264,1531943821987883382,,5,65528,40.5914654,-79.89959,380.350006104,8.25883769989,13.703707695,-6.66804216142e-16,-8.21546649933,12.0602216721,-0.655564844608,-16.0,-15.4204492569
1531943822054119420,2265,1531943822053222343,,5,65528,40.5914654,-79.89959,380.350006104,8.25883769989,13.703707695,-6.66804216142e-16,-8.08046245575,12.1124582291,-0.744301080704,-16.0,-15.4204492569
1531943822075693711,2266,1531943822072517879,,5,65528,40.5914654,-79.89959,380.350006104,16.0,3.00000010256e-06,1.95943451124e-15,-8.03662967682,12.1328086853,-0.780444324017,-16.0,-15.2584638596
1531943822131760724,2267,1531943822130588355,,5,65528,40.5914654,-79.89959,380.350006104,16.0,3.00000010256e-06,1.95943451124e-15,-7.89434194565,12.1954669952,-0.880940556526,-16.0,-15.2584638596
1531943822192900379,2268,1531943822192555807,,5,65528,40.5914654,-79.89959,380.350006104,16.0,3.00000010256e-06,1.95943451124e-15,-7.74835968018,12.2571105957,-0.988047540188,-16.0,-15.0995931625
1531943822221487990,2269,1531943822221198650,,5,65528,40.5914654,-79.89959,380.350006104,16.0,3.00000010256e-06,1.95943451124e-15,-7.63844251633,12.3011274338,-1.04413938522,-16.0,-15.0995931625
1531943822275260056,2270,1531943822273807882,,5,65528,40.5914654,-79.89959,380.350006104,16.0,3.00000010256e-06,1.95943451124e-15,-7.45677137375,12.3954353333,-1.14341342449,-16.0,-14.9953374863
1531943822316813874,2271,1531943822316210938,,5,65528,40.5914654,-79.89959,380.350006104,16.0,3.00000010256e-06,1.95943451124e-15,-7.31554794312,12.4634895325,-1.20959985256,-16.0,-14.9953374863
1531943822344513017,2272,1531943822343971392,,5,65528,40.5914654,-79.89959,380.350006104,16.0,3.00000010256e-06,1.95943451124e-15,-7.24765825272,12.5031099319,-1.23531317711,-16.0,-14.9953374863
1531943822444998517,2273,1531943822440806281,,5,65528,40.5914654,-79.89959,380.350006104,16.0,3.00000010256e-06,1.95943451124e-15,-6.84670162201,12.7064704895,-1.38455951214,-16.0,-14.8672437668
1531943822530248047,2274,1531943822529604695,,5,65528,40.5914654,-79.89959,380.350006104,16.0,3.00000010256e-06,1.95943451124e-15,-6.46237754822,12.9058704376,-1.45839774609,-16.0,-14.8731355667
1531943822555198008,2275,1531943822554867772,,5,65528,40.5914654,-79.89959,380.350006104,16.0,3.00000010256e-06,1.95943451124e-15,-6.25588083267,13.010427475,-1.50271558762,-16.0,-14.8731355667
1531943822605053067,2276,1531943822603059555,,5,65528,40.5914654,-79.89959,380.350006104,16.0,3.00000010256e-06,1.95943451124e-15,-6.04215049744,13.1176223755,-1.54196882248,-16.0,-14.9455404282
1531943822649692798,2277,1531943822649344899,,5,65528,40.5914654,-79.89959,380.350006104,16.0,3.00000010256e-06,1.95943451124e-15,-5.81944656372,13.2295713425,-1.5704331398,-16.0,-14.9455404282
1531943822696508983,2278,1531943822696029373,,5,65528,40.5914654,-79.89959,380.350006104,16.0,3.00000010256e-06,1.95943451124e-15,-5.47180557251,13.4083929062,-1.5953412056,-16.0,-14.993185997
1531943822750190938,2279,1531943822749843742,,5,65528,40.5914654,-79.89959,380.350006104,16.0,3.00000010256e-06,1.95943451124e-15,-5.23984527588,13.5205001831,-1.6285161972,-16.0,-14.993185997
1531943822795816001,2280,1531943822795453830,,5,65528,40.5914654,-79.89959,380.350006104,16.0,3.00000010256e-06,1.95943451124e-15,-4.88317060471,13.6775493622,-1.66284787655,-16.0,-15.102063179
1531943822883011235,2281,1531943822882453066,,5,65528,40.5914654,-79.89959,380.350006104,16.0,3.00000010256e-06,1.95943451124e-15,-4.36434459686,13.919219017,-1.67229402065,-16.0,-15.2121639252
1531943822902784108,2282,1531943822901244512,,5,65528,40.5914654,-79.89959,380.350006104,16.0,3.00000010256e-06,1.95943451124e-15,-4.25916433334,13.9621982574,-1.68859827518,-16.0,-15.2121639252
1531943822961639087,2283,1531943822960955128,,5,65528,40.5914654,-79.89959,380.350006104,16.0,3.00000010256e-06,1.95943451124e-15,-3.87010717392,14.1394968033,-1.70919013023,-16.0,-15.2121639252
1531943823015882731,2284,1531943823014075618,,5,65528,40.5914654,-79.89959,380.350006104,16.0,3.00000010256e-06,1.95943451124e-15,-3.4844815731,14.2925262451,-1.69127845764,-16.0,-15.4567070007
1531943823067351979,2285,1531943823066890321,,5,65528,40.5914654,-79.89959,380.350006104,16.0,3.00000010256e-06,1.95943451124e-15,-3.23886871338,14.3911495209,-1.7106487751,-16.0,-15.4567070007
1531943823167042420,2286,1531943823165868322,,5,65528,40.5914654,-79.89959,380.350006104,16.0,3.00000010256e-06,1.95943451124e-15,-2.56734752655,14.6290826797,-1.7573196888,-16.0,-15.6692247391
1531943823221505615,2287,1531943823221016789,,5,65528,40.5914654,-79.89959,380.350006104,16.0,3.00000010256e-06,1.95943451124e-15,-2.15862607956,14.7541885376,-1.80876886845,-16.0,-15.738067627
1531943823259484246,2288,1531943823257102068,,5,65528,40.5914654,-79.89959,380.350006104,16.0,3.00000010256e-06,1.95943451124e-15,-1.8744699955,14.8416471481,-1.85730564594,-16.0,-15.8435869217
1531943823308210520,2289,1531943823305793782,,5,65528,40.5914654,-79.89959,380.350006104,16.0,3.00000010256e-06,1.95943451124e-15,-1.59721827507,14.9236288071,-1.88812625408,-16.0,-15.8435869217
1531943823358825891,2290,1531943823357693649,,5,65528,40.5914654,-79.89959,380.350006104,16.0,3.00000010256e-06,1.95943451124e-15,-1.1453152895,15.0294933319,-1.91781079769,-16.0,-15.8435869217
1531943823417489769,2291,1531943823417219149,,5,65528,40.5914654,-79.89959,380.350006104,16.0,3.00000010256e-06,1.95943451124e-15,-0.702733874321,15.11581707,-1.97406625748,-16.0,-15.9655914307
1531943823494309230,2292,1531943823494075185,,5,65528,40.5914654,-79.89959,380.350006104,16.0,3.00000010256e-06,1.95943451124e-15,-0.268820017576,15.1904153824,-2.01964354515,-16.0,-16.0565128326
1531943823536952092,2293,1531943823532633490,,5,65528,40.5914654,-79.89959,380.350006104,16.0,3.00000010256e-06,1.95943451124e-15,0.0491956993938,15.2371740341,-2.05570983887,-16.0,-16.0565128326
1531943823546399750,2294,1531943823544618557,,5,65528,40.5914654,-79.89959,380.350006104,16.0,3.00000010256e-06,1.95943451124e-15,0.197452768683,15.2504425049,-2.0736784935,-16.0,-16.0565128326
1531943823600486470,2295,1531943823599836590,,5,65528,40.5914654,-79.89959,380.350006104,16.0,3.00000010256e-06,1.95943451124e-15,0.683175325394,15.3005504608,-2.13479566574,-16.0,-16.1494255066
1531943823631660994,2296,1531943823629593724,,5,65528,40.5914654,-79.89959,380.350006104,16.0,3.00000010256e-06,1.95943451124e-15,1.00880563259,15.3169050217,-2.14866662025,-16.0,-16.1494255066
1531943823723772873,2297,1531943823720545905,,5,65528,40.5914654,-79.89959,380.350006104,16.0,3.00000010256e-06,1.95943451124e-15,1.70187592506,15.3403759003,-2.1780090332,-16.0,-16.284538269
1531943823746943273,2298,1531943823746274129,,5,65528,40.5914654,-79.89959,380.350006104,16.0,3.00000010256e-06,1.95943451124e-15,1.88129973412,15.3395137787,-2.18276000023,-16.0,-16.284538269
1531943823818582190,2299,1531943823818016885,,5,65528,40.5914654,-79.89959,380.350006104,16.0,3.00000010256e-06,1.95943451124e-15,2.61600184441,15.312420845,-2.20089268684,-16.0,-16.3883247375
1531943823838388183,2300,1531943823837854398,,5,65528,40.5914654,-79.89959,380.350006104,16.0,3.00000010256e-06,1.95943451124e-15,2.80107855797,15.3007287979,-2.20398139954,-16.0,-16.3883247375
1531943823909226407,2301,1531943823908706285,,5,65528,40.5914654,-79.89959,380.350006104,16.0,3.00000010256e-06,1.95943451124e-15,3.59485054016,15.2270584106,-2.15070486069,-16.0,-16.5191001892
1531943824010713177,2302,1531943824008708754,,5,65528,40.5914654,-79.89959,380.350006104,16.0,3.00000010256e-06,1.95943451124e-15,4.38568592072,15.1153869629,-2.11599516869,-16.0,-16.632478714
1531943824066069450,2303,1531943824063123950,,5,65528,40.5914654,-79.89959,380.350006104,16.0,3.00000010256e-06,1.95943451124e-15,4.99614191055,14.9987230301,-2.05926394463,-16.0,-16.632478714
1531943824103839797,2304,1531943824102115146,,5,65528,40.5914654,-79.89959,380.350006104,16.0,3.00000010256e-06,1.95943451124e-15,5.37732458115,14.9077215195,-2.02294230461,-16.0,-16.784942627
1531943824140155282,2305,1531943824139571001,,5,65528,40.5914654,-79.89959,380.350006104,16.0,3.00000010256e-06,1.95943451124e-15,5.80370950699,14.7942552567,-1.95415365696,-16.0,-16.784942627
1531943824241123757,2306,1531943824239490753,,5,65528,40.5914654,-79.89959,380.350006104,16.0,3.00000010256e-06,1.95943451124e-15,6.85625123978,14.4829587936,-1.78908228874,-16.0,-16.9404964447
1531943824313374508,2307,1531943824312907186,,5,65528,40.5914654,-79.89959,380.350006104,16.0,3.00000010256e-06,1.95943451124e-15,7.6338133812,14.2056484222,-1.64140021801,-16.0,-17.0783748627
1531943824372460014,2308,1531943824371415643,,5,65528,40.5914654,-79.89959,380.350006104,16.0,3.00000010256e-06,1.95943451124e-15,8.02556228638,14.0467119217,-1.57335972786,-16.0,-17.0783748627
1531943824415176636,2309,1531943824414720226,,5,65528,40.5914654,-79.89959,380.350006104,16.0,3.00000010256e-06,1.95943451124e-15,8.56833553314,13.80560112,-1.51674449444,-16.0,-17.2424488068
1531943824485834959,2310,1531943824484998810,,5,65528,40.5914654,-79.89959,380.350006104,16.0,3.00000010256e-06,1.95943451124e-15,9.09343719482,13.5511693954,-1.48661231995,-16.0,-17.1913013458
1531943824515160483,2311,1531943824514937446,,5,65528,40.5914654,-79.89959,380.350006104,16.0,3.00000010256e-06,1.95943451124e-15,9.45903778076,13.363114357,-1.46024096012,-16.0,-17.1913013458
1531943824555144147,2312,1531943824554785143,,5,65528,40.5914654,-79.89959,380.350006104,16.0,3.00000010256e-06,1.95943451124e-15,9.83456325531,13.1611642838,-1.43802177906,-16.0,-17.1913013458
1531943824607950307,2313,1531943824607416298,,5,65528,40.5914654,-79.89959,380.350006104,16.0,3.00000010256e-06,1.95943451124e-15,10.2192306519,12.9274377823,-1.38732504845,-16.0,-17.259147644
1531943824640640302,2314,1531943824639925110,,5,65528,40.5914654,-79.89959,380.350006104,16.0,3.00000010256e-06,1.95943451124e-15,10.5937213898,12.7030496597,-1.3773214817,-16.0,-17.259147644
1531943824700220298,2315,1531943824695588324,,5,65528,40.5914654,-79.89959,380.350006104,16.0,3.00000010256e-06,1.95943451124e-15,11.1519441605,12.3403329849,-1.36066377163,-16.0,-17.3264961243
1531943824757464612,2316,1531943824755689082,,5,65528,40.5914654,-79.89959,380.350006104,16.0,3.00000010256e-06,1.95943451124e-15,11.7069330215,11.9523334503,-1.32713842392,-16.0,-17.3264961243
1531943824815810703,2317,1531943824813886951,,5,65528,40.5914654,-79.89959,380.350006104,16.0,3.00000010256e-06,1.95943451124e-15,12.0692281723,11.669093132,-1.28003323078,-16.0,-17.3365440369
1531943824872715789,2318,1531943824871281247,,5,65528,40.5914654,-79.89959,380.350006104,16.0,3.00000010256e-06,1.95943451124e-15,12.6271467209,11.2259397507,-1.19225156307,-16.0,-17.3365440369
1531943824909384166,2319,1531943824909099529,,5,65528,40.5914654,-79.89959,380.350006104,16.0,3.00000010256e-06,1.95943451124e-15,12.9970817566,10.9143238068,-1.14296030998,-16.0,-17.534992218
1531943824940034793,2320,1531943824939722541,,5,65528,40.5914654,-79.89959,380.350006104,16.0,3.00000010256e-06,1.95943451124e-15,13.3284797668,10.6006860733,-1.08760690689,-16.0,-17.534992218
1531943825044839957,2321,1531943825043695748,,5,65528,40.5914654,-79.89959,380.350006104,16.0,3.00000010256e-06,1.95943451124e-15,14.1326322556,9.77650165558,-0.945910930634,-16.0,-17.5023498535
1531943825085142882,2322,1531943825084642280,,5,65528,40.5914654,-79.89959,380.350006104,16.0,3.00000010256e-06,1.95943451124e-15,14.5734052658,9.25366973877,-0.83787560463,-16.0,-17.6834888458
1531943825144945501,2323,1531943825142401629,,5,65528,40.5914654,-79.89959,380.350006104,16.0,3.00000010256e-06,1.95943451124e-15,14.8575191498,8.90008163452,-0.78473007679,-16.0,-17.6834888458
1531943825216111468,2324,1531943825215526195,,5,65528,40.5914654,-79.89959,380.350006104,16.0,3.00000010256e-06,1.95943451124e-15,15.3395795822,8.22273445129,-0.706459462643,-16.0,-17.7083835602
1531943825243395322,2325,1531943825242666467,,5,65528,40.5914654,-79.89959,380.350006104,16.0,3.00000010256e-06,1.95943451124e-15,15.4491767883,8.05806255341,-0.690321564674,-16.0,-17.7083835602
1531943825301827334,2326,1531943825301024816,,5,65528,40.5914654,-79.89959,380.350006104,16.0,3.00000010256e-06,1.95943451124e-15,15.7939414978,7.51911306381,-0.589233279228,-16.0,-17.7003364563
1531943825329232467,2327,1531943825328892919,,5,65528,40.5914654,-79.89959,380.350006104,16.0,3.00000010256e-06,1.95943451124e-15,15.9168758392,7.33881187439,-0.56168204546,-16.0,-17.7003364563
1531943825408542236,2328,1531943825407949060,,5,65528,40.5914654,-79.89959,380.350006104,16.0,3.00000010256e-06,1.95943451124e-15,16.3544311523,6.55079030991,-0.352269262075,-16.0,-17.8655509949
1531943825421605467,2329,1531943825420068014,,5,65528,40.5914654,-79.89959,380.350006104,16.0,3.00000010256e-06,1.95943451124e-15,16.443819046,6.35994815826,-0.303010553122,-16.0,-17.8655509949
1531943825529940925,2330,1531943825529631840,,5,65528,40.5914654,-79.89959,380.350006104,16.0,3.00000010256e-06,1.95943451124e-15,16.8917293549,5.39768028259,-0.054154779762,-16.0,-18.0289001465
1531943825602997268,2331,1531943825600202198,,5,65528,40.5914654,-79.89959,380.350006104,16.0,3.00000010256e-06,1.95943451124e-15,17.1640129089,4.61533498764,0.18839083612,-16.0,-18.1935100555
1531943825622033064,2332,1531943825620128320,,5,65528,40.5914654,-79.89959,380.350006104,16.0,3.00000010256e-06,1.95943451124e-15,17.2319259644,4.43145704269,0.229511618614,-16.0,-18.1935100555
1531943825700480412,2333,1531943825699577287,,5,65528,40.5914654,-79.89959,380.350006104,16.0,3.00000010256e-06,1.95943451124e-15,17.4289703369,3.69752979279,0.439179062843,-16.0,-18.2701721191
1531943825732145012,2334,1531943825731736153,,5,65528,40.5914654,-79.89959,380.350006104,16.0,3.00000010256e-06,1.95943451124e-15,17.469997406,3.52872729301,0.480221778154,-16.0,-18.2701721191
1531943825788142078,2335,1531943825784249455,,5,65528,40.5914654,-79.89959,380.350006104,16.0,3.00000010256e-06,1.95943451124e-15,17.5697345734,3.01502919197,0.623210251331,-16.0,-18.3140926361
1531943825850732727,2336,1531943825849871906,,5,65528,40.5914654,-79.89959,380.350006104,16.0,3.00000010256e-06,1.95943451124e-15,17.6249389648,2.50399041176,0.802327692509,-16.0,-18.3140926361
1531943825874229332,2337,1531943825871993968,,5,65528,40.5914654,-79.89959,380.350006104,16.0,3.00000010256e-06,1.95943451124e-15,17.6425476074,2.35461378098,0.846967220306,-16.0,-18.3140926361
1531943825926296783,2338,1531943825924328231,,5,65528,40.5914654,-79.89959,380.350006104,16.0,3.00000010256e-06,1.95943451124e-15,17.6716423035,1.86454701424,1.04360878468,-16.0,-18.2416973114
1531943825937738689,2339,1531943825937417605,,5,65528,40.5914654,-79.89959,380.350006104,16.0,3.00000010256e-06,1.95943451124e-15,17.6632080078,1.7276147604,1.08613502979,-16.0,-18.2416973114
1531943826057820435,2340,1531943826057128828,,5,65528,40.5914654,-79.89959,380.350006104,16.0,3.00000010256e-06,1.95943451124e-15,17.6448478699,1.04982352257,1.28023803234,-16.0,-18.1172618866
1531943826119050527,2341,1531943826118361575,,5,65528,40.5914654,-79.89959,380.350006104,16.0,3.00000010256e-06,1.95943451124e-15,17.5858650208,0.574623763561,1.40180289745,-16.0,-17.8798351288
1531943826157246950,2342,1531943826155488892,,5,65528,40.5914654,-79.89959,380.350006104,16.0,3.00000010256e-06,1.95943451124e-15,17.5461101532,0.367459148169,1.4503827095,-16.0,-17.8798351288
1531943826232237031,2343,1531943826231982347,,5,65528,40.5914654,-79.89959,380.350006104,16.0,3.00000010256e-06,1.95943451124e-15,17.442653656,-0.00214806478471,1.54098856449,-16.0,-17.6075305939
1531943826325620389,2344,1531943826325253802,,5,65528,40.5914654,-79.89959,380.350006104,16.0,3.00000010256e-06,1.95943451124e-15,17.3551959991,-0.237881243229,1.57684659958,-16.0,-17.3353919983
1531943826394610864,2345,1531943826391604886,,5,65528,40.5914654,-79.89959,380.350006104,16.0,3.00000010256e-06,1.95943451124e-15,17.2429904938,-0.497945934534,1.59795212746,-16.0,-16.9931774139
1531943826423704393,2346,1531943826415554190,,5,65528,40.5914654,-79.89959,380.350006104,16.0,3.00000010256e-06,1.95943451124e-15,17.2108192444,-0.555890619755,1.62037348747,-16.0,-16.9931774139
1531943826441791817,2347,1531943826439217545,,5,65528,40.5914654,-79.89959,380.350006104,16.0,3.00000010256e-06,1.95943451124e-15,17.1500358582,-0.662364125252,1.62854325771,-16.0,-16.9931774139
1531943826496090986,2348,1531943826494320832,,5,65528,40.5914654,-79.89959,380.350006104,16.0,3.00000010256e-06,1.95943451124e-15,17.0678138733,-0.805812776089,1.617587924,-16.0,-16.6831817627
1531943826555676394,2349,1531943826555019954,,5,65528,40.5914654,-79.89959,380.350006104,16.0,3.00000010256e-06,1.95943451124e-15,16.9693717957,-0.906912386417,1.61540329456,-16.0,-16.6831817627
1531943826612465228,2350,1531943826612010481,,5,65528,40.5914654,-79.89959,380.350006104,16.0,3.00000010256e-06,1.95943451124e-15,16.8847026825,-1.00969803333,1.65097677708,-16.0,-16.3843040466
1531943826679144307,2351,1531943826678728601,,5,65528,40.5914654,-79.89959,380.350006104,16.0,3.00000010256e-06,1.95943451124e-15,16.7771949768,-1.10012543201,1.7583335638,-16.0,-16.2165203094
1531943826773005803,2352,1531943826770394987,,5,65528,40.5914654,-79.89959,380.350006104,16.0,3.00000010256e-06,1.95943451124e-15,16.6409988403,-1.197291255,1.91898965836,-16.0,-16.2165203094
1531943826802628061,2353,1531943826802111011,,5,65528,40.5914654,-79.89959,380.350006104,16.0,3.00000010256e-06,1.95943451124e-15,16.5723648071,-1.22789430618,1.97744047642,-16.0,-16.1934051514
1531943826885759737,2354,1531943826885519772,,5,65528,40.5914654,-79.89959,380.350006104,16.0,3.00000010256e-06,1.95943451124e-15,16.4553966522,-1.26739323139,2.04309821129,-16.0,-16.0414581299
1531943826987927659,2355,1531943826987136980,,5,65528,40.5914654,-79.89959,380.350006104,16.0,3.00000010256e-06,1.95943451124e-15,16.3583526611,-1.2684596777,2.01204490662,-16.0,-15.685292244
1531943827000438224,2356,1531943827000132052,,5,65528,40.5914654,-79.89959,380.350006104,16.0,3.00000010256e-06,1.95943451124e-15,16.308719635,-1.25575339794,1.98582065105,-16.0,-15.685292244
1531943827037734116,2357,1531943827034217359,,5,65528,40.5914654,-79.89959,380.350006104,16.0,3.00000010256e-06,1.95943451124e-15,16.2551765442,-1.23774206638,1.9661513567,-16.0,-15.685292244
1531943827095799992,2358,1531943827095477404,,5,65528,40.5914654,-79.89959,380.350006104,16.0,3.00000010256e-06,1.95943451124e-15,16.1741580963,-1.20138251781,1.95364332199,-16.0,-15.3427419662
1531943827190754564,2359,1531943827190032013,,5,65528,40.5914654,-79.89959,380.350006104,16.0,3.00000010256e-06,1.95943451124e-15,16.0913410187,-1.14611637592,1.85300767422,-16.0,-15.1386508942
1531943827214797852,2360,1531943827213384621,,5,65528,40.5914654,-79.89959,380.350006104,16.0,3.00000010256e-06,1.95943451124e-15,16.0612792969,-1.12541759014,1.84597361088,-16.0,-15.1386508942
