%time,field.header.seq,field.header.stamp,field.header.frame_id,field.magnetic_field.x,field.magnetic_field.y,field.magnetic_field.z,field.magnetic_field_covariance0,field.magnetic_field_covariance1,field.magnetic_field_covariance2,field.magnetic_field_covariance3,field.magnetic_field_covariance4,field.magnetic_field_covariance5,field.magnetic_field_covariance6,field.magnetic_field_covariance7,field.magnetic_field_covariance8
1531943810879747559,2310,1531943810878600982,base_link,-194000.0,440000.0,-250000.0,-1.0,0.0,0.0,0.0,0.0,0.0,0.0,0.0,0.0
1531943810955285953,2311,1531943810954521707,base_link,-194000.0,440000.0,-250000.0,-1.0,0.0,0.0,0.0,0.0,0.0,0.0,0.0,0.0
1531943811062073357,2312,1531943811058928693,base_link,-172000.0,393000.0,-325000.0,-1.0,0.0,0.0,0.0,0.0,0.0,0.0,0.0,0.0
1531943811149640752,2313,1531943811149100183,base_link,-161000.0,330000.0,-387000.0,-1.0,0.0,0.0,0.0,0.0,0.0,0.0,0.0,0.0
1531943811240948835,2314,1531943811238598369,base_link,-149000.0,260000.0,-431000.0,-1.0,0.0,0.0,0.0,0.0,0.0,0.0,0.0,0.0
1531943811360569485,2315,1531943811359848342,base_link,-139000.0,197000.0,-460000.0,-1.0,0.0,0.0,0.0,0.0,0.0,0.0,0.0,0.0
1531943811483066322,2316,1531943811476068587,base_link,-143000.0,124000.0,-473000.0,-1.0,0.0,0.0,0.0,0.0,0.0,0.0,0.0,0.0
1531943811574056745,2317,1531943811573097589,base_link,-144000.0,161000.0,-465000.0,-1.0,0.0,0.0,0.0,0.0,0.0,0.0,0.0,0.0
1531943811669897954,2318,1531943811668589491,base_link,-144000.0,161000.0,-465000.0,-1.0,0.0,0.0,0.0,0.0,0.0,0.0,0.0,0.0
1531943811772973407,2319,1531943811772196265,base_link,-148000.0,282000.0,-411000.0,-1.0,0.0,0.0,0.0,0.0,0.0,0.0,0.0,0.0
1531943811879501936,2320,1531943811878873240,base_link,-159000.0,324000.0,-381000.0,-1.0,0.0,0.0,0.0,0.0,0.0,0.0,0.0,0.0
1531943811976169790,2321,1531943811974639890,base_link,-183000.0,356000.0,-353000.0,-1.0,0.0,0.0,0.0,0.0,0.0,0.0,0.0,0.0
1531943812071812764,2322,1531943812070572523,base_link,-183000.0,356000.0,-353000.0,-1.0,0.0,0.0,0.0,0.0,0.0,0.0,0.0,0.0
1531943812174173924,2323,1531943812173523276,base_link,-204000.0,380000.0,-330000.0,-1.0,0.0,0.0,0.0,0.0,0.0,0.0,0.0,0.0
1531943812281024788,2324,1531943812280339708,base_link,-203000.0,415000.0,-296000.0,-1.0,0.0,0.0,0.0,0.0,0.0,0.0,0.0,0.0
1531943812379595853,2325,1531943812378159967,base_link,-154000.0,424000.0,-271000.0,-1.0,0.0,0.0,0.0,0.0,0.0,0.0,0.0,0.0
1531943812466547865,2326,1531943812465227754,base_link,-132000.0,431000.0,-255000.0,-1.0,0.0,0.0,0.0,0.0,0.0,0.0,0.0,0.0
1531943812573759748,2327,1531943812572784881,base_link,-120000.0,435000.0,-247000.0,-1.0,0.0,0.0,0.0,0.0,0.0,0.0,0.0,0.0
1531943812654002566,2328,1531943812653361967,base_link,-120000.0,435000.0,-247000.0,-1.0,0.0,0.0,0.0,0.0,0.0,0.0,0.0,0.0
1531943812785278687,2329,1531943812782943421,base_link,-168000.0,448000.0,-235000.0,-1.0,0.0,0.0,0.0,0.0,0.0,0.0,0.0,0.0
1531943812857797859,2330,1531943812857131468,base_link,-168000.0,448000.0,-235000.0,-1.0,0.0,0.0,0.0,0.0,0.0,0.0,0.0,0.0
1531943812979515830,2331,1531943812977891050,base_link,-178000.0,456000.0,-229000.0,-1.0,0.0,0.0,0.0,0.0,0.0,0.0,0.0,0.0
1531943813086848834,2332,1531943813085926701,base_link,-160000.0,457000.0,-225000.0,-1.0,0.0,0.0,0.0,0.0,0.0,0.0,0.0,0.0
1531943813150440154,2333,1531943813149696451,base_link,-160000.0,457000.0,-225000.0,-1.0,0.0,0.0,0.0,0.0,0.0,0.0,0.0,0.0
1531943813325387659,2334,1531943813323819839,base_link,-137000.0,459000.0,-218000.0,-1.0,0.0,0.0,0.0,0.0,0.0,0.0,0.0,0.0
1531943813382419895,2335,1531943813380956201,base_link,-139000.0,461000.0,-212000.0,-1.0,0.0,0.0,0.0,0.0,0.0,0.0,0.0,0.0
1531943813446573832,2336,1531943813445749810,base_link,-139000.0,461000.0,-212000.0,-1.0,0.0,0.0,0.0,0.0,0.0,0.0,0.0,0.0
1531943813570535521,2337,1531943813569256337,base_link,-127000.0,461000.0,-210000.0,-1.0,0.0,0.0,0.0,0.0,0.0,0.0,0.0,0.0
1531943813675422861,2338,1531943813671795771,base_link,-132000.0,461000.0,-215000.0,-1.0,0.0,0.0,0.0,0.0,0.0,0.0,0.0,0.0
1531943813846775884,2339,1531943813843833329,base_link,-102000.0,454000.0,-232000.0,-1.0,0.0,0.0,0.0,0.0,0.0,0.0,0.0,0.0
1531943813873015615,2340,1531943813872263400,base_link,-102000.0,454000.0,-232000.0,-1.0,0.0,0.0,0.0,0.0,0.0,0.0,0.0,0.0
1531943813972940265,2341,1531943813972481711,base_link,-85000.0,446000.0,-242000.0,-1.0,0.0,0.0,0.0,0.0,0.0,0.0,0.0,0.0
1531943814057417881,2342,1531943814044827097,base_link,-85000.0,446000.0,-242000.0,-1.0,0.0,0.0,0.0,0.0,0.0,0.0,0.0,0.0
1531943814166235062,2343,1531943814165577726,base_link,-91000.0,441000.0,-247000.0,-1.0,0.0,0.0,0.0,0.0,0.0,0.0,0.0,0.0
1531943814256497214,2344,1531943814255318701,base_link,-72000.0,439000.0,-254000.0,-1.0,0.0,0.0,0.0,0.0,0.0,0.0,0.0,0.0
1531943814349212166,2345,1531943814348370801,base_link,-69000.0,434000.0,-263000.0,-1.0,0.0,0.0,0.0,0.0,0.0,0.0,0.0,0.0
1531943814477673834,2346,1531943814476384666,base_link,-68000.0,426000.0,-277000.0,-1.0,0.0,0.0,0.0,0.0,0.0,0.0,0.0,0.0
1531943814561639137,2347,1531943814561211047,base_link,-81000.0,418000.0,-289000.0,-1.0,0.0,0.0,0.0,0.0,0.0,0.0,0.0,0.0
1531943814644698372,2348,1531943814644049420,base_link,-71000.0,413000.0,-299000.0,-1.0,0.0,0.0,0.0,0.0,0.0,0.0,0.0,0.0
1531943814775086607,2349,1531943814774476151,base_link,-80000.0,402000.0,-316000.0,-1.0,0.0,0.0,0.0,0.0,0.0,0.0,0.0,0.0
1531943814852345244,2350,1531943814850539859,base_link,-80000.0,402000.0,-316000.0,-1.0,0.0,0.0,0.0,0.0,0.0,0.0,0.0,0.0
1531943814966103226,2351,1531943814965549953,base_link,-36000.0,392000.0,-328000.0,-1.0,0.0,0.0,0.0,0.0,0.0,0.0,0.0,0.0
1531943815059398684,2352,1531943815058546375,base_link,-27000.0,369000.0,-347000.0,-1.0,0.0,0.0,0.0,0.0,0.0,0.0,0.0,0.0
1531943815153847698,2353,1531943815152411652,base_link,-27000.0,369000.0,-347000.0,-1.0,0.0,0.0,0.0,0.0,0.0,0.0,0.0,0.0
1531943815266505088,2354,1531943815264659128,base_link,-18000.0,352000.0,-365000.0,-1.0,0.0,0.0,0.0,0.0,0.0,0.0,0.0,0.0
1531943815369079663,2355,1531943815368594485,base_link,-40000.0,317000.0,-399000.0,-1.0,0.0,0.0,0.0,0.0,0.0,0.0,0.0,0.0
1531943815453826782,2356,1531943815453359012,base_link,-40000.0,317000.0,-399000.0,-1.0,0.0,0.0,0.0,0.0,0.0,0.0,0.0,0.0
1531943815551028401,2357,1531943815550379577,base_link,-42000.0,300000.0,-411000.0,-1.0,0.0,0.0,0.0,0.0,0.0,0.0,0.0,0.0
1531943815657679435,2358,1531943815656584697,base_link,-64000.0,278000.0,-426000.0,-1.0,0.0,0.0,0.0,0.0,0.0,0.0,0.0,0.0
1531943815771456940,2359,1531943815770824948,base_link,-70000.0,209000.0,-461000.0,-1.0,0.0,0.0,0.0,0.0,0.0,0.0,0.0,0.0
1531943815857181392,2360,1531943815855862752,base_link,-70000.0,209000.0,-461000.0,-1.0,0.0,0.0,0.0,0.0,0.0,0.0,0.0,0.0
1531943815974670433,2361,1531943815972964823,base_link,-80000.0,129000.0,-485000.0,-1.0,0.0,0.0,0.0,0.0,0.0,0.0,0.0,0.0
1531943816081779033,2362,1531943816079963439,base_link,-80000.0,129000.0,-485000.0,-1.0,0.0,0.0,0.0,0.0,0.0,0.0,0.0,0.0
1531943816163525905,2363,1531943816162648732,base_link,-87000.0,86000.0,-490000.0,-1.0,0.0,0.0,0.0,0.0,0.0,0.0,0.0,0.0
1531943816255671462,2364,1531943816251679352,base_link,-89000.0,38000.0,-494000.0,-1.0,0.0,0.0,0.0,0.0,0.0,0.0,0.0,0.0
1531943816373505751,2365,1531943816372716736,base_link,-83000.0,-45000.0,-488000.0,-1.0,0.0,0.0,0.0,0.0,0.0,0.0,0.0,0.0
1531943816457675024,2366,1531943816456311617,base_link,-83000.0,-45000.0,-488000.0,-1.0,0.0,0.0,0.0,0.0,0.0,0.0,0.0,0.0
1531943816556616879,2367,1531943816555306880,base_link,-76000.0,-80000.0,-480000.0,-1.0,0.0,0.0,0.0,0.0,0.0,0.0,0.0,0.0
1531943816646848637,2368,1531943816646348195,base_link,-65000.0,-105000.0,-474000.0,-1.0,0.0,0.0,0.0,0.0,0.0,0.0,0.0,0.0
1531943816765259302,2369,1531943816757001966,base_link,-54000.0,-131000.0,-468000.0,-1.0,0.0,0.0,0.0,0.0,0.0,0.0,0.0,0.0
1531943816836705600,2370,1531943816836176167,base_link,-31000.0,-159000.0,-457000.0,-1.0,0.0,0.0,0.0,0.0,0.0,0.0,0.0,0.0
1531943816990406476,2371,1531943816989376025,base_link,-7000.0,-178000.0,-449000.0,-1.0,0.0,0.0,0.0,0.0,0.0,0.0,0.0,0.0
1531943817052969080,2372,1531943817052380895,base_link,-7000.0,-178000.0,-449000.0,-1.0,0.0,0.0,0.0,0.0,0.0,0.0,0.0,0.0
1531943817155405550,2373,1531943817153630372,base_link,1000.0,-183000.0,-447000.0,-1.0,0.0,0.0,0.0,0.0,0.0,0.0,0.0,0.0
1531943817262961251,2374,1531943817259358352,base_link,15000.0,-192000.0,-441000.0,-1.0,0.0,0.0,0.0,0.0,0.0,0.0,0.0,0.0
1531943817377424353,2375,1531943817376357039,base_link,49000.0,-195000.0,-437000.0,-1.0,0.0,0.0,0.0,0.0,0.0,0.0,0.0,0.0
1531943817450128398,2376,1531943817447325937,base_link,49000.0,-195000.0,-437000.0,-1.0,0.0,0.0,0.0,0.0,0.0,0.0,0.0,0.0
1531943817572823012,2377,1531943817572214956,base_link,70000.0,-187000.0,-436000.0,-1.0,0.0,0.0,0.0,0.0,0.0,0.0,0.0,0.0
1531943817644341311,2378,1531943817642782547,base_link,70000.0,-187000.0,-436000.0,-1.0,0.0,0.0,0.0,0.0,0.0,0.0,0.0,0.0
1531943817764159226,2379,1531943817763680032,base_link,98000.0,-181000.0,-432000.0,-1.0,0.0,0.0,0.0,0.0,0.0,0.0,0.0,0.0
1531943817857607137,2380,1531943817856737324,base_link,98000.0,-181000.0,-432000.0,-1.0,0.0,0.0,0.0,0.0,0.0,0.0,0.0,0.0
1531943817956182952,2381,1531943817955524752,base_link,109000.0,-174000.0,-431000.0,-1.0,0.0,0.0,0.0,0.0,0.0,0.0,0.0,0.0
1531943818050149225,2382,1531943818049013944,base_link,123000.0,-161000.0,-436000.0,-1.0,0.0,0.0,0.0,0.0,0.0,0.0,0.0,0.0
1531943818154496746,2383,1531943818153861778,base_link,130000.0,-147000.0,-437000.0,-1.0,0.0,0.0,0.0,0.0,0.0,0.0,0.0,0.0
1531943818251005101,2384,1531943818250205943,base_link,140000.0,-132000.0,-439000.0,-1.0,0.0,0.0,0.0,0.0,0.0,0.0,0.0,0.0
1531943818376585090,2385,1531943818376046281,base_link,151000.0,-118000.0,-440000.0,-1.0,0.0,0.0,0.0,0.0,0.0,0.0,0.0,0.0
1531943818458201440,2386,1531943818455445539,base_link,157000.0,-108000.0,-443000.0,-1.0,0.0,0.0,0.0,0.0,0.0,0.0,0.0,0.0
1531943818575735931,2387,1531943818572256231,base_link,169000.0,-93000.0,-442000.0,-1.0,0.0,0.0,0.0,0.0,0.0,0.0,0.0,0.0
1531943818668465102,2388,1531943818667412795,base_link,171000.0,-87000.0,-441000.0,-1.0,0.0,0.0,0.0,0.0,0.0,0.0,0.0,0.0
1531943818768364838,2389,1531943818767410482,base_link,176000.0,-87000.0,-442000.0,-1.0,0.0,0.0,0.0,0.0,0.0,0.0,0.0,0.0
1531943818867071885,2390,1531943818863591801,base_link,176000.0,-87000.0,-442000.0,-1.0,0.0,0.0,0.0,0.0,0.0,0.0,0.0,0.0
1531943818963228437,2391,1531943818960618101,base_link,175000.0,-87000.0,-441000.0,-1.0,0.0,0.0,0.0,0.0,0.0,0.0,0.0,0.0
1531943819059685370,2392,1531943819058754149,base_link,172000.0,-83000.0,-442000.0,-1.0,0.0,0.0,0.0,0.0,0.0,0.0,0.0,0.0
1531943819144818670,2393,1531943819143928761,base_link,172000.0,-83000.0,-442000.0,-1.0,0.0,0.0,0.0,0.0,0.0,0.0,0.0,0.0
1531943819245818971,2394,1531943819245255170,base_link,175000.0,-82000.0,-442000.0,-1.0,0.0,0.0,0.0,0.0,0.0,0.0,0.0,0.0
1531943819370754972,2395,1531943819369596106,base_link,172000.0,-73000.0,-446000.0,-1.0,0.0,0.0,0.0,0.0,0.0,0.0,0.0,0.0
1531943819453572365,2396,1531943819452354268,base_link,172000.0,-73000.0,-446000.0,-1.0,0.0,0.0,0.0,0.0,0.0,0.0,0.0,0.0
1531943819556951068,2397,1531943819556154342,base_link,173000.0,-70000.0,-445000.0,-1.0,0.0,0.0,0.0,0.0,0.0,0.0,0.0,0.0
1531943819686724513,2398,1531943819686166184,base_link,163000.0,-69000.0,-447000.0,-1.0,0.0,0.0,0.0,0.0,0.0,0.0,0.0,0.0
1531943819773890715,2399,1531943819773146949,base_link,163000.0,-69000.0,-447000.0,-1.0,0.0,0.0,0.0,0.0,0.0,0.0,0.0,0.0
1531943819826276618,2400,1531943819825628434,base_link,159000.0,-68000.0,-451000.0,-1.0,0.0,0.0,0.0,0.0,0.0,0.0,0.0,0.0
1531943819972439041,2401,1531943819971602635,base_link,154000.0,-63000.0,-453000.0,-1.0,0.0,0.0,0.0,0.0,0.0,0.0,0.0,0.0
1531943820062860757,2402,1531943820060938509,base_link,146000.0,-59000.0,-456000.0,-1.0,0.0,0.0,0.0,0.0,0.0,0.0,0.0,0.0
1531943820152590674,2403,1531943820152079832,base_link,142000.0,-58000.0,-459000.0,-1.0,0.0,0.0,0.0,0.0,0.0,0.0,0.0,0.0
1531943820249562164,2404,1531943820247840074,base_link,137000.0,-63000.0,-461000.0,-1.0,0.0,0.0,0.0,0.0,0.0,0.0,0.0,0.0
1531943820375936327,2405,1531943820374963411,base_link,121000.0,-81000.0,-460000.0,-1.0,0.0,0.0,0.0,0.0,0.0,0.0,0.0,0.0
1531943820456616277,2406,1531943820455240711,base_link,121000.0,-81000.0,-460000.0,-1.0,0.0,0.0,0.0,0.0,0.0,0.0,0.0,0.0
1531943820543853778,2407,1531943820541078228,base_link,117000.0,-90000.0,-460000.0,-1.0,0.0,0.0,0.0,0.0,0.0,0.0,0.0,0.0
1531943820717136377,2408,1531943820715765547,base_link,108000.0,-101000.0,-461000.0,-1.0,0.0,0.0,0.0,0.0,0.0,0.0,0.0,0.0
1531943820783817591,2409,1531943820783272190,base_link,102000.0,-108000.0,-460000.0,-1.0,0.0,0.0,0.0,0.0,0.0,0.0,0.0,0.0
1531943820880428766,2410,1531943820877615393,base_link,99000.0,-110000.0,-459000.0,-1.0,0.0,0.0,0.0,0.0,0.0,0.0,0.0,0.0
1531943820988331640,2411,1531943820987726655,base_link,100000.0,-115000.0,-458000.0,-1.0,0.0,0.0,0.0,0.0,0.0,0.0,0.0,0.0
1531943821057541911,2412,1531943821055042710,base_link,100000.0,-115000.0,-458000.0,-1.0,0.0,0.0,0.0,0.0,0.0,0.0,0.0,0.0
1531943821159417311,2413,1531943821158652841,base_link,94000.0,-119000.0,-458000.0,-1.0,0.0,0.0,0.0,0.0,0.0,0.0,0.0,0.0
1531943821257785043,2414,1531943821257212346,base_link,93000.0,-125000.0,-456000.0,-1.0,0.0,0.0,0.0,0.0,0.0,0.0,0.0,0.0
1531943821364689628,2415,1531943821363094288,base_link,94000.0,-131000.0,-453000.0,-1.0,0.0,0.0,0.0,0.0,0.0,0.0,0.0,0.0
1531943821465962251,2416,1531943821465335507,base_link,96000.0,-137000.0,-452000.0,-1.0,0.0,0.0,0.0,0.0,0.0,0.0,0.0,0.0
1531943821555838953,2417,1531943821554873237,base_link,84000.0,-148000.0,-447000.0,-1.0,0.0,0.0,0.0,0.0,0.0,0.0,0.0,0.0
1531943821653756578,2418,1531943821653299464,base_link,98000.0,-159000.0,-444000.0,-1.0,0.0,0.0,0.0,0.0,0.0,0.0,0.0,0.0
1531943821728576412,2419,1531943821727964035,base_link,89000.0,-165000.0,-442000.0,-1.0,0.0,0.0,0.0,0.0,0.0,0.0,0.0,0.0
1531943821851621499,2420,1531943821850756134,base_link,98000.0,-169000.0,-441000.0,-1.0,0.0,0.0,0.0,0.0,0.0,0.0,0.0,0.0
1531943821972666676,2421,1531943821971963292,base_link,94000.0,-171000.0,-438000.0,-1.0,0.0,0.0,0.0,0.0,0.0,0.0,0.0,0.0
1531943822065384208,2422,1531943822064909717,base_link,96000.0,-173000.0,-439000.0,-1.0,0.0,0.0,0.0,0.0,0.0,0.0,0.0,0.0
1531943822141296510,2423,1531943822140271946,base_link,103000.0,-178000.0,-435000.0,-1.0,0.0,0.0,0.0,0.0,0.0,0.0,0.0,0.0
1531943822233490081,2424,1531943822232897096,base_link,113000.0,-181000.0,-433000.0,-1.0,0.0,0.0,0.0,0.0,0.0,0.0,0.0,0.0
1531943822366963233,2425,1531943822366381033,base_link,110000.0,-189000.0,-425000.0,-1.0,0.0,0.0,0.0,0.0,0.0,0.0,0.0,0.0
1531943822454537118,2426,1531943822453020241,base_link,119000.0,-207000.0,-413000.0,-1.0,0.0,0.0,0.0,0.0,0.0,0.0,0.0,0.0
1531943822557186303,2427,1531943822556663846,base_link,123000.0,-225000.0,-401000.0,-1.0,0.0,0.0,0.0,0.0,0.0,0.0,0.0,0.0
1531943822651453000,2428,1531943822649934843,base_link,126000.0,-241000.0,-390000.0,-1.0,0.0,0.0,0.0,0.0,0.0,0.0,0.0,0.0
1531943822754976510,2429,1531943822753594864,base_link,124000.0,-252000.0,-380000.0,-1.0,0.0,0.0,0.0,0.0,0.0,0.0,0.0,0.0
1531943822886013565,2430,1531943822885138216,base_link,116000.0,-264000.0,-371000.0,-1.0,0.0,0.0,0.0,0.0,0.0,0.0,0.0,0.0
1531943822963533783,2431,1531943822962375654,base_link,116000.0,-264000.0,-371000.0,-1.0,0.0,0.0,0.0,0.0,0.0,0.0,0.0,0.0
1531943823069672655,2432,1531943823068411134,base_link,102000.0,-267000.0,-369000.0,-1.0,0.0,0.0,0.0,0.0,0.0,0.0,0.0,0.0
1531943823174161755,2433,1531943823173598018,base_link,112000.0,-259000.0,-376000.0,-1.0,0.0,0.0,0.0,0.0,0.0,0.0,0.0,0.0
1531943823275270674,2434,1531943823274622330,base_link,115000.0,-249000.0,-380000.0,-1.0,0.0,0.0,0.0,0.0,0.0,0.0,0.0,0.0
1531943823361135462,2435,1531943823359919957,base_link,115000.0,-249000.0,-380000.0,-1.0,0.0,0.0,0.0,0.0,0.0,0.0,0.0,0.0
1531943823497886722,2436,1531943823497268361,base_link,143000.0,-235000.0,-386000.0,-1.0,0.0,0.0,0.0,0.0,0.0,0.0,0.0,0.0
1531943823553848714,2437,1531943823552635161,base_link,143000.0,-235000.0,-386000.0,-1.0,0.0,0.0,0.0,0.0,0.0,0.0,0.0,0.0
1531943823654841154,2438,1531943823648741710,base_link,141000.0,-228000.0,-390000.0,-1.0,0.0,0.0,0.0,0.0,0.0,0.0,0.0,0.0
1531943823749704998,2439,1531943823748958544,base_link,143000.0,-224000.0,-395000.0,-1.0,0.0,0.0,0.0,0.0,0.0,0.0,0.0,0.0
1531943823840110306,2440,1531943823839312972,base_link,142000.0,-223000.0,-396000.0,-1.0,0.0,0.0,0.0,0.0,0.0,0.0,0.0,0.0
1531943824013327288,2441,1531943824011300082,base_link,115000.0,-219000.0,-407000.0,-1.0,0.0,0.0,0.0,0.0,0.0,0.0,0.0,0.0
1531943824065902828,2442,1531943824063691399,base_link,98000.0,-220000.0,-409000.0,-1.0,0.0,0.0,0.0,0.0,0.0,0.0,0.0,0.0
1531943824142614196,2443,1531943824142040571,base_link,98000.0,-220000.0,-409000.0,-1.0,0.0,0.0,0.0,0.0,0.0,0.0,0.0,0.0
1531943824251520396,2444,1531943824249245288,base_link,86000.0,-216000.0,-416000.0,-1.0,0.0,0.0,0.0,0.0,0.0,0.0,0.0,0.0
1531943824375406186,2445,1531943824371709400,base_link,78000.0,-212000.0,-422000.0,-1.0,0.0,0.0,0.0,0.0,0.0,0.0,0.0,0.0
1531943824486831619,2446,1531943824486066284,base_link,55000.0,-205000.0,-430000.0,-1.0,0.0,0.0,0.0,0.0,0.0,0.0,0.0,0.0
1531943824557431254,2447,1531943824556784351,base_link,55000.0,-205000.0,-430000.0,-1.0,0.0,0.0,0.0,0.0,0.0,0.0,0.0,0.0
1531943824650660337,2448,1531943824650136696,base_link,59000.0,-207000.0,-430000.0,-1.0,0.0,0.0,0.0,0.0,0.0,0.0,0.0,0.0
1531943824757483779,2449,1531943824756707309,base_link,43000.0,-213000.0,-430000.0,-1.0,0.0,0.0,0.0,0.0,0.0,0.0,0.0,0.0
1531943824877723791,2450,1531943824877009592,base_link,19000.0,-212000.0,-432000.0,-1.0,0.0,0.0,0.0,0.0,0.0,0.0,0.0,0.0
1531943824968690566,2451,1531943824965972903,base_link,-10000.0,-199000.0,-445000.0,-1.0,0.0,0.0,0.0,0.0,0.0,0.0,0.0,0.0
1531943825052185754,2452,1531943825050055893,base_link,-10000.0,-199000.0,-445000.0,-1.0,0.0,0.0,0.0,0.0,0.0,0.0,0.0,0.0
1531943825145621141,2453,1531943825143913482,base_link,-23000.0,-194000.0,-447000.0,-1.0,0.0,0.0,0.0,0.0,0.0,0.0,0.0,0.0
1531943825244084465,2454,1531943825242914272,base_link,-37000.0,-187000.0,-451000.0,-1.0,0.0,0.0,0.0,0.0,0.0,0.0,0.0,0.0
1531943825358681030,2455,1531943825358230540,base_link,-38000.0,-176000.0,-457000.0,-1.0,0.0,0.0,0.0,0.0,0.0,0.0,0.0,0.0
1531943825451719302,2456,1531943825450990383,base_link,-38000.0,-160000.0,-466000.0,-1.0,0.0,0.0,0.0,0.0,0.0,0.0,0.0,0.0
1531943825549909797,2457,1531943825549068208,base_link,-69000.0,-127000.0,-475000.0,-1.0,0.0,0.0,0.0,0.0,0.0,0.0,0.0,0.0
1531943825651789847,2458,1531943825649021722,base_link,-91000.0,-112000.0,-476000.0,-1.0,0.0,0.0,0.0,0.0,0.0,0.0,0.0,0.0
1531943825743918562,2459,1531943825741052870,base_link,-91000.0,-112000.0,-476000.0,-1.0,0.0,0.0,0.0,0.0,0.0,0.0,0.0,0.0
1531943825857893726,2460,1531943825857139880,base_link,-100000.0,-96000.0,-480000.0,-1.0,0.0,0.0,0.0,0.0,0.0,0.0,0.0,0.0
1531943825966397598,2461,1531943825965759334,base_link,-114000.0,-77000.0,-482000.0,-1.0,0.0,0.0,0.0,0.0,0.0,0.0,0.0,0.0
1531943826068562351,2462,1531943826067541051,base_link,-123000.0,-58000.0,-485000.0,-1.0,0.0,0.0,0.0,0.0,0.0,0.0,0.0,0.0
1531943826157494595,2463,1531943826156942506,base_link,-145000.0,-11000.0,-487000.0,-1.0,0.0,0.0,0.0,0.0,0.0,0.0,0.0,0.0
1531943826281149675,2464,1531943826280113496,base_link,-149000.0,15000.0,-487000.0,-1.0,0.0,0.0,0.0,0.0,0.0,0.0,0.0,0.0
1531943826394680272,2465,1531943826393829370,base_link,-155000.0,44000.0,-487000.0,-1.0,0.0,0.0,0.0,0.0,0.0,0.0,0.0,0.0
1531943826450244961,2466,1531943826449719207,base_link,-155000.0,44000.0,-487000.0,-1.0,0.0,0.0,0.0,0.0,0.0,0.0,0.0,0.0
1531943826558696004,2467,1531943826558143755,base_link,-154000.0,75000.0,-485000.0,-1.0,0.0,0.0,0.0,0.0,0.0,0.0,0.0,0.0
1531943826682083151,2468,1531943826680726944,base_link,-166000.0,129000.0,-476000.0,-1.0,0.0,0.0,0.0,0.0,0.0,0.0,0.0,0.0
1531943826779263230,2469,1531943826778625478,base_link,-166000.0,129000.0,-476000.0,-1.0,0.0,0.0,0.0,0.0,0.0,0.0,0.0,0.0
1531943826888315546,2470,1531943826886840748,base_link,-178000.0,171000.0,-464000.0,-1.0,0.0,0.0,0.0,0.0,0.0,0.0,0.0,0.0
1531943826989722836,2471,1531943826989166363,base_link,-173000.0,188000.0,-458000.0,-1.0,0.0,0.0,0.0,0.0,0.0,0.0,0.0,0.0
1531943827060374541,2472,1531943827058385733,base_link,-173000.0,188000.0,-458000.0,-1.0,0.0,0.0,0.0,0.0,0.0,0.0,0.0,0.0
1531943827194269177,2473,1531943827193061832,base_link,-176000.0,220000.0,-447000.0,-1.0,0.0,0.0,0.0,0.0,0.0,0.0,0.0,0.0
1531943827243750295,2474,1531943827242626981,base_link,-176000.0,220000.0,-447000.0,-1.0,0.0,0.0,0.0,0.0,0.0,0.0,0.0,0.0
1531943827355706802,2475,1531943827355018682,base_link,-182000.0,229000.0,-442000.0,-1.0,0.0,0.0,0.0,0.0,0.0,0.0,0.0,0.0
1531943827458986968,2476,1531943827457065104,base_link,-187000.0,236000.0,-441000.0,-1.0,0.0,0.0,0.0,0.0,0.0,0.0,0.0,0.0
1531943827578392503,2477,1531943827577815134,base_link,-179000.0,251000.0,-433000.0,-1.0,0.0,0.0,0.0,0.0,0.0,0.0,0.0,0.0
1531943827628347503,2478,1531943827626790786,base_link,-179000.0,251000.0,-433000.0,-1.0,0.0,0.0,0.0,0.0,0.0,0.0,0.0,0.0
1531943827758895365,2479,1531943827758208013,base_link,-183000.0,259000.0,-429000.0,-1.0,0.0,0.0,0.0,0.0,0.0,0.0,0.0,0.0
1531943827832778421,2480,1531943827832009727,base_link,-171000.0,263000.0,-429000.0,-1.0,0.0,0.0,0.0,0.0,0.0,0.0,0.0,0.0
1531943827973157074,2481,1531943827972515194,base_link,-151000.0,269000.0,-428000.0,-1.0,0.0,0.0,0.0,0.0,0.0,0.0,0.0,0.0
1531943828060093923,2482,1531943828059400459,base_link,-151000.0,269000.0,-428000.0,-1.0,0.0,0.0,0.0,0.0,0.0,0.0,0.0,0.0
1531943828208305186,2483,1531943828207429133,base_link,-147000.0,276000.0,-427000.0,-1.0,0.0,0.0,0.0,0.0,0.0,0.0,0.0,0.0
1531943828286139268,2484,1531943828285054417,base_link,-154000.0,282000.0,-423000.0,-1.0,0.0,0.0,0.0,0.0,0.0,0.0,0.0,0.0
1531943828374431237,2485,1531943828373716237,base_link,-146000.0,293000.0,-418000.0,-1.0,0.0,0.0,0.0,0.0,0.0,0.0,0.0,0.0
1531943828467413132,2486,1531943828464496528,base_link,-146000.0,293000.0,-418000.0,-1.0,0.0,0.0,0.0,0.0,0.0,0.0,0.0,0.0
1531943828551396194,2487,1531943828550751946,base_link,-126000.0,301000.0,-413000.0,-1.0,0.0,0.0,0.0,0.0,0.0,0.0,0.0,0.0
1531943828651163189,2488,1531943828650479774,base_link,-124000.0,301000.0,-415000.0,-1.0,0.0,0.0,0.0,0.0,0.0,0.0,0.0,0.0
1531943828798330625,2489,1531943828797048209,base_link,-110000.0,277000.0,-430000.0,-1.0,0.0,0.0,0.0,0.0,0.0,0.0,0.0,0.0
1531943828861097885,2490,1531943828858978551,base_link,-110000.0,277000.0,-430000.0,-1.0,0.0,0.0,0.0,0.0,0.0,0.0,0.0,0.0
1531943828950301458,2491,1531943828949591451,base_link,-107000.0,266000.0,-438000.0,-1.0,0.0,0.0,0.0,0.0,0.0,0.0,0.0,0.0
1531943829031894311,2492,1531943829031233615,base_link,-114000.0,254000.0,-445000.0,-1.0,0.0,0.0,0.0,0.0,0.0,0.0,0.0,0.0
1531943829149166150,2493,1531943829144086020,base_link,-107000.0,244000.0,-450000.0,-1.0,0.0,0.0,0.0,0.0,0.0,0.0,0.0,0.0
1531943829276279468,2494,1531943829267913523,base_link,-100000.0,231000.0,-459000.0,-1.0,0.0,0.0,0.0,0.0,0.0,0.0,0.0,0.0
1531943829357326056,2495,1531943829356645713,base_link,-94000.0,216000.0,-465000.0,-1.0,0.0,0.0,0.0,0.0,0.0,0.0,0.0,0.0
1531943829452629301,2496,1531943829451648385,base_link,-83000.0,202000.0,-471000.0,-1.0,0.0,0.0,0.0,0.0,0.0,0.0,0.0,0.0
1531943829551526326,2497,1531943829550724384,base_link,-88000.0,192000.0,-471000.0,-1.0,0.0,0.0,0.0,0.0,0.0,0.0,0.0,0.0
1531943829641897024,2498,1531943829639473342,base_link,-70000.0,185000.0,-478000.0,-1.0,0.0,0.0,0.0,0.0,0.0,0.0,0.0,0.0
1531943829760828747,2499,1531943829760071348,base_link,-77000.0,175000.0,-477000.0,-1.0,0.0,0.0,0.0,0.0,0.0,0.0,0.0,0.0
1531943829849791750,2500,1531943829848439862,base_link,-67000.0,168000.0,-482000.0,-1.0,0.0,0.0,0.0,0.0,0.0,0.0,0.0,0.0
1531943829974479210,2501,1531943829973845394,base_link,-70000.0,159000.0,-485000.0,-1.0,0.0,0.0,0.0,0.0,0.0,0.0,0.0,0.0
1531943830048483646,2502,1531943830045834654,base_link,-70000.0,159000.0,-485000.0,-1.0,0.0,0.0,0.0,0.0,0.0,0.0,0.0,0.0
1531943830171252765,2503,1531943830170088203,base_link,-75000.0,144000.0,-488000.0,-1.0,0.0,0.0,0.0,0.0,0.0,0.0,0.0,0.0
1531943830242738000,2504,1531943830242196951,base_link,-82000.0,135000.0,-488000.0,-1.0,0.0,0.0,0.0,0.0,0.0,0.0,0.0,0.0
1531943830363283658,2505,1531943830362743313,base_link,-79000.0,141000.0,-487000.0,-1.0,0.0,0.0,0.0,0.0,0.0,0.0,0.0,0.0
1531943830485794188,2506,1531943830483136909,base_link,-83000.0,143000.0,-484000.0,-1.0,0.0,0.0,0.0,0.0,0.0,0.0,0.0,0.0
1531943830582621097,2507,1531943830579500463,base_link,-93000.0,141000.0,-482000.0,-1.0,0.0,0.0,0.0,0.0,0.0,0.0,0.0,0.0
1531943830666264744,2508,1531943830665714222,base_link,-93000.0,141000.0,-482000.0,-1.0,0.0,0.0,0.0,0.0,0.0,0.0,0.0,0.0
1531943830759268659,2509,1531943830757353131,base_link,-101000.0,137000.0,-484000.0,-1.0,0.0,0.0,0.0,0.0,0.0,0.0,0.0,0.0
1531943830858574962,2510,1531943830858043192,base_link,-101000.0,137000.0,-484000.0,-1.0,0.0,0.0,0.0,0.0,0.0,0.0,0.0,0.0
1531943830950650089,2511,1531943830950104272,base_link,-109000.0,136000.0,-484000.0,-1.0,0.0,0.0,0.0,0.0,0.0,0.0,0.0,0.0
1531943831059170776,2512,1531943831056875220,base_link,-110000.0,130000.0,-488000.0,-1.0,0.0,0.0,0.0,0.0,0.0,0.0,0.0,0.0
1531943831185601773,2513,1531943831182744016,base_link,-124000.0,122000.0,-488000.0,-1.0,0.0,0.0,0.0,0.0,0.0,0.0,0.0,0.0
1531943831259550244,2514,1531943831258639375,base_link,-124000.0,122000.0,-488000.0,-1.0,0.0,0.0,0.0,0.0,0.0,0.0,0.0,0.0
1531943831353442151,2515,1531943831352651088,base_link,-131000.0,129000.0,-485000.0,-1.0,0.0,0.0,0.0,0.0,0.0,0.0,0.0,0.0
1531943831457092978,2516,1531943831454410451,base_link,-130000.0,139000.0,-485000.0,-1.0,0.0,0.0,0.0,0.0,0.0,0.0,0.0,0.0
1531943831574036763,2517,1531943831572913321,base_link,-133000.0,178000.0,-472000.0,-1.0,0.0,0.0,0.0,0.0,0.0,0.0,0.0,0.0
1531943831665745753,2518,1531943831663202328,base_link,-133000.0,178000.0,-472000.0,-1.0,0.0,0.0,0.0,0.0,0.0,0.0,0.0,0.0
1531943831777493121,2519,1531943831775224605,base_link,-133000.0,211000.0,-459000.0,-1.0,0.0,0.0,0.0,0.0,0.0,0.0,0.0,0.0
1531943831874480798,2520,1531943831873878470,base_link,-133000.0,211000.0,-459000.0,-1.0,0.0,0.0,0.0,0.0,0.0,0.0,0.0,0.0
1531943831952160104,2521,1531943831949357610,base_link,-126000.0,217000.0,-457000.0,-1.0,0.0,0.0,0.0,0.0,0.0,0.0,0.0,0.0
1531943832069680651,2522,1531943832068964660,base_link,-129000.0,218000.0,-457000.0,-1.0,0.0,0.0,0.0,0.0,0.0,0.0,0.0,0.0
1531943832176084952,2523,1531943832172159944,base_link,-125000.0,217000.0,-458000.0,-1.0,0.0,0.0,0.0,0.0,0.0,0.0,0.0,0.0
1531943832259685755,2524,1531943832258936132,base_link,-127000.0,211000.0,-461000.0,-1.0,0.0,0.0,0.0,0.0,0.0,0.0,0.0,0.0
1531943832378584559,2525,1531943832377562268,base_link,-117000.0,202000.0,-463000.0,-1.0,0.0,0.0,0.0,0.0,0.0,0.0,0.0,0.0
1531943832455665218,2526,1531943832454680622,base_link,-117000.0,202000.0,-463000.0,-1.0,0.0,0.0,0.0,0.0,0.0,0.0,0.0,0.0
1531943832550337374,2527,1531943832547687646,base_link,-128000.0,201000.0,-464000.0,-1.0,0.0,0.0,0.0,0.0,0.0,0.0,0.0,0.0
1531943832649943837,2528,1531943832648776204,base_link,-118000.0,199000.0,-466000.0,-1.0,0.0,0.0,0.0,0.0,0.0,0.0,0.0,0.0
1531943832759239655,2529,1531943832758388881,base_link,-122000.0,193000.0,-467000.0,-1.0,0.0,0.0,0.0,0.0,0.0,0.0,0.0,0.0
1531943832852491380,2530,1531943832851617471,base_link,-118000.0,192000.0,-468000.0,-1.0,0.0,0.0,0.0,0.0,0.0,0.0,0.0,0.0
1531943832954144763,2531,1531943832949082040,base_link,-113000.0,194000.0,-466000.0,-1.0,0.0,0.0,0.0,0.0,0.0,0.0,0.0,0.0
1531943833056199773,2532,1531943833055014156,base_link,-121000.0,198000.0,-465000.0,-1.0,0.0,0.0,0.0,0.0,0.0,0.0,0.0,0.0
1531943833165214509,2533,1531943833164846481,base_link,-130000.0,202000.0,-460000.0,-1.0,0.0,0.0,0.0,0.0,0.0,0.0,0.0,0.0
1531943833256005018,2534,1531943833252948607,base_link,-130000.0,202000.0,-460000.0,-1.0,0.0,0.0,0.0,0.0,0.0,0.0,0.0,0.0
1531943833354253932,2535,1531943833353519349,base_link,-115000.0,203000.0,-462000.0,-1.0,0.0,0.0,0.0,0.0,0.0,0.0,0.0,0.0
1531943833444791613,2536,1531943833443256848,base_link,-116000.0,198000.0,-463000.0,-1.0,0.0,0.0,0.0,0.0,0.0,0.0,0.0,0.0
1531943833570471265,2537,1531943833569695594,base_link,-106000.0,196000.0,-464000.0,-1.0,0.0,0.0,0.0,0.0,0.0,0.0,0.0,0.0
1531943833713352051,2538,1531943833712654364,base_link,-102000.0,199000.0,-464000.0,-1.0,0.0,0.0,0.0,0.0,0.0,0.0,0.0,0.0
1531943833772008872,2539,1531943833770921782,base_link,-95000.0,208000.0,-463000.0,-1.0,0.0,0.0,0.0,0.0,0.0,0.0,0.0,0.0
1531943833847709742,2540,1531943833847134005,base_link,-95000.0,208000.0,-463000.0,-1.0,0.0,0.0,0.0,0.0,0.0,0.0,0.0,0.0
1531943833957192439,2541,1531943833956008869,base_link,-102000.0,219000.0,-456000.0,-1.0,0.0,0.0,0.0,0.0,0.0,0.0,0.0,0.0
1531943834055674952,2542,1531943834054755507,base_link,-90000.0,232000.0,-452000.0,-1.0,0.0,0.0,0.0,0.0,0.0,0.0,0.0,0.0
1531943834195207654,2543,1531943834194164147,base_link,-98000.0,232000.0,-450000.0,-1.0,0.0,0.0,0.0,0.0,0.0,0.0,0.0,0.0
1531943834290501855,2544,1531943834287426372,base_link,-89000.0,232000.0,-450000.0,-1.0,0.0,0.0,0.0,0.0,0.0,0.0,0.0,0.0
1531943834349465681,2545,1531943834348751674,base_link,-89000.0,232000.0,-450000.0,-1.0,0.0,0.0,0.0,0.0,0.0,0.0,0.0,0.0
1531943834474737597,2546,1531943834472559032,base_link,-95000.0,232000.0,-450000.0,-1.0,0.0,0.0,0.0,0.0,0.0,0.0,0.0,0.0
1531943834582623420,2547,1531943834581968036,base_link,-104000.0,225000.0,-452000.0,-1.0,0.0,0.0,0.0,0.0,0.0,0.0,0.0,0.0
1531943834666035654,2548,1531943834665346446,base_link,-92000.0,183000.0,-470000.0,-1.0,0.0,0.0,0.0,0.0,0.0,0.0,0.0,0.0
1531943834779116742,2549,1531943834778650155,base_link,-96000.0,168000.0,-472000.0,-1.0,0.0,0.0,0.0,0.0,0.0,0.0,0.0,0.0
1531943834842503490,2550,1531943834839155787,base_link,-96000.0,168000.0,-472000.0,-1.0,0.0,0.0,0.0,0.0,0.0,0.0,0.0,0.0
1531943834958401088,2551,1531943834957169103,base_link,-105000.0,170000.0,-472000.0,-1.0,0.0,0.0,0.0,0.0,0.0,0.0,0.0,0.0
1531943835054693166,2552,1531943835053386174,base_link,-96000.0,173000.0,-473000.0,-1.0,0.0,0.0,0.0,0.0,0.0,0.0,0.0,0.0
1531943835175763856,2553,1531943835172332186,base_link,-97000.0,174000.0,-474000.0,-1.0,0.0,0.0,0.0,0.0,0.0,0.0,0.0,0.0
1531943835254636947,2554,1531943835253556128,base_link,-97000.0,174000.0,-474000.0,-1.0,0.0,0.0,0.0,0.0,0.0,0.0,0.0,0.0
1531943835405638313,2555,1531943835402637070,base_link,-93000.0,182000.0,-473000.0,-1.0,0.0,0.0,0.0,0.0,0.0,0.0,0.0,0.0
1531943835443779674,2556,1531943835440616385,base_link,-93000.0,182000.0,-473000.0,-1.0,0.0,0.0,0.0,0.0,0.0,0.0,0.0,0.0
1531943835556271525,2557,1531943835554389787,base_link,-94000.0,193000.0,-469000.0,-1.0,0.0,0.0,0.0,0.0,0.0,0.0,0.0,0.0
1531943835677337479,2558,1531943835675401950,base_link,-91000.0,234000.0,-452000.0,-1.0,0.0,0.0,0.0,0.0,0.0,0.0,0.0,0.0
1531943835781983376,2559,1531943835781268633,base_link,-91000.0,234000.0,-452000.0,-1.0,0.0,0.0,0.0,0.0,0.0,0.0,0.0,0.0
1531943835856370441,2560,1531943835854960634,base_link,-102000.0,198000.0,-467000.0,-1.0,0.0,0.0,0.0,0.0,0.0,0.0,0.0,0.0
1531943835972521511,2561,1531943835964204780,base_link,-102000.0,198000.0,-467000.0,-1.0,0.0,0.0,0.0,0.0,0.0,0.0,0.0,0.0
1531943836053611344,2562,1531943836052712250,base_link,-91000.0,188000.0,-472000.0,-1.0,0.0,0.0,0.0,0.0,0.0,0.0,0.0,0.0
1531943836155755834,2563,1531943836154920900,base_link,-94000.0,193000.0,-473000.0,-1.0,0.0,0.0,0.0,0.0,0.0,0.0,0.0,0.0
1531943836294778725,2564,1531943836294018862,base_link,-114000.0,213000.0,-464000.0,-1.0,0.0,0.0,0.0,0.0,0.0,0.0,0.0,0.0
1531943836378006612,2565,1531943836377159039,base_link,-114000.0,213000.0,-464000.0,-1.0,0.0,0.0,0.0,0.0,0.0,0.0,0.0,0.0
1531943836486395699,2566,1531943836484326572,base_link,-96000.0,223000.0,-460000.0,-1.0,0.0,0.0,0.0,0.0,0.0,0.0,0.0,0.0
1531943836558753062,2567,1531943836557957072,base_link,-96000.0,223000.0,-460000.0,-1.0,0.0,0.0,0.0,0.0,0.0,0.0,0.0,0.0
1531943836673645686,2568,1531943836672888383,base_link,-96000.0,205000.0,-468000.0,-1.0,0.0,0.0,0.0,0.0,0.0,0.0,0.0,0.0
1531943836802312830,2569,1531943836801647718,base_link,-86000.0,203000.0,-470000.0,-1.0,0.0,0.0,0.0,0.0,0.0,0.0,0.0,0.0
1531943836851689352,2570,1531943836849535170,base_link,-86000.0,203000.0,-470000.0,-1.0,0.0,0.0,0.0,0.0,0.0,0.0,0.0,0.0
1531943836951245042,2571,1531943836950615961,base_link,-88000.0,212000.0,-465000.0,-1.0,0.0,0.0,0.0,0.0,0.0,0.0,0.0,0.0
1531943837051595187,2572,1531943837050793660,base_link,-89000.0,228000.0,-456000.0,-1.0,0.0,0.0,0.0,0.0,0.0,0.0,0.0,0.0
1531943837163186925,2573,1531943837159564505,base_link,-89000.0,228000.0,-456000.0,-1.0,0.0,0.0,0.0,0.0,0.0,0.0,0.0,0.0
1531943837311931526,2574,1531943837309977245,base_link,-93000.0,238000.0,-450000.0,-1.0,0.0,0.0,0.0,0.0,0.0,0.0,0.0,0.0
1531943837362322308,2575,1531943837358889710,base_link,-93000.0,238000.0,-450000.0,-1.0,0.0,0.0,0.0,0.0,0.0,0.0,0.0,0.0
1531943837444352004,2576,1531943837442040448,base_link,-100000.0,236000.0,-449000.0,-1.0,0.0,0.0,0.0,0.0,0.0,0.0,0.0,0.0
1531943837559285237,2577,1531943837557707785,base_link,-98000.0,230000.0,-452000.0,-1.0,0.0,0.0,0.0,0.0,0.0,0.0,0.0,0.0
1531943837667580312,2578,1531943837666619043,base_link,-98000.0,218000.0,-457000.0,-1.0,0.0,0.0,0.0,0.0,0.0,0.0,0.0,0.0
1531943837756930079,2579,1531943837755775085,base_link,-98000.0,218000.0,-457000.0,-1.0,0.0,0.0,0.0,0.0,0.0,0.0,0.0,0.0
1531943837839752885,2580,1531943837838057609,base_link,-102000.0,216000.0,-456000.0,-1.0,0.0,0.0,0.0,0.0,0.0,0.0,0.0,0.0
1531943837980631405,2581,1531943837974079420,base_link,-114000.0,216000.0,-458000.0,-1.0,0.0,0.0,0.0,0.0,0.0,0.0,0.0,0.0
1531943838086713004,2582,1531943838084642021,base_link,-104000.0,214000.0,-458000.0,-1.0,0.0,0.0,0.0,0.0,0.0,0.0,0.0,0.0
1531943838156062662,2583,1531943838154689399,base_link,-104000.0,214000.0,-458000.0,-1.0,0.0,0.0,0.0,0.0,0.0,0.0,0.0,0.0
1531943838235099980,2584,1531943838234422516,base_link,-114000.0,210000.0,-459000.0,-1.0,0.0,0.0,0.0,0.0,0.0,0.0,0.0,0.0
1531943838376756606,2585,1531943838376279811,base_link,-110000.0,204000.0,-462000.0,-1.0,0.0,0.0,0.0,0.0,0.0,0.0,0.0,0.0
1531943838454893966,2586,1531943838453938074,base_link,-112000.0,200000.0,-463000.0,-1.0,0.0,0.0,0.0,0.0,0.0,0.0,0.0,0.0
1531943838556195623,2587,1531943838555497776,base_link,-106000.0,194000.0,-465000.0,-1.0,0.0,0.0,0.0,0.0,0.0,0.0,0.0,0.0
1531943838655185340,2588,1531943838654464805,base_link,-109000.0,187000.0,-469000.0,-1.0,0.0,0.0,0.0,0.0,0.0,0.0,0.0,0.0
1531943838774590682,2589,1531943838773998273,base_link,-112000.0,175000.0,-474000.0,-1.0,0.0,0.0,0.0,0.0,0.0,0.0,0.0,0.0
1531943838851705335,2590,1531943838850165258,base_link,-112000.0,175000.0,-474000.0,-1.0,0.0,0.0,0.0,0.0,0.0,0.0,0.0,0.0
1531943838990855911,2591,1531943838990273390,base_link,-121000.0,168000.0,-476000.0,-1.0,0.0,0.0,0.0,0.0,0.0,0.0,0.0,0.0
1531943839052354850,2592,1531943839051770185,base_link,-121000.0,168000.0,-476000.0,-1.0,0.0,0.0,0.0,0.0,0.0,0.0,0.0,0.0
1531943839163217098,2593,1531943839156803319,base_link,-136000.0,165000.0,-475000.0,-1.0,0.0,0.0,0.0,0.0,0.0,0.0,0.0,0.0
1531943839249157950,2594,1531943839248402375,base_link,-130000.0,163000.0,-477000.0,-1.0,0.0,0.0,0.0,0.0,0.0,0.0,0.0,0.0
1531943839378080940,2595,1531943839376819163,base_link,-126000.0,161000.0,-477000.0,-1.0,0.0,0.0,0.0,0.0,0.0,0.0,0.0,0.0
1531943839452154864,2596,1531943839451286330,base_link,-126000.0,158000.0,-480000.0,-1.0,0.0,0.0,0.0,0.0,0.0,0.0,0.0,0.0
1531943839588505156,2597,1531943839587615919,base_link,-106000.0,152000.0,-478000.0,-1.0,0.0,0.0,0.0,0.0,0.0,0.0,0.0,0.0
1531943839655982007,2598,1531943839655073122,base_link,-106000.0,152000.0,-478000.0,-1.0,0.0,0.0,0.0,0.0,0.0,0.0,0.0,0.0
1531943839752483468,2599,1531943839751773941,base_link,-114000.0,147000.0,-481000.0,-1.0,0.0,0.0,0.0,0.0,0.0,0.0,0.0,0.0
1531943839853961637,2600,1531943839852168219,base_link,-114000.0,147000.0,-481000.0,-1.0,0.0,0.0,0.0,0.0,0.0,0.0,0.0,0.0
1531943839950362011,2601,1531943839949392231,base_link,-108000.0,131000.0,-484000.0,-1.0,0.0,0.0,0.0,0.0,0.0,0.0,0.0,0.0
1531943840050720547,2602,1531943840050104618,base_link,-108000.0,123000.0,-486000.0,-1.0,0.0,0.0,0.0,0.0,0.0,0.0,0.0,0.0
1531943840199313992,2603,1531943840191125290,base_link,-108000.0,115000.0,-488000.0,-1.0,0.0,0.0,0.0,0.0,0.0,0.0,0.0,0.0
1531943840284801923,2604,1531943840283321397,base_link,-109000.0,105000.0,-490000.0,-1.0,0.0,0.0,0.0,0.0,0.0,0.0,0.0,0.0
1531943840351812285,2605,1531943840350337295,base_link,-109000.0,105000.0,-490000.0,-1.0,0.0,0.0,0.0,0.0,0.0,0.0,0.0,0.0
1531943840476909116,2606,1531943840475949640,base_link,-119000.0,85000.0,-492000.0,-1.0,0.0,0.0,0.0,0.0,0.0,0.0,0.0,0.0
1531943840553195751,2607,1531943840552630605,base_link,-115000.0,61000.0,-494000.0,-1.0,0.0,0.0,0.0,0.0,0.0,0.0,0.0,0.0
1531943840716948725,2608,1531943840715781155,base_link,-121000.0,25000.0,-495000.0,-1.0,0.0,0.0,0.0,0.0,0.0,0.0,0.0,0.0
1531943840775725426,2609,1531943840774521696,base_link,-135000.0,17000.0,-494000.0,-1.0,0.0,0.0,0.0,0.0,0.0,0.0,0.0,0.0
1531943840909808965,2610,1531943840908940783,base_link,-143000.0,9000.0,-493000.0,-1.0,0.0,0.0,0.0,0.0,0.0,0.0,0.0,0.0
1531943840946785224,2611,1531943840946226831,base_link,-143000.0,9000.0,-493000.0,-1.0,0.0,0.0,0.0,0.0,0.0,0.0,0.0,0.0
1531943841043259649,2612,1531943841039532365,base_link,-136000.0,-6.01301578381e-11,-491000.0,-1.0,0.0,0.0,0.0,0.0,0.0,0.0,0.0,0.0
1531943841145566612,2613,1531943841143195153,base_link,-149000.0,-7000.0,-490000.0,-1.0,0.0,0.0,0.0,0.0,0.0,0.0,0.0,0.0
1531943841272340706,2614,1531943841271299439,base_link,-146000.0,-25000.0,-488000.0,-1.0,0.0,0.0,0.0,0.0,0.0,0.0,0.0,0.0
1531943841344830588,2615,1531943841344340610,base_link,-146000.0,-25000.0,-488000.0,-1.0,0.0,0.0,0.0,0.0,0.0,0.0,0.0,0.0
1531943841450860835,2616,1531943841450141099,base_link,-144000.0,-37000.0,-486000.0,-1.0,0.0,0.0,0.0,0.0,0.0,0.0,0.0,0.0
1531943841565505282,2617,1531943841561065847,base_link,-138000.0,-49000.0,-485000.0,-1.0,0.0,0.0,0.0,0.0,0.0,0.0,0.0,0.0
1531943841657345043,2618,1531943841656461374,base_link,-147000.0,-59000.0,-483000.0,-1.0,0.0,0.0,0.0,0.0,0.0,0.0,0.0,0.0
1531943841758370390,2619,1531943841757723390,base_link,-151000.0,-73000.0,-477000.0,-1.0,0.0,0.0,0.0,0.0,0.0,0.0,0.0,0.0
1531943841875826260,2620,1531943841874717601,base_link,-161000.0,-99000.0,-468000.0,-1.0,0.0,0.0,0.0,0.0,0.0,0.0,0.0,0.0
1531943841958229463,2621,1531943841957374401,base_link,-161000.0,-99000.0,-468000.0,-1.0,0.0,0.0,0.0,0.0,0.0,0.0,0.0,0.0
1531943842070274007,2622,1531943842069741117,base_link,-171000.0,-114000.0,-461000.0,-1.0,0.0,0.0,0.0,0.0,0.0,0.0,0.0,0.0
1531943842174172474,2623,1531943842172845354,base_link,-185000.0,-133000.0,-449000.0,-1.0,0.0,0.0,0.0,0.0,0.0,0.0,0.0,0.0
1531943842270657942,2624,1531943842270028957,base_link,-185000.0,-133000.0,-449000.0,-1.0,0.0,0.0,0.0,0.0,0.0,0.0,0.0,0.0
1531943842368011239,2625,1531943842367297295,base_link,-196000.0,-141000.0,-438000.0,-1.0,0.0,0.0,0.0,0.0,0.0,0.0,0.0,0.0
1531943842516109912,2626,1531943842514440492,base_link,-197000.0,-172000.0,-423000.0,-1.0,0.0,0.0,0.0,0.0,0.0,0.0,0.0,0.0
1531943842585337338,2627,1531943842583734221,base_link,-202000.0,-175000.0,-420000.0,-1.0,0.0,0.0,0.0,0.0,0.0,0.0,0.0,0.0
1531943842647942572,2628,1531943842647076342,base_link,-202000.0,-175000.0,-420000.0,-1.0,0.0,0.0,0.0,0.0,0.0,0.0,0.0,0.0
1531943842778454736,2629,1531943842777295038,base_link,-198000.0,-183000.0,-420000.0,-1.0,0.0,0.0,0.0,0.0,0.0,0.0,0.0,0.0
1531943842856883780,2630,1531943842854251075,base_link,-198000.0,-183000.0,-420000.0,-1.0,0.0,0.0,0.0,0.0,0.0,0.0,0.0,0.0
1531943842956218461,2631,1531943842955304552,base_link,-198000.0,-190000.0,-414000.0,-1.0,0.0,0.0,0.0,0.0,0.0,0.0,0.0,0.0
1531943843076909753,2632,1531943843075289420,base_link,-196000.0,-207000.0,-403000.0,-1.0,0.0,0.0,0.0,0.0,0.0,0.0,0.0,0.0
1531943843152736366,2633,1531943843152352690,base_link,-196000.0,-207000.0,-403000.0,-1.0,0.0,0.0,0.0,0.0,0.0,0.0,0.0,0.0
1531943843272959696,2634,1531943843272244024,base_link,-210000.0,-221000.0,-387000.0,-1.0,0.0,0.0,0.0,0.0,0.0,0.0,0.0,0.0
1531943843359171784,2635,1531943843358407025,base_link,-210000.0,-221000.0,-387000.0,-1.0,0.0,0.0,0.0,0.0,0.0,0.0,0.0,0.0
1531943843444257934,2636,1531943843443527063,base_link,-220000.0,-229000.0,-379000.0,-1.0,0.0,0.0,0.0,0.0,0.0,0.0,0.0,0.0
1531943843555653402,2637,1531943843554721925,base_link,-243000.0,-235000.0,-362000.0,-1.0,0.0,0.0,0.0,0.0,0.0,0.0,0.0,0.0
1531943843667853180,2638,1531943843663981930,base_link,-243000.0,-235000.0,-362000.0,-1.0,0.0,0.0,0.0,0.0,0.0,0.0,0.0,0.0
1531943843771321638,2639,1531943843770689422,base_link,-245000.0,-227000.0,-358000.0,-1.0,0.0,0.0,0.0,0.0,0.0,0.0,0.0,0.0
1531943843853870763,2640,1531943843853204915,base_link,-245000.0,-227000.0,-358000.0,-1.0,0.0,0.0,0.0,0.0,0.0,0.0,0.0,0.0
1531943843952321777,2641,1531943843951610778,base_link,-255000.0,-225000.0,-354000.0,-1.0,0.0,0.0,0.0,0.0,0.0,0.0,0.0,0.0
1531943844063241668,2642,1531943844052923839,base_link,-246000.0,-229000.0,-348000.0,-1.0,0.0,0.0,0.0,0.0,0.0,0.0,0.0,0.0
1531943844153191346,2643,1531943844152611864,base_link,-248000.0,-233000.0,-344000.0,-1.0,0.0,0.0,0.0,0.0,0.0,0.0,0.0,0.0
1531943844249456852,2644,1531943844248854619,base_link,-250000.0,-231000.0,-343000.0,-1.0,0.0,0.0,0.0,0.0,0.0,0.0,0.0,0.0
1531943844373411020,2645,1531943844372621142,base_link,-267000.0,-222000.0,-342000.0,-1.0,0.0,0.0,0.0,0.0,0.0,0.0,0.0,0.0
1531943844445602382,2646,1531943844443135724,base_link,-267000.0,-222000.0,-342000.0,-1.0,0.0,0.0,0.0,0.0,0.0,0.0,0.0,0.0
1531943844534189997,2647,1531943844533286807,base_link,-279000.0,-223000.0,-336000.0,-1.0,0.0,0.0,0.0,0.0,0.0,0.0,0.0,0.0
1531943844667285591,2648,1531943844665509197,base_link,-293000.0,-225000.0,-333000.0,-1.0,0.0,0.0,0.0,0.0,0.0,0.0,0.0,0.0
1531943844734316055,2649,1531943844733717598,base_link,-299000.0,-219000.0,-333000.0,-1.0,0.0,0.0,0.0,0.0,0.0,0.0,0.0,0.0
1531943844859785181,2650,1531943844855646734,base_link,-299000.0,-206000.0,-343000.0,-1.0,0.0,0.0,0.0,0.0,0.0,0.0,0.0,0.0
1531943844958706272,2651,1531943844957516014,base_link,-303000.0,-188000.0,-350000.0,-1.0,0.0,0.0,0.0,0.0,0.0,0.0,0.0,0.0
1531943845051574796,2652,1531943845049221288,base_link,-310000.0,-167000.0,-361000.0,-1.0,0.0,0.0,0.0,0.0,0.0,0.0,0.0,0.0
1531943845177116308,2653,1531943845176070465,base_link,-312000.0,-125000.0,-380000.0,-1.0,0.0,0.0,0.0,0.0,0.0,0.0,0.0,0.0
1531943845247994727,2654,1531943845238410170,base_link,-312000.0,-125000.0,-380000.0,-1.0,0.0,0.0,0.0,0.0,0.0,0.0,0.0,0.0
1531943845372578171,2655,1531943845371685733,base_link,-314000.0,-104000.0,-386000.0,-1.0,0.0,0.0,0.0,0.0,0.0,0.0,0.0,0.0
1531943845465290666,2656,1531943845464650801,base_link,-311000.0,-82000.0,-394000.0,-1.0,0.0,0.0,0.0,0.0,0.0,0.0,0.0,0.0
1531943845571619543,2657,1531943845570932831,base_link,-305000.0,-64000.0,-399000.0,-1.0,0.0,0.0,0.0,0.0,0.0,0.0,0.0,0.0
1531943845654094368,2658,1531943845650007569,base_link,-316000.0,-42000.0,-404000.0,-1.0,0.0,0.0,0.0,0.0,0.0,0.0,0.0,0.0
1531943845759454744,2659,1531943845758736033,base_link,-308000.0,-24000.0,-407000.0,-1.0,0.0,0.0,0.0,0.0,0.0,0.0,0.0,0.0
1531943845866572092,2660,1531943845865908612,base_link,-313000.0,-10000.0,-410000.0,-1.0,0.0,0.0,0.0,0.0,0.0,0.0,0.0,0.0
1531943845960499068,2661,1531943845957489280,base_link,-311000.0,1000.0,-412000.0,-1.0,0.0,0.0,0.0,0.0,0.0,0.0,0.0,0.0
1531943846071436756,2662,1531943846070835035,base_link,-317000.0,9000.0,-416000.0,-1.0,0.0,0.0,0.0,0.0,0.0,0.0,0.0,0.0
1531943846177270057,2663,1531943846174266893,base_link,-321000.0,24000.0,-417000.0,-1.0,0.0,0.0,0.0,0.0,0.0,0.0,0.0,0.0
1531943846258748224,2664,1531943846256238526,base_link,-312000.0,38000.0,-421000.0,-1.0,0.0,0.0,0.0,0.0,0.0,0.0,0.0,0.0
1531943846372067388,2665,1531943846369924181,base_link,-324000.0,63000.0,-427000.0,-1.0,0.0,0.0,0.0,0.0,0.0,0.0,0.0,0.0
1531943846475396367,2666,1531943846474768982,base_link,-316000.0,73000.0,-424000.0,-1.0,0.0,0.0,0.0,0.0,0.0,0.0,0.0,0.0
1531943846556330988,2667,1531943846554885309,base_link,-316000.0,73000.0,-424000.0,-1.0,0.0,0.0,0.0,0.0,0.0,0.0,0.0,0.0
1531943846648322118,2668,1531943846647813900,base_link,-307000.0,81000.0,-427000.0,-1.0,0.0,0.0,0.0,0.0,0.0,0.0,0.0,0.0
1531943846751226302,2669,1531943846749059927,base_link,-316000.0,90000.0,-425000.0,-1.0,0.0,0.0,0.0,0.0,0.0,0.0,0.0,0.0
1531943846853901656,2670,1531943846850843965,base_link,-314000.0,96000.0,-425000.0,-1.0,0.0,0.0,0.0,0.0,0.0,0.0,0.0,0.0
1531943846976383303,2671,1531943846975573713,base_link,-330000.0,99000.0,-425000.0,-1.0,0.0,0.0,0.0,0.0,0.0,0.0,0.0,0.0
1531943847062274315,2672,1531943847061446197,base_link,-330000.0,99000.0,-425000.0,-1.0,0.0,0.0,0.0,0.0,0.0,0.0,0.0,0.0
1531943847142934669,2673,1531943847141930809,base_link,-308000.0,99000.0,-425000.0,-1.0,0.0,0.0,0.0,0.0,0.0,0.0,0.0,0.0
1531943847224590404,2674,1531943847223830541,base_link,-303000.0,100000.0,-427000.0,-1.0,0.0,0.0,0.0,0.0,0.0,0.0,0.0,0.0
1531943847374901995,2675,1531943847373706202,base_link,-299000.0,94000.0,-433000.0,-1.0,0.0,0.0,0.0,0.0,0.0,0.0,0.0,0.0
1531943847469447497,2676,1531943847462042913,base_link,-299000.0,94000.0,-433000.0,-1.0,0.0,0.0,0.0,0.0,0.0,0.0,0.0,0.0
1531943847555108976,2677,1531943847554315257,base_link,-303000.0,85000.0,-434000.0,-1.0,0.0,0.0,0.0,0.0,0.0,0.0,0.0,0.0
1531943847655292106,2678,1531943847654456116,base_link,-298000.0,72000.0,-441000.0,-1.0,0.0,0.0,0.0,0.0,0.0,0.0,0.0,0.0
1531943847775935890,2679,1531943847774895038,base_link,-284000.0,47000.0,-448000.0,-1.0,0.0,0.0,0.0,0.0,0.0,0.0,0.0,0.0
1531943847851951852,2680,1531943847850324095,base_link,-284000.0,47000.0,-448000.0,-1.0,0.0,0.0,0.0,0.0,0.0,0.0,0.0,0.0
1531943848011566949,2681,1531943848010710127,base_link,-276000.0,35000.0,-451000.0,-1.0,0.0,0.0,0.0,0.0,0.0,0.0,0.0,0.0
1531943848067427055,2682,1531943848066922804,base_link,-276000.0,35000.0,-451000.0,-1.0,0.0,0.0,0.0,0.0,0.0,0.0,0.0,0.0
1531943848153028056,2683,1531943848151571689,base_link,-281000.0,31000.0,-452000.0,-1.0,0.0,0.0,0.0,0.0,0.0,0.0,0.0,0.0
1531943848253944428,2684,1531943848253228564,base_link,-274000.0,25000.0,-455000.0,-1.0,0.0,0.0,0.0,0.0,0.0,0.0,0.0,0.0
1531943848371758807,2685,1531943848371372668,base_link,-276000.0,20000.0,-453000.0,-1.0,0.0,0.0,0.0,0.0,0.0,0.0,0.0,0.0
1531943848484134083,2686,1531943848483133839,base_link,-285000.0,5000.0,-451000.0,-1.0,0.0,0.0,0.0,0.0,0.0,0.0,0.0,0.0
1531943848573614974,2687,1531943848570266086,base_link,-281000.0,-5.49866412817e-11,-449000.0,-1.0,0.0,0.0,0.0,0.0,0.0,0.0,0.0,0.0
1531943848648827779,2688,1531943848647077207,base_link,-281000.0,-5.49866412817e-11,-449000.0,-1.0,0.0,0.0,0.0,0.0,0.0,0.0,0.0,0.0
1531943848756885538,2689,1531943848756138379,base_link,-274000.0,-1000.0,-449000.0,-1.0,0.0,0.0,0.0,0.0,0.0,0.0,0.0,0.0
1531943848851086693,2690,1531943848850094001,base_link,-273000.0,-4000.0,-450000.0,-1.0,0.0,0.0,0.0,0.0,0.0,0.0,0.0,0.0
1531943848983377157,2691,1531943848981694809,base_link,-269000.0,-17000.0,-448000.0,-1.0,0.0,0.0,0.0,0.0,0.0,0.0,0.0,0.0
1531943849049649332,2692,1531943849048830398,base_link,-269000.0,-17000.0,-448000.0,-1.0,0.0,0.0,0.0,0.0,0.0,0.0,0.0,0.0
1531943849167612833,2693,1531943849165927733,base_link,-275000.0,-19000.0,-445000.0,-1.0,0.0,0.0,0.0,0.0,0.0,0.0,0.0,0.0
1531943849275556227,2694,1531943849274538096,base_link,-268000.0,-19000.0,-446000.0,-1.0,0.0,0.0,0.0,0.0,0.0,0.0,0.0,0.0
1531943849351317475,2695,1531943849350215728,base_link,-276000.0,-22000.0,-443000.0,-1.0,0.0,0.0,0.0,0.0,0.0,0.0,0.0,0.0
1531943849463204887,2696,1531943849462149700,base_link,-269000.0,-23000.0,-444000.0,-1.0,0.0,0.0,0.0,0.0,0.0,0.0,0.0,0.0
1531943849551951389,2697,1531943849551051080,base_link,-283000.0,-27000.0,-440000.0,-1.0,0.0,0.0,0.0,0.0,0.0,0.0,0.0,0.0
1531943849652004381,2698,1531943849651213799,base_link,-272000.0,-32000.0,-438000.0,-1.0,0.0,0.0,0.0,0.0,0.0,0.0,0.0,0.0
1531943849749441117,2699,1531943849748707845,base_link,-285000.0,-38000.0,-437000.0,-1.0,0.0,0.0,0.0,0.0,0.0,0.0,0.0,0.0
1531943849869655886,2700,1531943849868736217,base_link,-279000.0,-51000.0,-431000.0,-1.0,0.0,0.0,0.0,0.0,0.0,0.0,0.0,0.0
1531943850007608846,2701,1531943850004478867,base_link,-277000.0,-50000.0,-433000.0,-1.0,0.0,0.0,0.0,0.0,0.0,0.0,0.0,0.0
1531943850046510307,2702,1531943850045939498,base_link,-277000.0,-50000.0,-433000.0,-1.0,0.0,0.0,0.0,0.0,0.0,0.0,0.0,0.0
1531943850157150344,2703,1531943850156345970,base_link,-279000.0,-40000.0,-432000.0,-1.0,0.0,0.0,0.0,0.0,0.0,0.0,0.0,0.0
1531943850248015927,2704,1531943850247305312,base_link,-277000.0,-30000.0,-435000.0,-1.0,0.0,0.0,0.0,0.0,0.0,0.0,0.0,0.0
1531943850352932256,2705,1531943850351905228,base_link,-270000.0,-18000.0,-437000.0,-1.0,0.0,0.0,0.0,0.0,0.0,0.0,0.0,0.0
1531943850455904800,2706,1531943850455183273,base_link,-279000.0,-12000.0,-437000.0,-1.0,0.0,0.0,0.0,0.0,0.0,0.0,0.0,0.0
1531943850569671009,2707,1531943850567442139,base_link,-280000.0,-10000.0,-436000.0,-1.0,0.0,0.0,0.0,0.0,0.0,0.0,0.0,0.0
1531943850643942708,2708,1531943850642785761,base_link,-279000.0,-12000.0,-436000.0,-1.0,0.0,0.0,0.0,0.0,0.0,0.0,0.0,0.0
1531943850770575388,2709,1531943850768762449,base_link,-276000.0,-6000.0,-442000.0,-1.0,0.0,0.0,0.0,0.0,0.0,0.0,0.0,0.0
1531943850858260881,2710,1531943850856925504,base_link,-276000.0,-6000.0,-442000.0,-1.0,0.0,0.0,0.0,0.0,0.0,0.0,0.0,0.0
1531943850951537987,2711,1531943850950526095,base_link,-282000.0,-5.41293885223e-11,-442000.0,-1.0,0.0,0.0,0.0,0.0,0.0,0.0,0.0,0.0
1531943851094018386,2712,1531943851093268891,base_link,-287000.0,7000.0,-442000.0,-1.0,0.0,0.0,0.0,0.0,0.0,0.0,0.0,0.0
1531943851152486369,2713,1531943851151093809,base_link,-287000.0,7000.0,-442000.0,-1.0,0.0,0.0,0.0,0.0,0.0,0.0,0.0,0.0
1531943851250116642,2714,1531943851249134445,base_link,-280000.0,16000.0,-443000.0,-1.0,0.0,0.0,0.0,0.0,0.0,0.0,0.0,0.0
1531943851362855248,2715,1531943851361570816,base_link,-283000.0,22000.0,-442000.0,-1.0,0.0,0.0,0.0,0.0,0.0,0.0,0.0,0.0
1531943851470771160,2716,1531943851469613830,base_link,-275000.0,37000.0,-442000.0,-1.0,0.0,0.0,0.0,0.0,0.0,0.0,0.0,0.0
1531943851586439172,2717,1531943851578046247,base_link,-275000.0,37000.0,-442000.0,-1.0,0.0,0.0,0.0,0.0,0.0,0.0,0.0,0.0
1531943851683806184,2718,1531943851681725153,base_link,-281000.0,38000.0,-440000.0,-1.0,0.0,0.0,0.0,0.0,0.0,0.0,0.0,0.0
1531943851750363383,2719,1531943851749638624,base_link,-281000.0,38000.0,-440000.0,-1.0,0.0,0.0,0.0,0.0,0.0,0.0,0.0,0.0
1531943851892262542,2720,1531943851891060572,base_link,-275000.0,29000.0,-439000.0,-1.0,0.0,0.0,0.0,0.0,0.0,0.0,0.0,0.0
1531943851956789398,2721,1531943851951606675,base_link,-275000.0,29000.0,-439000.0,-1.0,0.0,0.0,0.0,0.0,0.0,0.0,0.0,0.0
1531943852047008463,2722,1531943852046429590,base_link,-298000.0,22000.0,-436000.0,-1.0,0.0,0.0,0.0,0.0,0.0,0.0,0.0,0.0
1531943852149341146,2723,1531943852148782049,base_link,-289000.0,8000.0,-438000.0,-1.0,0.0,0.0,0.0,0.0,0.0,0.0,0.0,0.0
1531943852252365982,2724,1531943852250602291,base_link,-289000.0,8000.0,-438000.0,-1.0,0.0,0.0,0.0,0.0,0.0,0.0,0.0,0.0
1531943852370848588,2725,1531943852369866039,base_link,-288000.0,2000.0,-435000.0,-1.0,0.0,0.0,0.0,0.0,0.0,0.0,0.0,0.0
1531943852447009227,2726,1531943852446446674,base_link,-293000.0,-6000.0,-436000.0,-1.0,0.0,0.0,0.0,0.0,0.0,0.0,0.0,0.0
1531943852550018127,2727,1531943852549457142,base_link,-282000.0,-25000.0,-433000.0,-1.0,0.0,0.0,0.0,0.0,0.0,0.0,0.0,0.0
1531943852644108764,2728,1531943852643429476,base_link,-279000.0,-43000.0,-432000.0,-1.0,0.0,0.0,0.0,0.0,0.0,0.0,0.0,0.0
1531943852756773358,2729,1531943852755694107,base_link,-289000.0,-57000.0,-426000.0,-1.0,0.0,0.0,0.0,0.0,0.0,0.0,0.0,0.0
1531943852864428155,2730,1531943852860679687,base_link,-281000.0,-73000.0,-426000.0,-1.0,0.0,0.0,0.0,0.0,0.0,0.0,0.0,0.0
1531943852951821175,2731,1531943852948634844,base_link,-282000.0,-87000.0,-422000.0,-1.0,0.0,0.0,0.0,0.0,0.0,0.0,0.0,0.0
1531943853066850222,2732,1531943853066091063,base_link,-279000.0,-100000.0,-419000.0,-1.0,0.0,0.0,0.0,0.0,0.0,0.0,0.0,0.0
1531943853155675322,2733,1531943853154837348,base_link,-277000.0,-111000.0,-416000.0,-1.0,0.0,0.0,0.0,0.0,0.0,0.0,0.0,0.0
1531943853253867417,2734,1531943853252155917,base_link,-267000.0,-123000.0,-416000.0,-1.0,0.0,0.0,0.0,0.0,0.0,0.0,0.0,0.0
1531943853350471306,2735,1531943853349731506,base_link,-260000.0,-140000.0,-410000.0,-1.0,0.0,0.0,0.0,0.0,0.0,0.0,0.0,0.0
1531943853455887667,2736,1531943853455218747,base_link,-258000.0,-160000.0,-406000.0,-1.0,0.0,0.0,0.0,0.0,0.0,0.0,0.0,0.0
1531943853583094460,2737,1531943853581117428,base_link,-256000.0,-202000.0,-387000.0,-1.0,0.0,0.0,0.0,0.0,0.0,0.0,0.0,0.0
1531943853653657599,2738,1531943853652076626,base_link,-256000.0,-202000.0,-387000.0,-1.0,0.0,0.0,0.0,0.0,0.0,0.0,0.0,0.0
1531943853756383176,2739,1531943853755767504,base_link,-250000.0,-221000.0,-378000.0,-1.0,0.0,0.0,0.0,0.0,0.0,0.0,0.0,0.0
1531943853849448195,2740,1531943853846617636,base_link,-253000.0,-235000.0,-371000.0,-1.0,0.0,0.0,0.0,0.0,0.0,0.0,0.0,0.0
1531943853975627224,2741,1531943853974986112,base_link,-262000.0,-257000.0,-347000.0,-1.0,0.0,0.0,0.0,0.0,0.0,0.0,0.0,0.0
1531943854042059469,2742,1531943854038739252,base_link,-262000.0,-257000.0,-347000.0,-1.0,0.0,0.0,0.0,0.0,0.0,0.0,0.0,0.0
1531943854150619956,2743,1531943854148052306,base_link,-248000.0,-274000.0,-335000.0,-1.0,0.0,0.0,0.0,0.0,0.0,0.0,0.0,0.0
1531943854249777193,2744,1531943854248931539,base_link,-248000.0,-274000.0,-335000.0,-1.0,0.0,0.0,0.0,0.0,0.0,0.0,0.0,0.0
1531943854357470106,2745,1531943854356863105,base_link,-243000.0,-283000.0,-325000.0,-1.0,0.0,0.0,0.0,0.0,0.0,0.0,0.0,0.0
1531943854478192402,2746,1531943854477562201,base_link,-228000.0,-306000.0,-307000.0,-1.0,0.0,0.0,0.0,0.0,0.0,0.0,0.0,0.0
1531943854559782837,2747,1531943854558524516,base_link,-228000.0,-306000.0,-307000.0,-1.0,0.0,0.0,0.0,0.0,0.0,0.0,0.0,0.0
1531943854652957264,2748,1531943854648952671,base_link,-220000.0,-315000.0,-300000.0,-1.0,0.0,0.0,0.0,0.0,0.0,0.0,0.0,0.0
1531943854761763476,2749,1531943854761169307,base_link,-206000.0,-324000.0,-291000.0,-1.0,0.0,0.0,0.0,0.0,0.0,0.0,0.0,0.0
1531943854849115476,2750,1531943854844519914,base_link,-215000.0,-329000.0,-284000.0,-1.0,0.0,0.0,0.0,0.0,0.0,0.0,0.0,0.0
1531943854990899029,2751,1531943854990240829,base_link,-201000.0,-337000.0,-278000.0,-1.0,0.0,0.0,0.0,0.0,0.0,0.0,0.0,0.0
1531943855070225620,2752,1531943855069539164,base_link,-201000.0,-337000.0,-278000.0,-1.0,0.0,0.0,0.0,0.0,0.0,0.0,0.0,0.0
1531943855152339955,2753,1531943855149128376,base_link,-197000.0,-344000.0,-267000.0,-1.0,0.0,0.0,0.0,0.0,0.0,0.0,0.0,0.0
1531943855234623311,2754,1531943855232588039,base_link,-189000.0,-353000.0,-256000.0,-1.0,0.0,0.0,0.0,0.0,0.0,0.0,0.0,0.0
1531943855334834010,2755,1531943855334182146,base_link,-182000.0,-359000.0,-248000.0,-1.0,0.0,0.0,0.0,0.0,0.0,0.0,0.0,0.0
1531943855450239283,2756,1531943855449696409,base_link,-183000.0,-364000.0,-243000.0,-1.0,0.0,0.0,0.0,0.0,0.0,0.0,0.0,0.0
1531943855577178084,2757,1531943855576641963,base_link,-179000.0,-366000.0,-239000.0,-1.0,0.0,0.0,0.0,0.0,0.0,0.0,0.0,0.0
1531943855657456217,2758,1531943855656801728,base_link,-164000.0,-371000.0,-236000.0,-1.0,0.0,0.0,0.0,0.0,0.0,0.0,0.0,0.0
1531943855762890374,2759,1531943855761732628,base_link,-163000.0,-374000.0,-235000.0,-1.0,0.0,0.0,0.0,0.0,0.0,0.0,0.0,0.0
1531943855863473068,2760,1531943855862286234,base_link,-146000.0,-376000.0,-233000.0,-1.0,0.0,0.0,0.0,0.0,0.0,0.0,0.0,0.0
1531943855970528935,2761,1531943855968980793,base_link,-142000.0,-379000.0,-232000.0,-1.0,0.0,0.0,0.0,0.0,0.0,0.0,0.0,0.0
1531943856066976991,2762,1531943856066391046,base_link,-127000.0,-384000.0,-232000.0,-1.0,0.0,0.0,0.0,0.0,0.0,0.0,0.0,0.0
1531943856166217911,2763,1531943856165681245,base_link,-124000.0,-385000.0,-234000.0,-1.0,0.0,0.0,0.0,0.0,0.0,0.0,0.0,0.0
1531943856302563101,2764,1531943856301404522,base_link,-112000.0,-386000.0,-237000.0,-1.0,0.0,0.0,0.0,0.0,0.0,0.0,0.0,0.0
1531943856365640859,2765,1531943856365168641,base_link,-112000.0,-386000.0,-237000.0,-1.0,0.0,0.0,0.0,0.0,0.0,0.0,0.0,0.0
1531943856453112317,2766,1531943856452215207,base_link,-113000.0,-383000.0,-242000.0,-1.0,0.0,0.0,0.0,0.0,0.0,0.0,0.0,0.0
1531943856563624017,2767,1531943856557303803,base_link,-107000.0,-381000.0,-248000.0,-1.0,0.0,0.0,0.0,0.0,0.0,0.0,0.0,0.0
1531943856662839657,2768,1531943856658727769,base_link,-112000.0,-378000.0,-256000.0,-1.0,0.0,0.0,0.0,0.0,0.0,0.0,0.0,0.0
1531943856758758280,2769,1531943856756437059,base_link,-108000.0,-375000.0,-264000.0,-1.0,0.0,0.0,0.0,0.0,0.0,0.0,0.0,0.0
1531943856878778157,2770,1531943856876903587,base_link,-93000.0,-361000.0,-286000.0,-1.0,0.0,0.0,0.0,0.0,0.0,0.0,0.0,0.0
1531943856972077258,2771,1531943856971208244,base_link,-93000.0,-361000.0,-286000.0,-1.0,0.0,0.0,0.0,0.0,0.0,0.0,0.0,0.0
1531943857095781542,2772,1531943857094483797,base_link,-91000.0,-339000.0,-319000.0,-1.0,0.0,0.0,0.0,0.0,0.0,0.0,0.0,0.0
1531943857157308728,2773,1531943857156747967,base_link,-91000.0,-339000.0,-319000.0,-1.0,0.0,0.0,0.0,0.0,0.0,0.0,0.0,0.0
1531943857249910112,2774,1531943857249326823,base_link,-93000.0,-325000.0,-335000.0,-1.0,0.0,0.0,0.0,0.0,0.0,0.0,0.0,0.0
1531943857364535750,2775,1531943857362579805,base_link,-90000.0,-311000.0,-352000.0,-1.0,0.0,0.0,0.0,0.0,0.0,0.0,0.0,0.0
1531943857463996382,2776,1531943857462403152,base_link,-97000.0,-293000.0,-367000.0,-1.0,0.0,0.0,0.0,0.0,0.0,0.0,0.0,0.0
1531943857549824788,2777,1531943857546755800,base_link,-97000.0,-276000.0,-382000.0,-1.0,0.0,0.0,0.0,0.0,0.0,0.0,0.0,0.0
1531943857657579339,2778,1531943857656856884,base_link,-105000.0,-261000.0,-395000.0,-1.0,0.0,0.0,0.0,0.0,0.0,0.0,0.0,0.0
1531943857759853570,2779,1531943857758824878,base_link,-109000.0,-244000.0,-406000.0,-1.0,0.0,0.0,0.0,0.0,0.0,0.0,0.0,0.0
1531943857884488564,2780,1531943857882881478,base_link,-103000.0,-212000.0,-427000.0,-1.0,0.0,0.0,0.0,0.0,0.0,0.0,0.0,0.0
1531943857972947948,2781,1531943857972179380,base_link,-103000.0,-212000.0,-427000.0,-1.0,0.0,0.0,0.0,0.0,0.0,0.0,0.0,0.0
1531943858094415748,2782,1531943858092897878,base_link,-104000.0,-186000.0,-442000.0,-1.0,0.0,0.0,0.0,0.0,0.0,0.0,0.0,0.0
1531943858177825272,2783,1531943858176959202,base_link,-105000.0,-174000.0,-450000.0,-1.0,0.0,0.0,0.0,0.0,0.0,0.0,0.0,0.0
1531943858262396927,2784,1531943858260995791,base_link,-105000.0,-174000.0,-450000.0,-1.0,0.0,0.0,0.0,0.0,0.0,0.0,0.0,0.0
1531943858375894837,2785,1531943858375183133,base_link,-100000.0,-153000.0,-459000.0,-1.0,0.0,0.0,0.0,0.0,0.0,0.0,0.0,0.0
1531943858450083413,2786,1531943858449611930,base_link,-100000.0,-153000.0,-459000.0,-1.0,0.0,0.0,0.0,0.0,0.0,0.0,0.0,0.0
1531943858562619382,2787,1531943858557950188,base_link,-88000.0,-149000.0,-461000.0,-1.0,0.0,0.0,0.0,0.0,0.0,0.0,0.0,0.0
1531943858714736842,2788,1531943858714047986,base_link,-86000.0,-135000.0,-467000.0,-1.0,0.0,0.0,0.0,0.0,0.0,0.0,0.0,0.0
1531943858751493246,2789,1531943858750930148,base_link,-86000.0,-135000.0,-467000.0,-1.0,0.0,0.0,0.0,0.0,0.0,0.0,0.0,0.0
1531943858855020232,2790,1531943858854563149,base_link,-82000.0,-127000.0,-472000.0,-1.0,0.0,0.0,0.0,0.0,0.0,0.0,0.0,0.0
1531943858975506700,2791,1531943858974437753,base_link,-79000.0,-123000.0,-473000.0,-1.0,0.0,0.0,0.0,0.0,0.0,0.0,0.0,0.0
1531943859051889299,2792,1531943859050865311,base_link,-84000.0,-118000.0,-475000.0,-1.0,0.0,0.0,0.0,0.0,0.0,0.0,0.0,0.0
1531943859161375834,2793,1531943859155036292,base_link,-72000.0,-111000.0,-478000.0,-1.0,0.0,0.0,0.0,0.0,0.0,0.0,0.0,0.0
1531943859293212253,2794,1531943859288533683,base_link,-94000.0,-89000.0,-485000.0,-1.0,0.0,0.0,0.0,0.0,0.0,0.0,0.0,0.0
1531943859349310256,2795,1531943859347951104,base_link,-94000.0,-89000.0,-485000.0,-1.0,0.0,0.0,0.0,0.0,0.0,0.0,0.0,0.0
1531943859470526126,2796,1531943859469911669,base_link,-73000.0,-65000.0,-494000.0,-1.0,0.0,0.0,0.0,0.0,0.0,0.0,0.0,0.0
1531943859553893445,2797,1531943859553015087,base_link,-73000.0,-65000.0,-494000.0,-1.0,0.0,0.0,0.0,0.0,0.0,0.0,0.0,0.0
1531943859666707173,2798,1531943859666142923,base_link,-72000.0,-72000.0,-493000.0,-1.0,0.0,0.0,0.0,0.0,0.0,0.0,0.0,0.0
1531943859757933920,2799,1531943859755269727,base_link,-72000.0,-72000.0,-493000.0,-1.0,0.0,0.0,0.0,0.0,0.0,0.0,0.0,0.0
1531943859894473516,2800,1531943859892185254,base_link,-73000.0,-81000.0,-490000.0,-1.0,0.0,0.0,0.0,0.0,0.0,0.0,0.0,0.0
1531943859974868389,2801,1531943859973645107,base_link,-73000.0,-81000.0,-490000.0,-1.0,0.0,0.0,0.0,0.0,0.0,0.0,0.0,0.0
