%time,field.header.seq,field.header.stamp,field.header.frame_id,field.orientation.x,field.orientation.y,field.orientation.z,field.orientation.w,field.orientation_covariance0,field.orientation_covariance1,field.orientation_covariance2,field.orientation_covariance3,field.orientation_covariance4,field.orientation_covariance5,field.orientation_covariance6,field.orientation_covariance7,field.orientation_covariance8,field.angular_velocity.x,field.angular_velocity.y,field.angular_velocity.z,field.angular_velocity_covariance0,field.angular_velocity_covariance1,field.angular_velocity_covariance2,field.angular_velocity_covariance3,field.angular_velocity_covariance4,field.angular_velocity_covariance5,field.angular_velocity_covariance6,field.angular_velocity_covariance7,field.angular_velocity_covariance8,field.linear_acceleration.x,field.linear_acceleration.y,field.linear_acceleration.z,field.linear_acceleration_covariance0,field.linear_acceleration_covariance1,field.linear_acceleration_covariance2,field.linear_acceleration_covariance3,field.linear_acceleration_covariance4,field.linear_acceleration_covariance5,field.linear_acceleration_covariance6,field.linear_acceleration_covariance7,field.linear_acceleration_covariance8
1531943810963310395,653,1531943810962830689,base_link,0.192815652867,0.0357816614945,-0.0586542927737,-0.978826578434,1.0,0.0,0.0,0.0,1.0,0.0,0.0,0.0,1.0,2.04822897911,-0.148679882288,0.18908059597,1.21846967915e-07,0.0,0.0,0.0,1.21846967915e-07,0.0,0.0,0.0,1.21846967915e-07,1.8240369,-0.32361945,14.81784815,9e-08,0.0,0.0,0.0,9e-08,0.0,0.0,0.0,9e-08
1531943811376792958,654,1531943811376452610,base_link,-0.115040466481,0.0463108334785,-0.108915435493,-0.986285164486,1.0,0.0,0.0,0.0,1.0,0.0,0.0,0.0,1.0,0.408364027739,-0.191197872162,0.111469060183,1.21846967915e-07,0.0,0.0,0.0,1.21846967915e-07,0.0,0.0,0.0,1.21846967915e-07,0.06864655,0.3530394,11.83662655,9e-08,0.0,0.0,0.0,9e-08,0.0,0.0,0.0,9e-08
1531943811751721326,655,1531943811751139669,base_link,0.0893909549218,0.0853818927019,-0.110568628532,-0.986150986392,1.0,0.0,0.0,0.0,1.0,0.0,0.0,0.0,1.0,-1.13595020771,0.0584399700165,-0.0143232503906,1.21846967915e-07,0.0,0.0,0.0,1.21846967915e-07,0.0,0.0,0.0,1.21846967915e-07,-0.14709975,0.40207265,11.8856598,9e-08,0.0,0.0,0.0,9e-08,0.0,0.0,0.0,9e-08
1531943812045636073,656,1531943812045262574,base_link,0.222648565727,0.0928291957041,-0.0904932205825,-0.966240825899,1.0,0.0,0.0,0.0,1.0,0.0,0.0,0.0,1.0,-0.777475893497,-0.0152240563184,0.0192843638361,1.21846967915e-07,0.0,0.0,0.0,1.21846967915e-07,0.0,0.0,0.0,1.21846967915e-07,0.2941995,-0.18632635,9.89490985,9e-08,0.0,0.0,0.0,9e-08,0.0,0.0,0.0,9e-08
1531943812403996438,657,1531943812402769541,base_link,0.297462736201,0.099476162262,-0.109967832473,-0.943147649912,1.0,0.0,0.0,0.0,1.0,0.0,0.0,0.0,1.0,-0.232116565108,-0.137537032366,0.26390427351,1.21846967915e-07,0.0,0.0,0.0,1.21846967915e-07,0.0,0.0,0.0,1.21846967915e-07,1.372931,-0.40207265,8.12971285,9e-08,0.0,0.0,0.0,9e-08,0.0,0.0,0.0,9e-08
1531943812812059050,658,1531943812811618351,base_link,0.352863325419,0.136949070677,-0.177656852116,-0.908388941209,1.0,0.0,0.0,0.0,1.0,0.0,0.0,0.0,1.0,-0.283766031265,-0.288865119219,0.30848005414,1.21846967915e-07,0.0,0.0,0.0,1.21846967915e-07,0.0,0.0,0.0,1.21846967915e-07,1.81423025,-0.2745862,11.05209455,9e-08,0.0,0.0,0.0,9e-08,0.0,0.0,0.0,9e-08
1531943813352840975,659,1531943813351530559,base_link,0.374671410681,0.217356371889,-0.299898862849,-0.849963654328,1.0,0.0,0.0,0.0,1.0,0.0,0.0,0.0,1.0,-0.105808258057,-0.509014129639,0.288842856884,1.21846967915e-07,0.0,0.0,0.0,1.21846967915e-07,0.0,0.0,0.0,1.21846967915e-07,3.57942725,-0.02941995,18.4757286,9e-08,0.0,0.0,0.0,9e-08,0.0,0.0,0.0,9e-08
1531943813677620625,660,1531943813677341364,base_link,0.350326033984,0.275605336072,-0.383530294025,-0.808837364497,1.0,0.0,0.0,0.0,1.0,0.0,0.0,0.0,1.0,0.0454044826329,-0.569727957249,0.428021878004,1.21846967915e-07,0.0,0.0,0.0,1.21846967915e-07,0.0,0.0,0.0,1.21846967915e-07,3.40290755,-0.4707192,18.2992089,9e-08,0.0,0.0,0.0,9e-08,0.0,0.0,0.0,9e-08
1531943814007042648,661,1531943814006330689,base_link,0.328264529387,0.322558127562,-0.472648891994,-0.751532885499,1.0,0.0,0.0,0.0,1.0,0.0,0.0,0.0,1.0,-0.0256094112992,-0.600879848003,0.449950039387,1.21846967915e-07,0.0,0.0,0.0,1.21846967915e-07,0.0,0.0,0.0,1.21846967915e-07,3.0989014,-0.04903325,17.2008641,9e-08,0.0,0.0,0.0,9e-08,0.0,0.0,0.0,9e-08
1531943814331942913,662,1531943814327898772,base_link,0.288277570057,0.367327244058,-0.551564230681,-0.691190015703,1.0,0.0,0.0,0.0,1.0,0.0,0.0,0.0,1.0,0.256349921227,-0.679751455784,0.357788085938,1.21846967915e-07,0.0,0.0,0.0,1.21846967915e-07,0.0,0.0,0.0,1.21846967915e-07,2.8047019,-0.9218251,16.2398124,9e-08,0.0,0.0,0.0,9e-08,0.0,0.0,0.0,9e-08
1531943814739795375,663,1531943814739237942,base_link,0.226108829297,0.40992685242,-0.650250186156,-0.598338924342,1.0,0.0,0.0,0.0,1.0,0.0,0.0,0.0,1.0,0.2301761657,-0.560435831547,0.39729475975,1.21846967915e-07,0.0,0.0,0.0,1.21846967915e-07,0.0,0.0,0.0,1.21846967915e-07,2.7262487,-0.30400615,19.93691945,9e-08,0.0,0.0,0.0,9e-08,0.0,0.0,0.0,9e-08
1531943815065878762,664,1531943815065629710,base_link,0.162997675495,0.416341107835,-0.721099750799,-0.529251347762,1.0,0.0,0.0,0.0,1.0,0.0,0.0,0.0,1.0,0.559202075005,-0.650298953056,0.31594902277,1.21846967915e-07,0.0,0.0,0.0,1.21846967915e-07,0.0,0.0,0.0,1.21846967915e-07,1.36312435,0.1569064,17.6911966,9e-08,0.0,0.0,0.0,9e-08,0.0,0.0,0.0,9e-08
1531943815523144465,665,1531943815522741783,base_link,0.0330060528884,0.385235395776,-0.816158322496,-0.429406430941,1.0,0.0,0.0,0.0,1.0,0.0,0.0,0.0,1.0,0.723986506462,-0.452043622732,0.270409703255,1.21846967915e-07,0.0,0.0,0.0,1.21846967915e-07,0.0,0.0,0.0,1.21846967915e-07,0.44129925,0.0392266,17.46564365,9e-08,0.0,0.0,0.0,9e-08,0.0,0.0,0.0,9e-08
1531943815917907599,666,1531943815917549076,base_link,-0.0612180059232,0.252949559137,-0.893310599603,-0.366421954745,1.0,0.0,0.0,0.0,1.0,0.0,0.0,0.0,1.0,0.927370011806,-0.160982385278,0.144796937704,1.21846967915e-07,0.0,0.0,0.0,1.21846967915e-07,0.0,0.0,0.0,1.21846967915e-07,0.14709975,0.26477955,10.9246081,9e-08,0.0,0.0,0.0,9e-08,0.0,0.0,0.0,9e-08
1531943816171819784,667,1531943816171552779,base_link,-0.11635226086,0.138773124259,-0.923312717668,-0.338670631689,1.0,0.0,0.0,0.0,1.0,0.0,0.0,0.0,1.0,0.983466625214,-0.0304964352399,0.179187878966,1.21846967915e-07,0.0,0.0,0.0,1.21846967915e-07,0.0,0.0,0.0,1.21846967915e-07,-0.1176798,-0.1569064,11.40513395,9e-08,0.0,0.0,0.0,9e-08,0.0,0.0,0.0,9e-08
1531943816571451476,668,1531943816570664926,base_link,-0.135001096802,0.00524643866948,-0.943464530681,-0.302691027436,1.0,0.0,0.0,0.0,1.0,0.0,0.0,0.0,1.0,0.582703113556,0.285023331642,0.00438828533515,1.21846967915e-07,0.0,0.0,0.0,1.21846967915e-07,0.0,0.0,0.0,1.21846967915e-07,-0.10787315,0.69627215,7.01175475,9e-08,0.0,0.0,0.0,9e-08,0.0,0.0,0.0,9e-08
1531943816933792535,669,1531943816933415452,base_link,-0.120410275198,-0.078030566597,-0.938085196585,-0.315291548017,1.0,0.0,0.0,0.0,1.0,0.0,0.0,0.0,1.0,0.12123670429,0.144283547997,-0.192706421018,1.21846967915e-07,0.0,0.0,0.0,1.21846967915e-07,0.0,0.0,0.0,1.21846967915e-07,-0.20593965,0.3530394,5.85457005,9e-08,0.0,0.0,0.0,9e-08,0.0,0.0,0.0,9e-08
1531943817479285470,670,1531943817478890627,base_link,-0.0556786382508,-0.127272692989,-0.926922025484,-0.348593042866,1.0,0.0,0.0,0.0,1.0,0.0,0.0,0.0,1.0,-0.097155623138,0.347682505846,-0.0697623118758,1.21846967915e-07,0.0,0.0,0.0,1.21846967915e-07,0.0,0.0,0.0,1.21846967915e-07,-0.2549729,-0.42168595,3.69710705,9e-08,0.0,0.0,0.0,9e-08,0.0,0.0,0.0,9e-08
1531943817854049198,671,1531943817853529589,base_link,-0.00197314584217,-0.123409281308,-0.929073440411,-0.348695853583,1.0,0.0,0.0,0.0,1.0,0.0,0.0,0.0,1.0,-0.247485652566,0.240839719772,-0.0541746281087,1.21846967915e-07,0.0,0.0,0.0,1.21846967915e-07,0.0,0.0,0.0,1.21846967915e-07,-0.38245935,0.1569064,5.0013915,9e-08,0.0,0.0,0.0,9e-08,0.0,0.0,0.0,9e-08
1531943818366991611,672,1531943818366631423,base_link,0.0653923579899,-0.0776975450902,-0.920358733498,-0.377659545991,1.0,0.0,0.0,0.0,1.0,0.0,0.0,0.0,1.0,-0.0904142037034,0.0857492983341,-0.185951441526,1.21846967915e-07,0.0,0.0,0.0,1.21846967915e-07,0.0,0.0,0.0,1.21846967915e-07,-0.4118793,0.16671305,6.9431082,9e-08,0.0,0.0,0.0,9e-08,0.0,0.0,0.0,9e-08
1531943818723590457,673,1531943818719153488,base_link,0.0814520408563,-0.0719549181385,-0.910180871773,-0.399698430638,1.0,0.0,0.0,0.0,1.0,0.0,0.0,0.0,1.0,0.0172535348684,0.0630395486951,-0.0521114170551,1.21846967915e-07,0.0,0.0,0.0,1.21846967915e-07,0.0,0.0,0.0,1.21846967915e-07,-0.3530394,-0.12748645,8.11009955,9e-08,0.0,0.0,0.0,9e-08,0.0,0.0,0.0,9e-08
1531943819279822321,674,1531943819279303799,base_link,0.0863112826833,-0.0558918428228,-0.913955466735,-0.392570846107,1.0,0.0,0.0,0.0,1.0,0.0,0.0,0.0,1.0,-0.154719412327,0.00504298321903,0.0319934114814,1.21846967915e-07,0.0,0.0,0.0,1.21846967915e-07,0.0,0.0,0.0,1.21846967915e-07,-0.392266,0.0980665,10.4538889,9e-08,0.0,0.0,0.0,9e-08,0.0,0.0,0.0,9e-08
1531943819680125043,675,1531943819679694393,base_link,0.0768037873199,-0.0448940891266,-0.913821740625,-0.396251845897,1.0,0.0,0.0,0.0,1.0,0.0,0.0,0.0,1.0,0.00964825972915,-0.145009204745,-0.0358195602894,1.21846967915e-07,0.0,0.0,0.0,1.21846967915e-07,0.0,0.0,0.0,1.21846967915e-07,-0.6472389,0.26477955,10.73828175,9e-08,0.0,0.0,0.0,9e-08,0.0,0.0,0.0,9e-08
1531943820084000652,676,1531943820083779247,base_link,0.051835994526,-0.0299329499903,-0.911901219173,-0.406021199751,1.0,0.0,0.0,0.0,1.0,0.0,0.0,0.0,1.0,0.141607299447,-0.128241702914,-0.0308246463537,1.21846967915e-07,0.0,0.0,0.0,1.21846967915e-07,0.0,0.0,0.0,1.21846967915e-07,-0.4314926,0.32361945,11.8072066,9e-08,0.0,0.0,0.0,9e-08,0.0,0.0,0.0,9e-08
1531943820462583979,677,1531943820461643958,base_link,0.0122765907784,-0.052398385312,-0.913086877537,-0.404198031421,1.0,0.0,0.0,0.0,1.0,0.0,0.0,0.0,1.0,0.114318974316,-0.134247228503,0.00682967249304,1.21846967915e-07,0.0,0.0,0.0,1.21846967915e-07,0.0,0.0,0.0,1.21846967915e-07,-0.44129925,-0.12748645,11.73856005,9e-08,0.0,0.0,0.0,9e-08,0.0,0.0,0.0,9e-08
1531943820793614620,678,1531943820793188834,base_link,-0.0100312075736,-0.0644028404225,-0.909754500285,-0.409998046619,1.0,0.0,0.0,0.0,1.0,0.0,0.0,0.0,1.0,0.0826206952333,-0.0609196089208,-0.063675917685,1.21846967915e-07,0.0,0.0,0.0,1.21846967915e-07,0.0,0.0,0.0,1.21846967915e-07,-0.2157463,0.7060788,10.983448,9e-08,0.0,0.0,0.0,9e-08,0.0,0.0,0.0,9e-08
1531943821233863517,679,1531943821233489858,base_link,-0.0359607367602,-0.0930630747422,-0.894863034326,-0.435047398943,1.0,0.0,0.0,0.0,1.0,0.0,0.0,0.0,1.0,0.165507018566,-0.0853922069073,-0.124968193471,1.21846967915e-07,0.0,0.0,0.0,1.21846967915e-07,0.0,0.0,0.0,1.21846967915e-07,-0.1176798,0.392266,10.32640245,9e-08,0.0,0.0,0.0,9e-08,0.0,0.0,0.0,9e-08
1531943821663172780,680,1531943821661988283,base_link,-0.0693332454536,-0.131677714354,-0.87977736302,-0.451492715484,1.0,0.0,0.0,0.0,1.0,0.0,0.0,0.0,1.0,0.0919082313776,-0.0279238782823,-0.0686655789614,1.21846967915e-07,0.0,0.0,0.0,1.21846967915e-07,0.0,0.0,0.0,1.21846967915e-07,-0.04903325,0.2745862,10.07142955,9e-08,0.0,0.0,0.0,9e-08,0.0,0.0,0.0,9e-08
1531943822059054206,681,1531943822057979884,base_link,-0.0788608710061,-0.155485473236,-0.861064977945,-0.4776738787,1.0,0.0,0.0,0.0,1.0,0.0,0.0,0.0,1.0,0.190953999758,0.00889059621841,-0.263002604246,1.21846967915e-07,0.0,0.0,0.0,1.21846967915e-07,0.0,0.0,0.0,1.21846967915e-07,0.06864655,0.53936575,8.24739265,9e-08,0.0,0.0,0.0,9e-08,0.0,0.0,0.0,9e-08
1531943822376901254,682,1531943822376499659,base_link,-0.109862275803,-0.218550198799,-0.821868478427,-0.514488381917,1.0,0.0,0.0,0.0,1.0,0.0,0.0,0.0,1.0,0.611612558365,-0.0791478827596,-0.308182448149,1.21846967915e-07,0.0,0.0,0.0,1.21846967915e-07,0.0,0.0,0.0,1.21846967915e-07,0.3334261,0.28439285,9.30651085,9e-08,0.0,0.0,0.0,9e-08,0.0,0.0,0.0,9e-08
1531943822777384583,683,1531943822777072619,base_link,-0.175076457204,-0.280464773769,-0.766780525503,-0.550213931591,1.0,0.0,0.0,0.0,1.0,0.0,0.0,0.0,1.0,0.292934894562,-0.214551255107,-0.208498835564,1.21846967915e-07,0.0,0.0,0.0,1.21846967915e-07,0.0,0.0,0.0,1.21846967915e-07,0.73549875,0.71588545,10.97364135,9e-08,0.0,0.0,0.0,9e-08,0.0,0.0,0.0,9e-08
1531943823206567464,684,1531943823205995599,base_link,-0.202447951103,-0.284013785223,-0.70997486401,-0.611789742781,1.0,0.0,0.0,0.0,1.0,0.0,0.0,0.0,1.0,0.0655053630471,-0.179576769471,-0.474959015846,1.21846967915e-07,0.0,0.0,0.0,1.21846967915e-07,0.0,0.0,0.0,1.21846967915e-07,1.10815145,0.53936575,11.4541672,9e-08,0.0,0.0,0.0,9e-08,0.0,0.0,0.0,9e-08
1531943823576159156,685,1531943823575896504,base_link,-0.222732750323,-0.278384418963,-0.639194795186,-0.681411953974,1.0,0.0,0.0,0.0,1.0,0.0,0.0,0.0,1.0,0.118882440031,-0.292253732681,-0.389788091183,1.21846967915e-07,0.0,0.0,0.0,1.21846967915e-07,0.0,0.0,0.0,1.21846967915e-07,0.71588545,0.34323275,11.87585315,9e-08,0.0,0.0,0.0,9e-08,0.0,0.0,0.0,9e-08
1531943824027754149,686,1531943824027492265,base_link,-0.287166219124,-0.250010375907,-0.552910122932,-0.741161770798,1.0,0.0,0.0,0.0,1.0,0.0,0.0,0.0,1.0,0.0590702220798,-0.473059743643,-0.248604372144,1.21846967915e-07,0.0,0.0,0.0,1.21846967915e-07,0.0,0.0,0.0,1.21846967915e-07,1.08853815,0.3726527,14.2000292,9e-08,0.0,0.0,0.0,9e-08,0.0,0.0,0.0,9e-08
1531943824500283804,687,1531943824497806939,base_link,-0.334036320489,-0.200836844244,-0.468174497615,-0.793030225383,1.0,0.0,0.0,0.0,1.0,0.0,0.0,0.0,1.0,0.179030269384,-0.357571154833,-0.367217481136,1.21846967915e-07,0.0,0.0,0.0,1.21846967915e-07,0.0,0.0,0.0,1.21846967915e-07,0.9022118,0.91201845,13.83718315,9e-08,0.0,0.0,0.0,9e-08,0.0,0.0,0.0,9e-08
1531943824910246939,688,1531943824909998366,base_link,-0.377779402925,-0.150180297242,-0.364711062948,-0.837683974783,1.0,0.0,0.0,0.0,1.0,0.0,0.0,0.0,1.0,-0.0496714711189,-0.573751926422,-0.295984566212,1.21846967915e-07,0.0,0.0,0.0,1.21846967915e-07,0.0,0.0,0.0,1.21846967915e-07,1.55925735,0.4903325,15.69064,9e-08,0.0,0.0,0.0,9e-08,0.0,0.0,0.0,9e-08
1531943825333585309,689,1531943825333186466,base_link,-0.369282210772,-0.0819867090152,-0.27319136168,-0.884463288247,1.0,0.0,0.0,0.0,1.0,0.0,0.0,0.0,1.0,-0.331915229559,-0.436006784439,-0.351119160652,1.21846967915e-07,0.0,0.0,0.0,1.21846967915e-07,0.0,0.0,0.0,1.21846967915e-07,1.14737805,0.53936575,13.8469898,9e-08,0.0,0.0,0.0,9e-08,0.0,0.0,0.0,9e-08
1531943825706207765,690,1531943825705608637,base_link,-0.327582733336,-0.0186024538567,-0.197462556324,-0.923770556134,1.0,0.0,0.0,0.0,1.0,0.0,0.0,0.0,1.0,-0.393021076918,-0.332194596529,-0.216732606292,1.21846967915e-07,0.0,0.0,0.0,1.21846967915e-07,0.0,0.0,0.0,1.21846967915e-07,0.7060788,0.2941995,14.8864947,9e-08,0.0,0.0,0.0,9e-08,0.0,0.0,0.0,9e-08
1531943825973392520,691,1531943825970901511,base_link,-0.28279444154,0.0270577565659,-0.154935634879,-0.94619772283,1.0,0.0,0.0,0.0,1.0,0.0,0.0,0.0,1.0,-0.500093340874,-0.227761670947,-0.208345785737,1.21846967915e-07,0.0,0.0,0.0,1.21846967915e-07,0.0,0.0,0.0,1.21846967915e-07,0.4314926,0.51975245,13.99408955,9e-08,0.0,0.0,0.0,9e-08,0.0,0.0,0.0,9e-08
1531943826425197814,692,1531943826421364774,base_link,-0.15794653605,0.0581509896241,-0.0963330542547,-0.98101544168,1.0,0.0,0.0,0.0,1.0,0.0,0.0,0.0,1.0,-0.669100642204,-0.0149485580623,-0.194219723344,1.21846967915e-07,0.0,0.0,0.0,1.21846967915e-07,0.0,0.0,0.0,1.21846967915e-07,0.30400615,0.22555295,10.1596894,9e-08,0.0,0.0,0.0,9e-08,0.0,0.0,0.0,9e-08
1531943826815813818,693,1531943826815457310,base_link,-0.0449488463651,0.0697503208853,-0.0551096638347,-0.995026340807,1.0,0.0,0.0,0.0,1.0,0.0,0.0,0.0,1.0,-0.435644805431,0.0272425040603,-0.0835534930229,1.21846967915e-07,0.0,0.0,0.0,1.21846967915e-07,0.0,0.0,0.0,1.21846967915e-07,0.4903325,-0.00980665,11.3364874,9e-08,0.0,0.0,0.0,9e-08,0.0,0.0,0.0,9e-08
1531943827227189603,694,1531943827226688201,base_link,0.0228263635623,0.0679611159993,-0.0406595458038,-0.996597734883,1.0,0.0,0.0,0.0,1.0,0.0,0.0,0.0,1.0,-0.151406764984,0.0072830170393,-0.0427022017539,1.21846967915e-07,0.0,0.0,0.0,1.21846967915e-07,0.0,0.0,0.0,1.21846967915e-07,0.8237586,-0.1176798,8.85540495,9e-08,0.0,0.0,0.0,9e-08,0.0,0.0,0.0,9e-08
1531943827725572768,695,1531943827725181733,base_link,0.0660374103262,0.0583754813027,-0.050313769036,-0.994836613854,1.0,0.0,0.0,0.0,1.0,0.0,0.0,0.0,1.0,-0.0352502353489,0.0888255089521,0.113398842514,1.21846967915e-07,0.0,0.0,0.0,1.21846967915e-07,0.0,0.0,0.0,1.21846967915e-07,1.1375714,-0.06864655,8.5513988,9e-08,0.0,0.0,0.0,9e-08,0.0,0.0,0.0,9e-08
1531943828124052975,696,1531943828121162195,base_link,0.0842481858079,0.0452104414144,-0.0707723061237,-0.992899561819,1.0,0.0,0.0,0.0,1.0,0.0,0.0,0.0,1.0,-0.129684627056,0.0273287352175,0.071732878685,1.21846967915e-07,0.0,0.0,0.0,1.21846967915e-07,0.0,0.0,0.0,1.21846967915e-07,1.0198916,0.24516625,7.95319315,9e-08,0.0,0.0,0.0,9e-08,0.0,0.0,0.0,9e-08
1531943828558824550,697,1531943828558584041,base_link,0.110580212483,0.0254510013005,-0.0868808235329,-0.9897353109,1.0,0.0,0.0,0.0,1.0,0.0,0.0,0.0,1.0,0.228398099542,0.0974652916193,0.0536396577954,1.21846967915e-07,0.0,0.0,0.0,1.21846967915e-07,0.0,0.0,0.0,1.21846967915e-07,1.1964113,9.69181380402e-16,7.91396655,9e-08,0.0,0.0,0.0,9e-08,0.0,0.0,0.0,9e-08
1531943828898618415,698,1531943828898240563,base_link,0.0636345595785,0.0149446024873,-0.105159367404,-0.992304796487,1.0,0.0,0.0,0.0,1.0,0.0,0.0,0.0,1.0,0.306445926428,-0.00798338837922,0.144717171788,1.21846967915e-07,0.0,0.0,0.0,1.21846967915e-07,0.0,0.0,0.0,1.21846967915e-07,1.2748645,0.06864655,9.218251,9e-08,0.0,0.0,0.0,9e-08,0.0,0.0,0.0,9e-08
1531943829333810089,699,1531943829329202210,base_link,4.95975664359e-05,-0.00818831984887,-0.128623831466,-0.991659648739,1.0,0.0,0.0,0.0,1.0,0.0,0.0,0.0,1.0,0.298948645592,0.0548645481467,0.0456643104553,1.21846967915e-07,0.0,0.0,0.0,1.21846967915e-07,0.0,0.0,0.0,1.21846967915e-07,1.30428445,0.1372931,9.6497436,9e-08,0.0,0.0,0.0,9e-08,0.0,0.0,0.0,9e-08
1531943829773037685,700,1531943829770609875,base_link,-0.0411953023505,-0.0196113052937,-0.12295935401,-0.991362366156,1.0,0.0,0.0,0.0,1.0,0.0,0.0,0.0,1.0,0.100152894855,-0.0528750047088,-0.0908854305744,1.21846967915e-07,0.0,0.0,0.0,1.21846967915e-07,0.0,0.0,0.0,1.21846967915e-07,0.8237586,0.36284605,9.73800345,9e-08,0.0,0.0,0.0,9e-08,0.0,0.0,0.0,9e-08
1531943830216543825,701,1531943830216275157,base_link,-0.0705203179902,-0.0128141969661,-0.0836716188944,-0.993912340852,1.0,0.0,0.0,0.0,1.0,0.0,0.0,0.0,1.0,-0.158774927258,-0.0605742372572,-0.329002022743,1.21846967915e-07,0.0,0.0,0.0,1.21846967915e-07,0.0,0.0,0.0,1.21846967915e-07,0.6276256,0.61781895,12.6701918,9e-08,0.0,0.0,0.0,9e-08,0.0,0.0,0.0,9e-08
1531943830671922114,702,1531943830671638118,base_link,-0.0766937688667,-0.0201003599378,-0.0179994952454,-0.99668955022,1.0,0.0,0.0,0.0,1.0,0.0,0.0,0.0,1.0,0.0294536240399,-0.040070746094,-0.195521131158,1.21846967915e-07,0.0,0.0,0.0,1.21846967915e-07,0.0,0.0,0.0,1.21846967915e-07,0.28439285,-0.2941995,7.83551335,9e-08,0.0,0.0,0.0,9e-08,0.0,0.0,0.0,9e-08
1531943831038458165,703,1531943831037133478,base_link,-0.0941950445477,-0.00460902482526,-0.00685058555384,-0.995519522636,1.0,0.0,0.0,0.0,1.0,0.0,0.0,0.0,1.0,0.118952549994,-0.0951441451907,0.0810247287154,1.21846967915e-07,0.0,0.0,0.0,1.21846967915e-07,0.0,0.0,0.0,1.21846967915e-07,0.20593965,-0.18632635,10.99325465,9e-08,0.0,0.0,0.0,9e-08,0.0,0.0,0.0,9e-08
1531943831414700601,704,1531943831414438076,base_link,-0.0544891368912,0.0212331967645,-0.0324654352626,-0.997760532808,1.0,0.0,0.0,0.0,1.0,0.0,0.0,0.0,1.0,-0.420995235443,-0.136662691832,0.14262676239,1.21846967915e-07,0.0,0.0,0.0,1.21846967915e-07,0.0,0.0,0.0,1.21846967915e-07,0.8629852,0.18632635,12.05237285,9e-08,0.0,0.0,0.0,9e-08,0.0,0.0,0.0,9e-08
1531943831783772116,705,1531943831783532215,base_link,0.0085846498301,0.0184710876475,-0.0368389020588,-0.999113616164,1.0,0.0,0.0,0.0,1.0,0.0,0.0,0.0,1.0,-0.131563395262,0.141743883491,-0.153539463878,1.21846967915e-07,0.0,0.0,0.0,1.21846967915e-07,0.0,0.0,0.0,1.21846967915e-07,0.32361945,0.67665885,8.9632781,9e-08,0.0,0.0,0.0,9e-08,0.0,0.0,0.0,9e-08
1531943832137587214,706,1531943832136372509,base_link,0.000571770916874,0.00336108071606,-0.00943639218232,-0.999949664092,1.0,0.0,0.0,0.0,1.0,0.0,0.0,0.0,1.0,0.158028125763,0.0113188419491,-0.0769645944238,1.21846967915e-07,0.0,0.0,0.0,1.21846967915e-07,0.0,0.0,0.0,1.21846967915e-07,0.5099458,-0.50013915,9.2378643,9e-08,0.0,0.0,0.0,9e-08,0.0,0.0,0.0,9e-08
1531943832416762749,707,1531943832416071141,base_link,-0.00961954650897,-0.00428181037559,-0.0148627383833,-0.999834100955,1.0,0.0,0.0,0.0,1.0,0.0,0.0,0.0,1.0,0.0178154595196,-0.0720835924149,0.0766749829054,1.21846967915e-07,0.0,0.0,0.0,1.21846967915e-07,0.0,0.0,0.0,1.21846967915e-07,0.2745862,-0.1372931,8.6494653,9e-08,0.0,0.0,0.0,9e-08,0.0,0.0,0.0,9e-08
1531943832754471489,708,1531943832754052838,base_link,-0.0199080765306,0.00452644778712,-0.0258803766909,-0.999456545259,1.0,0.0,0.0,0.0,1.0,0.0,0.0,0.0,1.0,-0.0456756055355,-0.00156419910491,0.0157922580838,1.21846967915e-07,0.0,0.0,0.0,1.21846967915e-07,0.0,0.0,0.0,1.21846967915e-07,0.392266,0.5295591,10.77750835,9e-08,0.0,0.0,0.0,9e-08,0.0,0.0,0.0,9e-08
1531943833194736997,709,1531943833194386537,base_link,-0.00803591337437,0.00922100910135,-0.0208721848059,-0.999707331667,1.0,0.0,0.0,0.0,1.0,0.0,0.0,0.0,1.0,0.0223449524492,0.0426018089056,-0.0233808998019,1.21846967915e-07,0.0,0.0,0.0,1.21846967915e-07,0.0,0.0,0.0,1.21846967915e-07,0.1569064,1.28983990403e-15,10.5323421,9e-08,0.0,0.0,0.0,9e-08,0.0,0.0,0.0,9e-08
1531943833556274510,710,1531943833555650294,base_link,-0.0184991119388,-0.00415731623699,-0.0278165808122,-0.999433208079,1.0,0.0,0.0,0.0,1.0,0.0,0.0,0.0,1.0,0.0182000994682,0.032681658864,0.0417346842587,1.21846967915e-07,0.0,0.0,0.0,1.21846967915e-07,0.0,0.0,0.0,1.21846967915e-07,0.06864655,0.12748645,7.9629998,9e-08,0.0,0.0,0.0,9e-08,0.0,0.0,0.0,9e-08
1531943833869954398,711,1531943833869711457,base_link,0.0205092757256,-0.00715729215932,-0.0306804079299,-0.999293177875,1.0,0.0,0.0,0.0,1.0,0.0,0.0,0.0,1.0,-0.133743956685,0.0388345830142,-0.0655050352216,1.21846967915e-07,0.0,0.0,0.0,1.21846967915e-07,0.0,0.0,0.0,1.21846967915e-07,0.02941995,0.4118793,9.79684335,9e-08,0.0,0.0,0.0,9e-08,0.0,0.0,0.0,9e-08
1531943834295408707,712,1531943834294881065,base_link,0.027407632172,-0.0166241088737,-0.0145158148658,-0.999380684135,1.0,0.0,0.0,0.0,1.0,0.0,0.0,0.0,1.0,-0.00892941467464,0.026774212718,-0.0569442845881,1.21846967915e-07,0.0,0.0,0.0,1.21846967915e-07,0.0,0.0,0.0,1.21846967915e-07,-0.0980665,-0.0588399,9.01231135,9e-08,0.0,0.0,0.0,9e-08,0.0,0.0,0.0,9e-08
1531943834635213021,713,1531943834633300052,base_link,-0.0343195080879,-0.013054813579,-0.0172573414577,-0.999176624713,1.0,0.0,0.0,0.0,1.0,0.0,0.0,0.0,1.0,0.445882260799,-0.00724838115275,0.0435361862183,1.21846967915e-07,0.0,0.0,0.0,1.21846967915e-07,0.0,0.0,0.0,1.21846967915e-07,0.02941995,1.40152995158e-15,11.44436055,9e-08,0.0,0.0,0.0,9e-08,0.0,0.0,0.0,9e-08
1531943834988651888,714,1531943834988292789,base_link,-0.0429518380496,-0.00946656388702,-0.0375324313663,-0.998327020756,1.0,0.0,0.0,0.0,1.0,0.0,0.0,0.0,1.0,0.0403399169445,-0.0271217636764,0.0888740569353,1.21846967915e-07,0.0,0.0,0.0,1.21846967915e-07,0.0,0.0,0.0,1.21846967915e-07,0.0196133,0.48052585,8.65927195,9e-08,0.0,0.0,0.0,9e-08,0.0,0.0,0.0,9e-08
1531943835397383214,715,1531943835396994546,base_link,-0.0252831549471,-0.0111588769846,-0.0322502212485,-0.99909767529,1.0,0.0,0.0,0.0,1.0,0.0,0.0,0.0,1.0,-0.244409069419,0.0818596258759,-0.036985501647,1.21846967915e-07,0.0,0.0,0.0,1.21846967915e-07,0.0,0.0,0.0,1.21846967915e-07,0.3726527,0.0196133,11.13054775,9e-08,0.0,0.0,0.0,9e-08,0.0,0.0,0.0,9e-08
1531943835696028548,716,1531943835693304101,base_link,0.0175959097341,-0.0137416769714,-0.0314316897149,-0.999256523199,1.0,0.0,0.0,0.0,1.0,0.0,0.0,0.0,1.0,0.595462083817,0.0202711448073,0.0811455100775,1.21846967915e-07,0.0,0.0,0.0,1.21846967915e-07,0.0,0.0,0.0,1.21846967915e-07,0.3334261,-0.8825985,6.080123,9e-08,0.0,0.0,0.0,9e-08,0.0,0.0,0.0,9e-08
1531943836058591283,717,1531943836058270327,base_link,-0.0127168710724,-0.0110762965841,-0.0609873697323,-0.997996060903,1.0,0.0,0.0,0.0,1.0,0.0,0.0,0.0,1.0,-0.235766291618,-0.00210402719676,0.118918046355,1.21846967915e-07,0.0,0.0,0.0,1.21846967915e-07,0.0,0.0,0.0,1.21846967915e-07,0.26477955,0.4903325,9.40457735,9e-08,0.0,0.0,0.0,9e-08,0.0,0.0,0.0,9e-08
1531943836507002809,718,1531943836503590754,base_link,0.00856143858684,-0.025148003174,-0.0579148772756,-0.997968008854,1.0,0.0,0.0,0.0,1.0,0.0,0.0,0.0,1.0,0.278782457113,0.0276458747685,-0.10436091572,1.21846967915e-07,0.0,0.0,0.0,1.21846967915e-07,0.0,0.0,0.0,1.21846967915e-07,0.93163175,0.34323275,9.63993695,9e-08,0.0,0.0,0.0,9e-08,0.0,0.0,0.0,9e-08
1531943836914323089,719,1531943836914035605,base_link,0.0152356874208,-0.0174705900922,-0.0478172483486,-0.998587083369,1.0,0.0,0.0,0.0,1.0,0.0,0.0,0.0,1.0,-0.207407459617,0.00437632855028,-0.0191802959889,1.21846967915e-07,0.0,0.0,0.0,1.21846967915e-07,0.0,0.0,0.0,1.21846967915e-07,0.5687857,0.67665885,11.6699135,9e-08,0.0,0.0,0.0,9e-08,0.0,0.0,0.0,9e-08
1531943837408970768,720,1531943837408205785,base_link,0.0265087356199,-0.00958428285045,-0.0288784466904,-0.999185400101,1.0,0.0,0.0,0.0,1.0,0.0,0.0,0.0,1.0,0.15641912818,-0.0371134132147,-0.00192165188491,1.21846967915e-07,0.0,0.0,0.0,1.21846967915e-07,0.0,0.0,0.0,1.21846967915e-07,0.3138128,-0.22555295,11.571847,9e-08,0.0,0.0,0.0,9e-08,0.0,0.0,0.0,9e-08
1531943837875640995,721,1531943837875112393,base_link,0.00599779224047,0.012910692836,-0.0459856589306,-0.998840657799,1.0,0.0,0.0,0.0,1.0,0.0,0.0,0.0,1.0,0.0651769340038,0.0510920807719,0.0520951747894,1.21846967915e-07,0.0,0.0,0.0,1.21846967915e-07,0.0,0.0,0.0,1.21846967915e-07,0.0784532,0.28439285,11.36590735,9e-08,0.0,0.0,0.0,9e-08,0.0,0.0,0.0,9e-08
1531943838177773920,722,1531943838168628367,base_link,-0.00185803060121,0.00956441350938,-0.0528220235838,-0.998556409794,1.0,0.0,0.0,0.0,1.0,0.0,0.0,0.0,1.0,0.14471308887,-0.00899984687567,0.0725025758147,1.21846967915e-07,0.0,0.0,0.0,1.21846967915e-07,0.0,0.0,0.0,1.21846967915e-07,0.1372931,0.2745862,9.63993695,9e-08,0.0,0.0,0.0,9e-08,0.0,0.0,0.0,9e-08
1531943838601612035,723,1531943838600453265,base_link,-0.0347861145137,0.01073964843,-0.0525819073988,-0.997952769024,1.0,0.0,0.0,0.0,1.0,0.0,0.0,0.0,1.0,0.153478145599,-0.0376599095762,-0.11200901866,1.21846967915e-07,0.0,0.0,0.0,1.21846967915e-07,0.0,0.0,0.0,1.21846967915e-07,0.2157463,0.3530394,8.12971285,9e-08,0.0,0.0,0.0,9e-08,0.0,0.0,0.0,9e-08
1531943838975567232,724,1531943838974849576,base_link,-0.050426987226,0.0124392219145,-0.0357964048934,-0.998008518057,1.0,0.0,0.0,0.0,1.0,0.0,0.0,0.0,1.0,0.0394812487066,0.0100637404248,-0.0505717098713,1.21846967915e-07,0.0,0.0,0.0,1.21846967915e-07,0.0,0.0,0.0,1.21846967915e-07,0.16671305,0.28439285,10.9246081,9e-08,0.0,0.0,0.0,9e-08,0.0,0.0,0.0,9e-08
1531943839398836946,725,1531943839398402615,base_link,-0.0596497125096,0.00395580717235,-0.0387404407503,-0.997459493733,1.0,0.0,0.0,0.0,1.0,0.0,0.0,0.0,1.0,0.035843718797,0.0307515002787,0.0761285573244,1.21846967915e-07,0.0,0.0,0.0,1.21846967915e-07,0.0,0.0,0.0,1.21846967915e-07,0.24516625,-0.5099458,6.14876955,9e-08,0.0,0.0,0.0,9e-08,0.0,0.0,0.0,9e-08
1531943839831638162,726,1531943839830212995,base_link,-0.0909923259196,0.00244630937336,-0.0471092664893,-0.994733697632,1.0,0.0,0.0,0.0,1.0,0.0,0.0,0.0,1.0,0.300837576389,0.0879284888506,-0.0998965203762,1.21846967915e-07,0.0,0.0,0.0,1.21846967915e-07,0.0,0.0,0.0,1.21846967915e-07,0.2941995,0.42168595,10.03220295,9e-08,0.0,0.0,0.0,9e-08,0.0,0.0,0.0,9e-08
1531943840314272833,727,1531943840312434871,base_link,-0.138008451557,-0.00677296701645,0.0037490214549,-0.99040079718,1.0,0.0,0.0,0.0,1.0,0.0,0.0,0.0,1.0,0.517946302891,-0.0792246088386,-0.167643383145,1.21846967915e-07,0.0,0.0,0.0,1.21846967915e-07,0.0,0.0,0.0,1.21846967915e-07,-0.1176798,-0.3530394,9.0025047,9e-08,0.0,0.0,0.0,9e-08,0.0,0.0,0.0,9e-08
1531943840730411539,728,1531943840729830234,base_link,-0.209982178952,0.0049403774512,0.0178140569504,-0.977530427439,1.0,0.0,0.0,0.0,1.0,0.0,0.0,0.0,1.0,0.151223808527,-0.146231025457,-0.0542377643287,1.21846967915e-07,0.0,0.0,0.0,1.21846967915e-07,0.0,0.0,0.0,1.21846967915e-07,0.2549729,0.2941995,10.7284751,9e-08,0.0,0.0,0.0,9e-08,0.0,0.0,0.0,9e-08
1531943841023419823,729,1531943841023136946,base_link,-0.234522007195,0.0197490572946,0.0426370695869,-0.970974501815,1.0,0.0,0.0,0.0,1.0,0.0,0.0,0.0,1.0,0.165957391262,-0.0622140578926,-0.224916487932,1.21846967915e-07,0.0,0.0,0.0,1.21846967915e-07,0.0,0.0,0.0,1.21846967915e-07,0.3334261,0.50013915,11.1599677,9e-08,0.0,0.0,0.0,9e-08,0.0,0.0,0.0,9e-08
1531943841483396924,730,1531943841482355016,base_link,-0.279774558643,0.0150815692838,0.118337870189,-0.952625262673,1.0,0.0,0.0,0.0,1.0,0.0,0.0,0.0,1.0,0.169983029366,-0.180925697088,-0.338513791561,1.21846967915e-07,0.0,0.0,0.0,1.21846967915e-07,0.0,0.0,0.0,1.21846967915e-07,-0.0980665,0.3138128,8.85540495,9e-08,0.0,0.0,0.0,9e-08,0.0,0.0,0.0,9e-08
1531943841775595720,731,1531943841775242956,base_link,-0.312339089506,0.0373657718104,0.170016802444,-0.933885634942,1.0,0.0,0.0,0.0,1.0,0.0,0.0,0.0,1.0,0.202903196216,-0.185235157609,-0.287330627441,1.21846967915e-07,0.0,0.0,0.0,1.21846967915e-07,0.0,0.0,0.0,1.21846967915e-07,0.0784532,0.5099458,12.0229529,9e-08,0.0,0.0,0.0,9e-08,0.0,0.0,0.0,9e-08
1531943842138496517,732,1531943842138243592,base_link,-0.337207539807,0.0800413700879,0.231885187069,-0.908907978945,1.0,0.0,0.0,0.0,1.0,0.0,0.0,0.0,1.0,0.00214989762753,-0.38762396574,-0.256013095379,1.21846967915e-07,0.0,0.0,0.0,1.21846967915e-07,0.0,0.0,0.0,1.21846967915e-07,0.3530394,0.3726527,14.87668805,9e-08,0.0,0.0,0.0,9e-08,0.0,0.0,0.0,9e-08
1531943842530093040,733,1531943842529324922,base_link,-0.364063530863,0.103370822776,0.296368115961,-0.876891189564,1.0,0.0,0.0,0.0,1.0,0.0,0.0,0.0,1.0,-0.119200095534,-0.170135423541,-0.492786079645,1.21846967915e-07,0.0,0.0,0.0,1.21846967915e-07,0.0,0.0,0.0,1.21846967915e-07,-0.18632635,0.95124505,8.7475318,9e-08,0.0,0.0,0.0,9e-08,0.0,0.0,0.0,9e-08
1531943842774196547,734,1531943842773775720,base_link,-0.35769093965,0.10578755164,0.364884621677,-0.853068226155,1.0,0.0,0.0,0.0,1.0,0.0,0.0,0.0,1.0,-0.0271817948669,-0.328218579292,-0.55580753088,1.21846967915e-07,0.0,0.0,0.0,1.21846967915e-07,0.0,0.0,0.0,1.21846967915e-07,-0.0980665,0.61781895,10.44408225,9e-08,0.0,0.0,0.0,9e-08,0.0,0.0,0.0,9e-08
1531943843136441777,735,1531943843134399561,base_link,-0.350661852524,0.138840440103,0.454092437604,-0.80719245257,1.0,0.0,0.0,0.0,1.0,0.0,0.0,0.0,1.0,0.0770320519805,-0.478116333485,-0.350994765759,1.21846967915e-07,0.0,0.0,0.0,1.21846967915e-07,0.0,0.0,0.0,1.21846967915e-07,-0.02941995,0.3530394,14.3569356,9e-08,0.0,0.0,0.0,9e-08,0.0,0.0,0.0,9e-08
1531943843480108354,736,1531943843479431306,base_link,-0.324581410599,0.188694967488,0.521533669228,-0.766187802696,1.0,0.0,0.0,0.0,1.0,0.0,0.0,0.0,1.0,-0.152650266886,-0.430809020996,-0.248579651117,1.21846967915e-07,0.0,0.0,0.0,1.21846967915e-07,0.0,0.0,0.0,1.21846967915e-07,-0.00980665,0.6472389,15.24934075,9e-08,0.0,0.0,0.0,9e-08,0.0,0.0,0.0,9e-08
1531943843917659184,737,1531943843915706087,base_link,-0.260360274592,0.212671262793,0.601772488112,-0.724467621049,1.0,0.0,0.0,0.0,1.0,0.0,0.0,0.0,1.0,-0.0751125067472,-0.306963443756,-0.3507784307,1.21846967915e-07,0.0,0.0,0.0,1.21846967915e-07,0.0,0.0,0.0,1.21846967915e-07,0.1569064,0.2549729,15.46508705,9e-08,0.0,0.0,0.0,9e-08,0.0,0.0,0.0,9e-08
1531943844416106094,738,1531943844415429751,base_link,0.192241433306,-0.230546214398,-0.670232551849,0.678734116418,1.0,0.0,0.0,0.0,1.0,0.0,0.0,0.0,1.0,-0.0330271013081,-0.290455400944,-0.194106653333,1.21846967915e-07,0.0,0.0,0.0,1.21846967915e-07,0.0,0.0,0.0,1.21846967915e-07,-0.20593965,0.14709975,12.24850585,9e-08,0.0,0.0,0.0,9e-08,0.0,0.0,0.0,9e-08
1531943844902050564,739,1531943844901204143,base_link,0.0904104166896,-0.186766499063,-0.730472182023,0.650657069947,1.0,0.0,0.0,0.0,1.0,0.0,0.0,0.0,1.0,-0.735522866249,-0.197273179889,-0.198175504804,1.21846967915e-07,0.0,0.0,0.0,1.21846967915e-07,0.0,0.0,0.0,1.21846967915e-07,0.3530394,0.36284605,13.7096967,9e-08,0.0,0.0,0.0,9e-08,0.0,0.0,0.0,9e-08
1531943845221533027,740,1531943845220488975,base_link,0.0131696569205,-0.115904568695,-0.764780611065,0.633642886831,1.0,0.0,0.0,0.0,1.0,0.0,0.0,0.0,1.0,-0.621992826462,-0.030726371333,-0.122745551169,1.21846967915e-07,0.0,0.0,0.0,1.21846967915e-07,0.0,0.0,0.0,1.21846967915e-07,0.2549729,0.3334261,12.160246,9e-08,0.0,0.0,0.0,9e-08,0.0,0.0,0.0,9e-08
1531943845619406365,741,1531943845615277294,base_link,-0.0521175142526,-0.0338422875237,-0.783272188165,0.618565391475,1.0,0.0,0.0,0.0,1.0,0.0,0.0,0.0,1.0,-0.413869380951,0.034914188087,-0.0167656783015,1.21846967915e-07,0.0,0.0,0.0,1.21846967915e-07,0.0,0.0,0.0,1.21846967915e-07,0.0392266,-0.26477955,9.1594111,9e-08,0.0,0.0,0.0,9e-08,0.0,0.0,0.0,9e-08
1531943846155457484,742,1531943846155012626,base_link,-0.0842234690668,0.0351392621334,-0.771653135656,0.629462530853,1.0,0.0,0.0,0.0,1.0,0.0,0.0,0.0,1.0,-0.228955119848,0.116710275412,0.136307939887,1.21846967915e-07,0.0,0.0,0.0,1.21846967915e-07,0.0,0.0,0.0,1.21846967915e-07,0.22555295,-0.1372931,7.83551335,9e-08,0.0,0.0,0.0,9e-08,0.0,0.0,0.0,9e-08
1531943846615758313,743,1531943846615279567,base_link,-0.105894135006,0.0758726878256,-0.7516325633,0.646589713188,1.0,0.0,0.0,0.0,1.0,0.0,0.0,0.0,1.0,-0.191173031926,-0.00214630737901,0.099508151412,1.21846967915e-07,0.0,0.0,0.0,1.21846967915e-07,0.0,0.0,0.0,1.21846967915e-07,0.784532,-0.0980665,9.36535075,9e-08,0.0,0.0,0.0,9e-08,0.0,0.0,0.0,9e-08
1531943846972984912,744,1531943846972615380,base_link,-0.103857196158,0.0758340285345,-0.733579430328,0.667326083952,1.0,0.0,0.0,0.0,1.0,0.0,0.0,0.0,1.0,0.091072961688,0.00385690201074,0.182000443339,1.21846967915e-07,0.0,0.0,0.0,1.21846967915e-07,0.0,0.0,0.0,1.21846967915e-07,0.69627215,0.1569064,9.75761675,9e-08,0.0,0.0,0.0,9e-08,0.0,0.0,0.0,9e-08
1531943847365994549,745,1531943847365651513,base_link,-0.0802580678598,0.067770883042,-0.719846133615,0.686139412856,1.0,0.0,0.0,0.0,1.0,0.0,0.0,0.0,1.0,0.246140599251,0.0292285569012,0.0748519077897,1.21846967915e-07,0.0,0.0,0.0,1.21846967915e-07,0.0,0.0,0.0,1.21846967915e-07,0.73549875,0.1569064,8.28661925,9e-08,0.0,0.0,0.0,9e-08,0.0,0.0,0.0,9e-08
1531943847773976457,746,1531943847771246890,base_link,-0.0269871170454,0.0381542055888,-0.711845834908,0.700779180223,1.0,0.0,0.0,0.0,1.0,0.0,0.0,0.0,1.0,0.170078590512,0.103559866548,0.0643839240074,1.21846967915e-07,0.0,0.0,0.0,1.21846967915e-07,0.0,0.0,0.0,1.21846967915e-07,0.9414384,0.00980665,7.9826131,9e-08,0.0,0.0,0.0,9e-08,0.0,0.0,0.0,9e-08
1531943848242774640,747,1531943848242385429,base_link,0.00310546167509,0.022558871358,-0.708393847993,0.705449934125,1.0,0.0,0.0,0.0,1.0,0.0,0.0,0.0,1.0,0.172498747706,-0.058442145586,0.0113530047238,1.21846967915e-07,0.0,0.0,0.0,1.21846967915e-07,0.0,0.0,0.0,1.21846967915e-07,0.95124505,-0.0196133,8.87501825,9e-08,0.0,0.0,0.0,9e-08,0.0,0.0,0.0,9e-08
1531943848524224680,748,1531943848522734777,base_link,-0.0149166133963,-0.000442104136438,0.700998442084,-0.713006650309,1.0,0.0,0.0,0.0,1.0,0.0,0.0,0.0,1.0,0.0938764438033,-0.0433139652014,0.0443989448249,1.21846967915e-07,0.0,0.0,0.0,1.21846967915e-07,0.0,0.0,0.0,1.21846967915e-07,1.0198916,0.1372931,9.9635564,9e-08,0.0,0.0,0.0,9e-08,0.0,0.0,0.0,9e-08
1531943848977430123,749,1531943848976622709,base_link,-0.03431089929,0.0176056025645,0.696008794157,-0.716996906133,1.0,0.0,0.0,0.0,1.0,0.0,0.0,0.0,1.0,0.0200464874506,-0.0526474788785,0.039597466588,1.21846967915e-07,0.0,0.0,0.0,1.21846967915e-07,0.0,0.0,0.0,1.21846967915e-07,0.5687857,0.3726527,9.77723005,9e-08,0.0,0.0,0.0,9e-08,0.0,0.0,0.0,9e-08
1531943849474343219,750,1531943849473969816,base_link,0.0295192959987,-0.0329262760136,-0.707967985845,0.704858711041,1.0,0.0,0.0,0.0,1.0,0.0,0.0,0.0,1.0,0.043799649924,-0.0995639786124,-0.157918795943,1.21846967915e-07,0.0,0.0,0.0,1.21846967915e-07,0.0,0.0,0.0,1.21846967915e-07,0.392266,0.4511059,11.7483667,9e-08,0.0,0.0,0.0,9e-08,0.0,0.0,0.0,9e-08
1531943849911079524,751,1531943849910750760,base_link,0.035252086587,-0.0504805354555,-0.719958515893,0.691280508422,1.0,0.0,0.0,0.0,1.0,0.0,0.0,0.0,1.0,-0.101004637778,0.00170137174428,0.0408575572073,1.21846967915e-07,0.0,0.0,0.0,1.21846967915e-07,0.0,0.0,0.0,1.21846967915e-07,0.3334261,-0.00980665,10.6696352,9e-08,0.0,0.0,0.0,9e-08,0.0,0.0,0.0,9e-08
1531943850415537053,752,1531943850415018339,base_link,0.0046148601726,-0.0190605153923,-0.720934373471,0.692725796378,1.0,0.0,0.0,0.0,1.0,0.0,0.0,0.0,1.0,0.0401375740767,0.014408191666,-0.0380861759186,1.21846967915e-07,0.0,0.0,0.0,1.21846967915e-07,0.0,0.0,0.0,1.21846967915e-07,0.0,0.02941995,7.7472535,9e-08,0.0,0.0,0.0,9e-08,0.0,0.0,0.0,9e-08
1531943850808768281,753,1531943850808539740,base_link,0.00285503328017,-0.00473810455389,-0.719775064023,0.694185318457,1.0,0.0,0.0,0.0,1.0,0.0,0.0,0.0,1.0,-0.106439113617,-0.0543349906802,0.0342426635325,1.21846967915e-07,0.0,0.0,0.0,1.21846967915e-07,0.0,0.0,0.0,1.21846967915e-07,-0.0196133,0.1372931,8.12971285,9e-08,0.0,0.0,0.0,9e-08,0.0,0.0,0.0,9e-08
1531943851339020873,754,1531943851335192215,base_link,-0.0282194340875,0.0148997403826,-0.715734896402,0.697642615778,1.0,0.0,0.0,0.0,1.0,0.0,0.0,0.0,1.0,-0.160362571478,-0.0339718982577,0.00755859864876,1.21846967915e-07,0.0,0.0,0.0,1.21846967915e-07,0.0,0.0,0.0,1.21846967915e-07,0.59820565,0.06864655,11.5914603,9e-08,0.0,0.0,0.0,9e-08,0.0,0.0,0.0,9e-08
1531943851648401482,755,1531943851647999182,base_link,-0.0279159967618,0.0222221850827,-0.71497025771,0.698243798544,1.0,0.0,0.0,0.0,1.0,0.0,0.0,0.0,1.0,0.0892569944263,-0.0101940538734,-0.00931860227138,1.21846967915e-07,0.0,0.0,0.0,1.21846967915e-07,0.0,0.0,0.0,1.21846967915e-07,0.34323275,-0.00980665,8.9828914,9e-08,0.0,0.0,0.0,9e-08,0.0,0.0,0.0,9e-08
1531943851906131595,756,1531943851905729712,base_link,-0.0224780196502,0.00522716653856,-0.715211687911,0.698526776035,1.0,0.0,0.0,0.0,1.0,0.0,0.0,0.0,1.0,0.176646962762,-0.0656166672707,-0.00056802527979,1.21846967915e-07,0.0,0.0,0.0,1.21846967915e-07,0.0,0.0,0.0,1.21846967915e-07,0.24516625,0.0196133,10.14988275,9e-08,0.0,0.0,0.0,9e-08,0.0,0.0,0.0,9e-08
1531943852204172981,757,1531943852203931160,base_link,-0.00828980073569,-0.014847566941,-0.713363483993,0.700587873622,1.0,0.0,0.0,0.0,1.0,0.0,0.0,0.0,1.0,0.196839243174,-0.00746619515121,0.00187263870612,1.21846967915e-07,0.0,0.0,0.0,1.21846967915e-07,0.0,0.0,0.0,1.21846967915e-07,0.16671305,0.2941995,9.9047165,9e-08,0.0,0.0,0.0,9e-08,0.0,0.0,0.0,9e-08
1531943852568855314,758,1531943852568360823,base_link,0.0421152319878,-0.0636109188803,-0.71123682876,0.698800494883,1.0,0.0,0.0,0.0,1.0,0.0,0.0,0.0,1.0,0.324743658304,-0.00475091673434,0.00472657289356,1.21846967915e-07,0.0,0.0,0.0,1.21846967915e-07,0.0,0.0,0.0,1.21846967915e-07,0.42168595,0.0588399,9.24767095,9e-08,0.0,0.0,0.0,9e-08,0.0,0.0,0.0,9e-08
1531943853074937775,759,1531943853074341430,base_link,0.0956253815412,-0.109795957806,-0.711483973684,0.687452681459,1.0,0.0,0.0,0.0,1.0,0.0,0.0,0.0,1.0,0.178793951869,0.0292199403048,-0.163549438119,1.21846967915e-07,0.0,0.0,0.0,1.21846967915e-07,0.0,0.0,0.0,1.21846967915e-07,0.2549729,0.63743225,8.28661925,9e-08,0.0,0.0,0.0,9e-08,0.0,0.0,0.0,9e-08
1531943853346403833,760,1531943853346105789,base_link,0.136779072252,-0.138454474818,-0.728043749402,0.65732346889,1.0,0.0,0.0,0.0,1.0,0.0,0.0,0.0,1.0,0.424295514822,0.0373735576868,-0.273217082024,1.21846967915e-07,0.0,0.0,0.0,1.21846967915e-07,0.0,0.0,0.0,1.21846967915e-07,0.1176798,0.2941995,7.7864801,9e-08,0.0,0.0,0.0,9e-08,0.0,0.0,0.0,9e-08
1531943853702961244,761,1531943853702661024,base_link,0.175628764711,-0.197921582101,-0.743041861924,0.614711620008,1.0,0.0,0.0,0.0,1.0,0.0,0.0,0.0,1.0,0.303713738918,-0.194115757942,-0.176839306951,1.21846967915e-07,0.0,0.0,0.0,1.21846967915e-07,0.0,0.0,0.0,1.21846967915e-07,0.81395195,0.00980665,10.3165958,9e-08,0.0,0.0,0.0,9e-08,0.0,0.0,0.0,9e-08
1531943854062133953,762,1531943854061829829,base_link,0.181094374663,-0.23443946065,-0.762045498869,0.575786092581,1.0,0.0,0.0,0.0,1.0,0.0,0.0,0.0,1.0,0.14726382494,-0.183602467179,-0.267169713974,1.21846967915e-07,0.0,0.0,0.0,1.21846967915e-07,0.0,0.0,0.0,1.21846967915e-07,0.93163175,0.38245935,11.03248125,9e-08,0.0,0.0,0.0,9e-08,0.0,0.0,0.0,9e-08
1531943854450774036,763,1531943854442087769,base_link,0.183136395283,-0.274650139195,-0.792111744876,0.513407582134,1.0,0.0,0.0,0.0,1.0,0.0,0.0,0.0,1.0,0.159550398588,-0.267497062683,-0.329908043146,1.21846967915e-07,0.0,0.0,0.0,1.21846967915e-07,0.0,0.0,0.0,1.21846967915e-07,0.8629852,0.48052585,12.356379,9e-08,0.0,0.0,0.0,9e-08,0.0,0.0,0.0,9e-08
1531943854734173400,764,1531943854733365377,base_link,0.16450782088,-0.296837760876,-0.819491893147,0.461798178487,1.0,0.0,0.0,0.0,1.0,0.0,0.0,0.0,1.0,-0.0195862092078,-0.318328529596,-0.325873613358,1.21846967915e-07,0.0,0.0,0.0,1.21846967915e-07,0.0,0.0,0.0,1.21846967915e-07,0.38245935,0.61781895,13.0820711,9e-08,0.0,0.0,0.0,9e-08,0.0,0.0,0.0,9e-08
1531943855055202852,765,1531943855054762537,base_link,0.136876051728,-0.317612142932,-0.847836256363,0.401946707316,1.0,0.0,0.0,0.0,1.0,0.0,0.0,0.0,1.0,0.121168211102,-0.345692098141,-0.316997349262,1.21846967915e-07,0.0,0.0,0.0,1.21846967915e-07,0.0,0.0,0.0,1.21846967915e-07,0.32361945,0.55897905,13.3566573,9e-08,0.0,0.0,0.0,9e-08,0.0,0.0,0.0,9e-08
1531943855372861789,766,1531943855372623200,base_link,0.107543797717,-0.342789670742,-0.869283684641,0.339522383389,1.0,0.0,0.0,0.0,1.0,0.0,0.0,0.0,1.0,-0.0241252630949,-0.364652454853,-0.29868260026,1.21846967915e-07,0.0,0.0,0.0,1.21846967915e-07,0.0,0.0,0.0,1.21846967915e-07,0.6080123,0.46091255,14.77862155,9e-08,0.0,0.0,0.0,9e-08,0.0,0.0,0.0,9e-08
1531943855619920720,767,1531943855619664243,base_link,0.0845029231856,-0.349886211341,-0.886182499122,0.291752417877,1.0,0.0,0.0,0.0,1.0,0.0,0.0,0.0,1.0,-0.055068615824,-0.339069902897,-0.330277442932,1.21846967915e-07,0.0,0.0,0.0,1.21846967915e-07,0.0,0.0,0.0,1.21846967915e-07,0.40207265,0.5295591,13.7489233,9e-08,0.0,0.0,0.0,9e-08,0.0,0.0,0.0,9e-08
1531943855975852585,768,1531943855975537740,base_link,0.0533022195525,-0.353422174508,-0.909058835061,0.214158059281,1.0,0.0,0.0,0.0,1.0,0.0,0.0,0.0,1.0,-0.0665474161506,-0.328445762396,-0.340205967426,1.21846967915e-07,0.0,0.0,0.0,1.21846967915e-07,0.0,0.0,0.0,1.21846967915e-07,0.08825985,0.42168595,12.71922505,9e-08,0.0,0.0,0.0,9e-08,0.0,0.0,0.0,9e-08
1531943856422622177,769,1531943856422255526,base_link,0.00677412518526,-0.336287664045,-0.932821227093,0.129264366797,1.0,0.0,0.0,0.0,1.0,0.0,0.0,0.0,1.0,-0.232214823365,-0.286417782307,-0.26522859931,1.21846967915e-07,0.0,0.0,0.0,1.21846967915e-07,0.0,0.0,0.0,1.21846967915e-07,0.12748645,0.67665885,12.22889255,9e-08,0.0,0.0,0.0,9e-08,0.0,0.0,0.0,9e-08
1531943856983557892,770,1531943856983075882,base_link,-0.0412121037984,-0.262828677585,-0.96376134311,0.019665255306,1.0,0.0,0.0,0.0,1.0,0.0,0.0,0.0,1.0,-0.492101401091,-0.236187785864,-0.264660149813,1.21846967915e-07,0.0,0.0,0.0,1.21846967915e-07,0.0,0.0,0.0,1.21846967915e-07,0.38245935,0.392266,12.552512,9e-08,0.0,0.0,0.0,9e-08,0.0,0.0,0.0,9e-08
1531943857441770241,771,1531943857440156628,base_link,-0.0728975341721,-0.149119732494,-0.985041375607,-0.0462897746189,1.0,0.0,0.0,0.0,1.0,0.0,0.0,0.0,1.0,-0.492924213409,-0.163409292698,-0.115597523749,1.21846967915e-07,0.0,0.0,0.0,1.21846967915e-07,0.0,0.0,0.0,1.21846967915e-07,0.51975245,0.2745862,11.8464332,9e-08,0.0,0.0,0.0,9e-08,0.0,0.0,0.0,9e-08
1531943857960930104,772,1531943857959969859,base_link,-0.077468322771,-0.0505185742453,-0.992455526937,-0.0804895004033,1.0,0.0,0.0,0.0,1.0,0.0,0.0,0.0,1.0,-0.309442907572,0.0349675416946,-0.111103072762,1.21846967915e-07,0.0,0.0,0.0,1.21846967915e-07,0.0,0.0,0.0,1.21846967915e-07,0.71588545,0.3334261,10.2185293,9e-08,0.0,0.0,0.0,9e-08,0.0,0.0,0.0,9e-08
1531943858321901002,773,1531943858314915643,base_link,-0.0631867617752,-0.00372643007731,-0.992339980128,-0.106089163892,1.0,0.0,0.0,0.0,1.0,0.0,0.0,0.0,1.0,-0.117636300623,0.0621245652437,-0.107034489512,1.21846967915e-07,0.0,0.0,0.0,1.21846967915e-07,0.0,0.0,0.0,1.21846967915e-07,0.588399,0.196133,9.4339973,9e-08,0.0,0.0,0.0,9e-08,0.0,0.0,0.0,9e-08
1531943858877824894,774,1531943858877449666,base_link,-0.0410172624326,0.0334458298258,-0.992628742223,-0.109028164996,1.0,0.0,0.0,0.0,1.0,0.0,0.0,0.0,1.0,-0.0911147966981,0.0647528171539,0.0867887064815,1.21846967915e-07,0.0,0.0,0.0,1.21846967915e-07,0.0,0.0,0.0,1.21846967915e-07,0.63743225,-0.1569064,7.50208725,9e-08,0.0,0.0,0.0,9e-08,0.0,0.0,0.0,9e-08
1531943859235485980,775,1531943859234976354,base_link,-0.0207997481973,0.0718575029504,-0.992615646211,-0.0954884738636,1.0,0.0,0.0,0.0,1.0,0.0,0.0,0.0,1.0,-0.3527084589,0.0951256901026,0.0632241815329,1.21846967915e-07,0.0,0.0,0.0,1.21846967915e-07,0.0,0.0,0.0,1.21846967915e-07,0.784532,0.16671305,7.8845466,9e-08,0.0,0.0,0.0,9e-08,0.0,0.0,0.0,9e-08
1531943859578393480,776,1531943859577995340,base_link,-0.00463550563367,0.0856285234897,-0.9928589393,-0.0829300591099,1.0,0.0,0.0,0.0,1.0,0.0,0.0,0.0,1.0,0.114887431264,0.0706244558096,0.12445449084,1.21846967915e-07,0.0,0.0,0.0,1.21846967915e-07,0.0,0.0,0.0,1.21846967915e-07,1.40235095,-0.20593965,8.99269805,9e-08,0.0,0.0,0.0,9e-08,0.0,0.0,0.0,9e-08
1531943860012846859,777,1531943860012573166,base_link,0.0156584658495,0.0547121701932,-0.997486985785,-0.0422031286736,1.0,0.0,0.0,0.0,1.0,0.0,0.0,0.0,1.0,0.245551973581,0.0879061967134,0.165666893125,1.21846967915e-07,0.0,0.0,0.0,1.21846967915e-07,0.0,0.0,0.0,1.21846967915e-07,1.26505785,0.2157463,7.10982125,9e-08,0.0,0.0,0.0,9e-08,0.0,0.0,0.0,9e-08
1531943860394679865,778,1531943860394193695,base_link,0.0301977343507,0.0501588405497,-0.997970967978,-0.0250226822586,1.0,0.0,0.0,0.0,1.0,0.0,0.0,0.0,1.0,-0.0434662513435,0.0680304244161,0.0221242755651,1.21846967915e-07,0.0,0.0,0.0,1.21846967915e-07,0.0,0.0,0.0,1.21846967915e-07,1.372931,0.50013915,7.40402075,9e-08,0.0,0.0,0.0,9e-08,0.0,0.0,0.0,9e-08
1531943860862465505,779,1531943860862081862,base_link,0.0306526316443,0.0589885776298,-0.99769860122,-0.0133515919308,1.0,0.0,0.0,0.0,1.0,0.0,0.0,0.0,1.0,-0.00225544720888,0.00461385305971,0.108203239739,1.21846967915e-07,0.0,0.0,0.0,1.21846967915e-07,0.0,0.0,0.0,1.21846967915e-07,1.75539035,0.1569064,10.24794925,9e-08,0.0,0.0,0.0,9e-08,0.0,0.0,0.0,9e-08
1531943861254198338,780,1531943861253890790,base_link,0.0233807550011,0.0372192497712,-0.999028627284,0.00314159344928,1.0,0.0,0.0,0.0,1.0,0.0,0.0,0.0,1.0,0.256785929203,-0.0878989249468,0.0462443418801,1.21846967915e-07,0.0,0.0,0.0,1.21846967915e-07,0.0,0.0,0.0,1.21846967915e-07,1.372931,0.38245935,10.1596894,9e-08,0.0,0.0,0.0,9e-08,0.0,0.0,0.0,9e-08
1531943861715386241,781,1531943861714714057,base_link,-0.0222211322494,-0.0101789988521,-0.999676047492,0.00709995307976,1.0,0.0,0.0,0.0,1.0,0.0,0.0,0.0,1.0,0.159238666296,-0.179001286626,-0.0502013079822,1.21846967915e-07,0.0,0.0,0.0,1.21846967915e-07,0.0,0.0,0.0,1.21846967915e-07,1.26505785,0.28439285,12.8663248,9e-08,0.0,0.0,0.0,9e-08,0.0,0.0,0.0,9e-08
1531943862113018755,782,1531943862112759430,base_link,-0.0446301299267,-0.0509782014076,-0.997693339345,0.00416834620092,1.0,0.0,0.0,0.0,1.0,0.0,0.0,0.0,1.0,0.157719999552,-0.0957498699427,-0.00363325374201,1.21846967915e-07,0.0,0.0,0.0,1.21846967915e-07,0.0,0.0,0.0,1.21846967915e-07,0.7256921,0.46091255,11.4345539,9e-08,0.0,0.0,0.0,9e-08,0.0,0.0,0.0,9e-08
1531943862490510867,783,1531943862490192215,base_link,-0.040312903006,-0.0682780365752,-0.996828291416,-0.00680712901134,1.0,0.0,0.0,0.0,1.0,0.0,0.0,0.0,1.0,0.04384322837,0.0695908293128,-0.124033346772,1.21846967915e-07,0.0,0.0,0.0,1.21846967915e-07,0.0,0.0,0.0,1.21846967915e-07,0.4314926,0.6276256,9.0613446,9e-08,0.0,0.0,0.0,9e-08,0.0,0.0,0.0,9e-08
1531943862980042611,784,1531943862974405268,base_link,-0.0466028042903,-0.0959486241977,-0.993632999619,-0.0362698527015,1.0,0.0,0.0,0.0,1.0,0.0,0.0,0.0,1.0,-0.0353221036494,-0.0221592430025,-0.0596505664289,1.21846967915e-07,0.0,0.0,0.0,1.21846967915e-07,0.0,0.0,0.0,1.21846967915e-07,1.0983448,0.0392266,9.71839015,9e-08,0.0,0.0,0.0,9e-08,0.0,0.0,0.0,9e-08
1531943863394688988,785,1531943863393407467,base_link,-0.0468541456785,-0.0696423695017,-0.995180615172,-0.0506968696182,1.0,0.0,0.0,0.0,1.0,0.0,0.0,0.0,1.0,-0.177291125059,0.0728277936578,-0.112540945411,1.21846967915e-07,0.0,0.0,0.0,1.21846967915e-07,0.0,0.0,0.0,1.21846967915e-07,1.2160246,0.4511059,10.05181625,9e-08,0.0,0.0,0.0,9e-08,0.0,0.0,0.0,9e-08
1531943863811864553,786,1531943863811380495,base_link,-0.0466029651004,-0.0480625958173,-0.994327949148,-0.0826442984766,1.0,0.0,0.0,0.0,1.0,0.0,0.0,0.0,1.0,-0.0661693364382,-0.0364395752549,-0.109341539443,1.21846967915e-07,0.0,0.0,0.0,1.21846967915e-07,0.0,0.0,0.0,1.21846967915e-07,0.77472535,0.2157463,10.9049948,9e-08,0.0,0.0,0.0,9e-08,0.0,0.0,0.0,9e-08
1531943864238581900,787,1531943864238111633,base_link,-0.0473253689252,-0.0189430722762,-0.99472705471,-0.0889918878165,1.0,0.0,0.0,0.0,1.0,0.0,0.0,0.0,1.0,-0.189965054393,-0.0297881942242,-0.020649317652,1.21846967915e-07,0.0,0.0,0.0,1.21846967915e-07,0.0,0.0,0.0,1.21846967915e-07,0.79433865,0.1372931,10.18910935,9e-08,0.0,0.0,0.0,9e-08,0.0,0.0,0.0,9e-08
1531943864682545451,788,1531943864680213030,base_link,-0.0379363075495,-0.0113924593189,-0.994593408036,-0.0959947974201,1.0,0.0,0.0,0.0,1.0,0.0,0.0,0.0,1.0,0.0406685359776,-0.0136642158031,-0.0179177559912,1.21846967915e-07,0.0,0.0,0.0,1.21846967915e-07,0.0,0.0,0.0,1.21846967915e-07,0.3138128,-0.20593965,9.54187045,9e-08,0.0,0.0,0.0,9e-08,0.0,0.0,0.0,9e-08
1531943865068746470,789,1531943865068276812,base_link,-0.030085386332,0.00281910762915,-0.996587664302,-0.0768111289036,1.0,0.0,0.0,0.0,1.0,0.0,0.0,0.0,1.0,-0.25352075696,0.0414716079831,0.122356787324,1.21846967915e-07,0.0,0.0,0.0,1.21846967915e-07,0.0,0.0,0.0,1.21846967915e-07,0.38245935,0.63743225,8.7475318,9e-08,0.0,0.0,0.0,9e-08,0.0,0.0,0.0,9e-08
1531943865397211616,790,1531943865396927427,base_link,-0.0147735612291,0.0350223418362,-0.996000167991,-0.080863111629,1.0,0.0,0.0,0.0,1.0,0.0,0.0,0.0,1.0,-0.096725679934,0.0476875603199,-0.103391669691,1.21846967915e-07,0.0,0.0,0.0,1.21846967915e-07,0.0,0.0,0.0,1.21846967915e-07,0.6080123,0.40207265,7.81590005,9e-08,0.0,0.0,0.0,9e-08,0.0,0.0,0.0,9e-08
1531943865871178094,791,1531943865870882386,base_link,-0.0164237892495,0.021461307747,-0.994929195822,-0.0968791345849,1.0,0.0,0.0,0.0,1.0,0.0,0.0,0.0,1.0,0.0965965613723,-0.0224840827286,0.0374787151814,1.21846967915e-07,0.0,0.0,0.0,1.21846967915e-07,0.0,0.0,0.0,1.21846967915e-07,0.7649187,-0.0784532,8.79656505,9e-08,0.0,0.0,0.0,9e-08,0.0,0.0,0.0,9e-08
1531943866278567648,792,1531943866278284804,base_link,-0.0257545034292,-0.00329826632337,-0.997339734821,-0.0681122627699,1.0,0.0,0.0,0.0,1.0,0.0,0.0,0.0,1.0,0.14051181078,-0.0298765283078,0.170246750116,1.21846967915e-07,0.0,0.0,0.0,1.21846967915e-07,0.0,0.0,0.0,1.21846967915e-07,1.10815145,0.0784532,10.7480884,9e-08,0.0,0.0,0.0,9e-08,0.0,0.0,0.0,9e-08
1531943866640998010,793,1531943866640198371,base_link,-0.026528597407,-0.00179640313107,-0.998135337958,-0.0549440949956,1.0,0.0,0.0,0.0,1.0,0.0,0.0,0.0,1.0,-0.099032253027,-0.0119782835245,-0.013374414295,1.21846967915e-07,0.0,0.0,0.0,1.21846967915e-07,0.0,0.0,0.0,1.21846967915e-07,0.8237586,0.42168595,10.1008495,9e-08,0.0,0.0,0.0,9e-08,0.0,0.0,0.0,9e-08
1531943867091329634,794,1531943867091077125,base_link,-0.0315723910382,0.00345879418192,-0.997764461684,-0.0587988083892,1.0,0.0,0.0,0.0,1.0,0.0,0.0,0.0,1.0,-0.00144612137228,-0.0171712934971,0.0256645381451,1.21846967915e-07,0.0,0.0,0.0,1.21846967915e-07,0.0,0.0,0.0,1.21846967915e-07,0.7649187,-0.0588399,10.2577559,9e-08,0.0,0.0,0.0,9e-08,0.0,0.0,0.0,9e-08
1531943867597324371,795,1531943867597049878,base_link,-0.0354323985875,0.0109484463837,-0.998682202593,-0.0354758351037,1.0,0.0,0.0,0.0,1.0,0.0,0.0,0.0,1.0,0.203706368804,0.0522104948759,0.0922546461225,1.21846967915e-07,0.0,0.0,0.0,1.21846967915e-07,0.0,0.0,0.0,1.21846967915e-07,0.71588545,0.51975245,9.1397978,9e-08,0.0,0.0,0.0,9e-08,0.0,0.0,0.0,9e-08
1531943868080205613,796,1531943868079939600,base_link,-0.0263681143207,0.00430816553848,-0.998782341002,-0.0414728532935,1.0,0.0,0.0,0.0,1.0,0.0,0.0,0.0,1.0,-0.071781411767,0.0585921257734,-0.0713693648577,1.21846967915e-07,0.0,0.0,0.0,1.21846967915e-07,0.0,0.0,0.0,1.21846967915e-07,0.6276256,0.4903325,10.07142955,9e-08,0.0,0.0,0.0,9e-08,0.0,0.0,0.0,9e-08
1531943868473353299,797,1531943868472968247,base_link,-0.0243668849095,-0.0226090034271,-0.997784868281,-0.0576232983496,1.0,0.0,0.0,0.0,1.0,0.0,0.0,0.0,1.0,0.157178863883,-0.025373371318,-0.0746457129717,1.21846967915e-07,0.0,0.0,0.0,1.21846967915e-07,0.0,0.0,0.0,1.21846967915e-07,0.6276256,0.38245935,11.18938765,9e-08,0.0,0.0,0.0,9e-08,0.0,0.0,0.0,9e-08
1531943868878273617,798,1531943868877923221,base_link,-0.0249418807664,-0.0481936543345,-0.996476807184,-0.0639472205067,1.0,0.0,0.0,0.0,1.0,0.0,0.0,0.0,1.0,0.132257699966,0.0151703283191,-0.0246859807521,1.21846967915e-07,0.0,0.0,0.0,1.21846967915e-07,0.0,0.0,0.0,1.21846967915e-07,0.26477955,0.36284605,10.38524235,9e-08,0.0,0.0,0.0,9e-08,0.0,0.0,0.0,9e-08
1531943869219258961,799,1531943869219006484,base_link,-0.0246834845194,-0.061210402488,-0.995495444846,-0.0680649065923,1.0,0.0,0.0,0.0,1.0,0.0,0.0,0.0,1.0,-0.0422664247453,-0.00289642438293,-0.0494305789471,1.21846967915e-07,0.0,0.0,0.0,1.21846967915e-07,0.0,0.0,0.0,1.21846967915e-07,0.1176798,0.14709975,9.30651085,9e-08,0.0,0.0,0.0,9e-08,0.0,0.0,0.0,9e-08
1531943869554687026,800,1531943869554245431,base_link,-0.0191887060208,-0.055011607836,-0.994737099292,-0.0842829748914,1.0,0.0,0.0,0.0,1.0,0.0,0.0,0.0,1.0,-0.0548412464559,0.0164195559919,-0.136937454343,1.21846967915e-07,0.0,0.0,0.0,1.21846967915e-07,0.0,0.0,0.0,1.21846967915e-07,0.0196133,0.2353596,9.5909037,9e-08,0.0,0.0,0.0,9e-08,0.0,0.0,0.0,9e-08
1531943869979137048,801,1531943869978837628,base_link,-0.00791917788566,-0.0619751274707,-0.990947786737,-0.118822784674,1.0,0.0,0.0,0.0,1.0,0.0,0.0,0.0,1.0,0.111858397722,0.0394081920385,-0.13339650631,1.21846967915e-07,0.0,0.0,0.0,1.21846967915e-07,0.0,0.0,0.0,1.21846967915e-07,0.0196133,-0.10787315,7.7472535,9e-08,0.0,0.0,0.0,9e-08,0.0,0.0,0.0,9e-08
1531943870386182573,802,1531943870385687987,base_link,0.00173129994243,-0.0612782165821,-0.991287052923,-0.116584567936,1.0,0.0,0.0,0.0,1.0,0.0,0.0,0.0,1.0,-0.138212621212,0.0538114532828,0.00233330158517,1.21846967915e-07,0.0,0.0,0.0,1.21846967915e-07,0.0,0.0,0.0,1.21846967915e-07,-0.1372931,0.46091255,7.3549875,9e-08,0.0,0.0,0.0,9e-08,0.0,0.0,0.0,9e-08
1531943870788109021,803,1531943870787798689,base_link,0.0191689904437,-0.0281860852871,-0.991046215508,-0.129094899702,1.0,0.0,0.0,0.0,1.0,0.0,0.0,0.0,1.0,-0.12992683053,0.0331013128161,-0.0654796883464,1.21846967915e-07,0.0,0.0,0.0,1.21846967915e-07,0.0,0.0,0.0,1.21846967915e-07,0.0980665,0.10787315,8.60043205,9e-08,0.0,0.0,0.0,9e-08,0.0,0.0,0.0,9e-08
1531943871290408695,804,1531943871289925885,base_link,0.0177402097848,-0.00534637077213,-0.991100033504,-0.131823460979,1.0,0.0,0.0,0.0,1.0,0.0,0.0,0.0,1.0,0.00106678064913,-0.0629559606314,0.0460264794528,1.21846967915e-07,0.0,0.0,0.0,1.21846967915e-07,0.0,0.0,0.0,1.21846967915e-07,0.32361945,0.1569064,11.32668075,9e-08,0.0,0.0,0.0,9e-08,0.0,0.0,0.0,9e-08
1531943871730367517,805,1531943871729772484,base_link,0.0104615015902,0.019100585244,-0.992274341323,-0.122136629152,1.0,0.0,0.0,0.0,1.0,0.0,0.0,0.0,1.0,-0.143586829305,-0.0198199655861,0.0121887587011,1.21846967915e-07,0.0,0.0,0.0,1.21846967915e-07,0.0,0.0,0.0,1.21846967915e-07,0.1569064,-0.1176798,11.30706745,9e-08,0.0,0.0,0.0,9e-08,0.0,0.0,0.0,9e-08
1531943872071635177,806,1531943872071025776,base_link,0.00585855934196,0.0249645315917,-0.993870326355,-0.107537081217,1.0,0.0,0.0,0.0,1.0,0.0,0.0,0.0,1.0,-0.0746605619788,-0.0570249147713,0.116992980242,1.21846967915e-07,0.0,0.0,0.0,1.21846967915e-07,0.0,0.0,0.0,1.21846967915e-07,-0.30400615,0.10787315,9.75761675,9e-08,0.0,0.0,0.0,9e-08,0.0,0.0,0.0,9e-08
1531943872475208597,807,1531943872474480574,base_link,-0.00157803348997,0.044960529077,-0.994924840525,-0.090003457393,1.0,0.0,0.0,0.0,1.0,0.0,0.0,0.0,1.0,0.0434380024672,-0.0335157513618,0.0755486786366,1.21846967915e-07,0.0,0.0,0.0,1.21846967915e-07,0.0,0.0,0.0,1.21846967915e-07,-0.02941995,0.02941995,11.6895268,9e-08,0.0,0.0,0.0,9e-08,0.0,0.0,0.0,9e-08
1531943872884588831,808,1531943872884021638,base_link,-0.00566936887168,0.0403540602803,-0.997075963276,-0.0646446558767,1.0,0.0,0.0,0.0,1.0,0.0,0.0,0.0,1.0,0.102759502828,-0.0292628947645,0.156850844622,1.21846967915e-07,0.0,0.0,0.0,1.21846967915e-07,0.0,0.0,0.0,1.21846967915e-07,0.0392266,0.24516625,10.2969825,9e-08,0.0,0.0,0.0,9e-08,0.0,0.0,0.0,9e-08
1531943873215895909,809,1531943873210717696,base_link,-0.00660215873637,0.00964736191471,-0.998798416658,-0.0475926758031,1.0,0.0,0.0,0.0,1.0,0.0,0.0,0.0,1.0,0.149257585406,0.0413415394723,0.0723425149918,1.21846967915e-07,0.0,0.0,0.0,1.21846967915e-07,0.0,0.0,0.0,1.21846967915e-07,-0.2157463,0.06864655,8.79656505,9e-08,0.0,0.0,0.0,9e-08,0.0,0.0,0.0,9e-08
1531943873614632942,810,1531943873611494770,base_link,0.00364500632679,0.0100173442228,-0.998799788887,-0.0478053183635,1.0,0.0,0.0,0.0,1.0,0.0,0.0,0.0,1.0,-0.0418063476682,0.0604985058308,-0.0380214191973,1.21846967915e-07,0.0,0.0,0.0,1.21846967915e-07,0.0,0.0,0.0,1.21846967915e-07,-0.04903325,1.14692468189e-15,9.36535075,9e-08,0.0,0.0,0.0,9e-08,0.0,0.0,0.0,9e-08
1531943874008112691,811,1531943874003953794,base_link,0.0150249214703,-0.0244228060635,-0.998126645115,-0.0540460784072,1.0,0.0,0.0,0.0,1.0,0.0,0.0,0.0,1.0,0.368734389544,0.0868921205401,0.00329395243898,1.21846967915e-07,0.0,0.0,0.0,1.21846967915e-07,0.0,0.0,0.0,1.21846967915e-07,0.1765197,0.0392266,6.0605097,9e-08,0.0,0.0,0.0,9e-08,0.0,0.0,0.0,9e-08
1531943874603548970,812,1531943874603170510,base_link,0.0302169050606,-0.0552994746458,-0.996407758772,-0.0565728292716,1.0,0.0,0.0,0.0,1.0,0.0,0.0,0.0,1.0,-0.00982607714832,0.0195917114615,-0.0886302962899,1.21846967915e-07,0.0,0.0,0.0,1.21846967915e-07,0.0,0.0,0.0,1.21846967915e-07,0.40207265,0.3334261,8.2179727,9e-08,0.0,0.0,0.0,9e-08,0.0,0.0,0.0,9e-08
1531943875035173478,813,1531943875034824554,base_link,0.0338985215548,-0.0531959494665,-0.995235410939,-0.0743475487777,1.0,0.0,0.0,0.0,1.0,0.0,0.0,0.0,1.0,0.112511746585,0.026257622987,-0.10907369107,1.21846967915e-07,0.0,0.0,0.0,1.21846967915e-07,0.0,0.0,0.0,1.21846967915e-07,0.4118793,0.00980665,9.14960445,9e-08,0.0,0.0,0.0,9e-08,0.0,0.0,0.0,9e-08
1531943875485188087,814,1531943875484636317,base_link,0.0254290105238,-0.105573541276,-0.98942567132,-0.0961479783438,1.0,0.0,0.0,0.0,1.0,0.0,0.0,0.0,1.0,0.154681250453,-0.0577330589294,-0.120940178633,1.21846967915e-07,0.0,0.0,0.0,1.21846967915e-07,0.0,0.0,0.0,1.21846967915e-07,0.2745862,0.6080123,10.7088618,9e-08,0.0,0.0,0.0,9e-08,0.0,0.0,0.0,9e-08
1531943875921927102,815,1531943875920239889,base_link,0.0117713341983,-0.127655598593,-0.983302322143,-0.129158921901,1.0,0.0,0.0,0.0,1.0,0.0,0.0,0.0,1.0,0.0711934641004,-0.0980681329966,-0.183879733086,1.21846967915e-07,0.0,0.0,0.0,1.21846967915e-07,0.0,0.0,0.0,1.21846967915e-07,0.20593965,0.69627215,9.75761675,9e-08,0.0,0.0,0.0,9e-08,0.0,0.0,0.0,9e-08
1531943876425795412,816,1531943876420118420,base_link,-0.0268385141093,-0.193238506186,-0.962319080929,-0.18942164704,1.0,0.0,0.0,0.0,1.0,0.0,0.0,0.0,1.0,0.205218657851,-0.192657291889,-0.131744638085,1.21846967915e-07,0.0,0.0,0.0,1.21846967915e-07,0.0,0.0,0.0,1.21846967915e-07,0.2549729,0.1765197,12.8859381,9e-08,0.0,0.0,0.0,9e-08,0.0,0.0,0.0,9e-08
1531943876818725972,817,1531943876817882941,base_link,-0.0608664910477,-0.189767884932,-0.956654904529,-0.212355394931,1.0,0.0,0.0,0.0,1.0,0.0,0.0,0.0,1.0,-0.0297743827105,-0.195573583245,-0.0181918628514,1.21846967915e-07,0.0,0.0,0.0,1.21846967915e-07,0.0,0.0,0.0,1.21846967915e-07,0.02941995,0.2157463,12.62115855,9e-08,0.0,0.0,0.0,9e-08,0.0,0.0,0.0,9e-08
