%time,field.header.seq,field.header.stamp,field.header.frame_id,field.status.status,field.status.service,field.latitude,field.longitude,field.altitude,field.position_covariance0,field.position_covariance1,field.position_covariance2,field.position_covariance3,field.position_covariance4,field.position_covariance5,field.position_covariance6,field.position_covariance7,field.position_covariance8,field.position_covariance_type
1531943810933532215,1286,1531943810933254299,base_link,0,1,40.5914601,-79.8995372,349.262177802,0.435600034618,0.0,0.0,0.0,0.435600034618,0.0,0.0,0.0,1.74240013847,1
1531943811143669052,1287,1531943811143058500,base_link,0,1,40.5914577,-79.8994915,349.442225421,0.435600034618,0.0,0.0,0.0,0.435600034618,0.0,0.0,0.0,1.74240013847,1
1531943811337496467,1288,1531943811337205271,base_link,0,1,40.5914567,-79.8994467,349.682271542,0.396899993992,0.0,0.0,0.0,0.396899993992,0.0,0.0,0.0,1.58759997597,1
1531943811548847210,1289,1531943811548014901,base_link,0,1,40.591456,-79.8994019,350.002317541,0.396899993992,0.0,0.0,0.0,0.396899993992,0.0,0.0,0.0,1.58759997597,1
1531943811742431204,1290,1531943811741930763,base_link,0,1,40.5914552,-79.8993577,350.452362974,0.396899993992,0.0,0.0,0.0,0.396899993992,0.0,0.0,0.0,1.58759997597,1
1531943811969366837,1291,1531943811968449121,base_link,0,1,40.5914548,-79.8993146,350.99240712,0.396899993992,0.0,0.0,0.0,0.396899993992,0.0,0.0,0.0,1.58759997597,1
1531943812166457926,1292,1531943812166114795,base_link,0,1,40.5914552,-79.8992725,351.632449915,0.47609999671,0.0,0.0,0.0,0.47609999671,0.0,0.0,0.0,1.90439998684,1
1531943812372751972,1293,1531943812372240394,base_link,0,1,40.5914572,-79.8992311,352.252491331,0.435600034618,0.0,0.0,0.0,0.435600034618,0.0,0.0,0.0,1.74240013847,1
1531943812555253104,1294,1531943812554350491,base_link,0,1,40.5914608,-79.8991897,352.802532083,0.372100017452,0.0,0.0,0.0,0.372100017452,0.0,0.0,0.0,1.48840006981,1
1531943812733277173,1295,1531943812732904026,base_link,0,1,40.5914659,-79.899149,353.242571496,0.372100017452,0.0,0.0,0.0,0.372100017452,0.0,0.0,0.0,1.48840006981,1
1531943812938656158,1296,1531943812937755753,base_link,0,1,40.5914734,-79.8991092,353.602608991,0.372100017452,0.0,0.0,0.0,0.372100017452,0.0,0.0,0.0,1.48840006981,1
1531943813139883104,1297,1531943813138976523,base_link,0,1,40.5914834,-79.8990706,353.922644221,0.372100017452,0.0,0.0,0.0,0.372100017452,0.0,0.0,0.0,1.48840006981,1
1531943813374089569,1298,1531943813373047982,base_link,0,1,40.5914973,-79.8990333,354.262676498,0.372100017452,0.0,0.0,0.0,0.372100017452,0.0,0.0,0.0,1.48840006981,1
1531943813546266965,1299,1531943813545922426,base_link,0,1,40.5915155,-79.8989987,354.702704226,0.372100017452,0.0,0.0,0.0,0.372100017452,0.0,0.0,0.0,1.48840006981,1
1531943813812166052,1300,1531943813810908371,base_link,0,1,40.5915379,-79.8989678,355.142726427,0.372100017452,0.0,0.0,0.0,0.372100017452,0.0,0.0,0.0,1.48840006981,1
1531943813935572100,1301,1531943813934880653,base_link,0,1,40.591564,-79.898941,355.622742901,0.372100017452,0.0,0.0,0.0,0.372100017452,0.0,0.0,0.0,1.48840006981,1
1531943814139858564,1302,1531943814139022351,base_link,0,1,40.5915927,-79.898919,356.142753394,0.372100017452,0.0,0.0,0.0,0.372100017452,0.0,0.0,0.0,1.48840006981,1
1531943814342338813,1303,1531943814341689318,base_link,0,1,40.5916238,-79.8989024,356.652757377,0.372100017452,0.0,0.0,0.0,0.372100017452,0.0,0.0,0.0,1.48840006981,1
1531943814538766147,1304,1531943814537613426,base_link,0,1,40.5916564,-79.8988921,357.242754306,0.372100017452,0.0,0.0,0.0,0.372100017452,0.0,0.0,0.0,1.48840006981,1
1531943814758010248,1305,1531943814757736203,base_link,0,1,40.5916898,-79.8988891,357.902743455,0.372100017452,0.0,0.0,0.0,0.372100017452,0.0,0.0,0.0,1.48840006981,1
1531943814939901798,1306,1531943814932618242,base_link,0,1,40.5917233,-79.8988931,358.622725422,0.372100017452,0.0,0.0,0.0,0.372100017452,0.0,0.0,0.0,1.48840006981,1
1531943815144562823,1307,1531943815140073280,base_link,0,1,40.591756,-79.8989037,359.382700991,0.372100017452,0.0,0.0,0.0,0.372100017452,0.0,0.0,0.0,1.48840006981,1
1531943815360308478,1308,1531943815359907427,base_link,0,1,40.5917871,-79.8989203,360.212671107,0.372100017452,0.0,0.0,0.0,0.372100017452,0.0,0.0,0.0,1.48840006981,1
1531943815539846782,1309,1531943815539282437,base_link,0,1,40.5918156,-79.898942,361.122637105,0.348099969053,0.0,0.0,0.0,0.348099969053,0.0,0.0,0.0,1.39239987621,1
1531943815737515065,1310,1531943815733057746,base_link,0,1,40.5918408,-79.8989681,362.14259999,0.372100017452,0.0,0.0,0.0,0.372100017452,0.0,0.0,0.0,1.48840006981,1
1531943815967191008,1311,1531943815966916291,base_link,0,1,40.5918632,-79.8989968,363.252561392,0.348099969053,0.0,0.0,0.0,0.348099969053,0.0,0.0,0.0,1.39239987621,1
1531943816144485313,1312,1531943816143149042,base_link,0,1,40.5918831,-79.8990258,364.362523531,0.348099969053,0.0,0.0,0.0,0.348099969053,0.0,0.0,0.0,1.39239987621,1
1531943816340520023,1313,1531943816340126492,base_link,0,1,40.5919013,-79.8990547,365.482486483,0.348099969053,0.0,0.0,0.0,0.348099969053,0.0,0.0,0.0,1.39239987621,1
1531943816543116570,1314,1531943816542262725,base_link,0,1,40.5919183,-79.8990835,366.56245004,0.348099969053,0.0,0.0,0.0,0.348099969053,0.0,0.0,0.0,1.39239987621,1
1531943816748625240,1315,1531943816748118750,base_link,0,1,40.5919346,-79.8991115,367.532414707,0.348099969053,0.0,0.0,0.0,0.348099969053,0.0,0.0,0.0,1.39239987621,1
1531943816980995779,1316,1531943816980555017,base_link,0,1,40.5919502,-79.8991382,368.392380994,0.348099969053,0.0,0.0,0.0,0.348099969053,0.0,0.0,0.0,1.39239987621,1
1531943817146190146,1317,1531943817145082512,base_link,0,1,40.5919654,-79.8991644,369.092347961,0.348099969053,0.0,0.0,0.0,0.348099969053,0.0,0.0,0.0,1.39239987621,1
1531943817366557962,1318,1531943817366304845,base_link,0,1,40.5919809,-79.8991899,369.652315521,0.348099969053,0.0,0.0,0.0,0.348099969053,0.0,0.0,0.0,1.39239987621,1
1531943817533930286,1319,1531943817533435892,base_link,0,1,40.5919968,-79.8992139,370.172284448,0.348099969053,0.0,0.0,0.0,0.348099969053,0.0,0.0,0.0,1.39239987621,1
1531943817776154723,1320,1531943817775883367,base_link,0,1,40.5920129,-79.8992375,370.362253703,0.348099969053,0.0,0.0,0.0,0.348099969053,0.0,0.0,0.0,1.39239987621,1
1531943817974863228,1321,1531943817974557728,base_link,0,1,40.5920291,-79.8992612,370.332222818,0.348099969053,0.0,0.0,0.0,0.348099969053,0.0,0.0,0.0,1.39239987621,1
1531943818145075712,1322,1531943818144717477,base_link,0,1,40.5920457,-79.8992844,369.97219228,0.348099969053,0.0,0.0,0.0,0.348099969053,0.0,0.0,0.0,1.39239987621,1
1531943818351478910,1323,1531943818350992100,base_link,0,1,40.5920619,-79.8993077,369.61216181,0.348099969053,0.0,0.0,0.0,0.348099969053,0.0,0.0,0.0,1.39239987621,1
1531943818560044992,1324,1531943818559634150,base_link,0,1,40.5920785,-79.8993309,369.102131278,0.348099969053,0.0,0.0,0.0,0.348099969053,0.0,0.0,0.0,1.39239987621,1
1531943818737004112,1325,1531943818736755315,base_link,0,1,40.5920952,-79.8993543,368.472100505,0.348099969053,0.0,0.0,0.0,0.348099969053,0.0,0.0,0.0,1.39239987621,1
1531943818953637197,1326,1531943818953375184,base_link,0,1,40.5921122,-79.8993775,367.802069814,0.348099969053,0.0,0.0,0.0,0.348099969053,0.0,0.0,0.0,1.39239987621,1
1531943819129204626,1327,1531943819126234263,base_link,0,1,40.5921298,-79.899401,367.062038573,0.348099969053,0.0,0.0,0.0,0.348099969053,0.0,0.0,0.0,1.39239987621,1
1531943819357148263,1328,1531943819356766219,base_link,0,1,40.5921475,-79.8994247,366.34200709,0.348099969053,0.0,0.0,0.0,0.348099969053,0.0,0.0,0.0,1.39239987621,1
1531943819570228182,1329,1531943819569801659,base_link,0,1,40.5921655,-79.8994488,365.611975078,0.348099969053,0.0,0.0,0.0,0.348099969053,0.0,0.0,0.0,1.39239987621,1
1531943819768671933,1330,1531943819768368481,base_link,0,1,40.592184,-79.8994731,364.97194266,0.348099969053,0.0,0.0,0.0,0.348099969053,0.0,0.0,0.0,1.39239987621,1
1531943819937800531,1331,1531943819937415544,base_link,0,1,40.5922025,-79.8994978,364.391909838,0.348099969053,0.0,0.0,0.0,0.348099969053,0.0,0.0,0.0,1.39239987621,1
1531943820141037314,1332,1531943820139532053,base_link,0,1,40.5922212,-79.8995229,363.881876529,0.348099969053,0.0,0.0,0.0,0.348099969053,0.0,0.0,0.0,1.39239987621,1
1531943820338803640,1333,1531943820338432284,base_link,0,1,40.5922404,-79.899548,363.371843018,0.348099969053,0.0,0.0,0.0,0.348099969053,0.0,0.0,0.0,1.39239987621,1
1531943820526032817,1334,1531943820525594614,base_link,0,1,40.5922593,-79.8995731,362.981809634,0.348099969053,0.0,0.0,0.0,0.348099969053,0.0,0.0,0.0,1.39239987621,1
1531943820759432616,1335,1531943820759033965,base_link,0,1,40.5922786,-79.8995982,362.61177609,0.348099969053,0.0,0.0,0.0,0.348099969053,0.0,0.0,0.0,1.39239987621,1
1531943820930942438,1336,1531943820930625962,base_link,0,1,40.5922979,-79.8996232,362.321742651,0.348099969053,0.0,0.0,0.0,0.348099969053,0.0,0.0,0.0,1.39239987621,1
1531943821134334232,1337,1531943821133872254,base_link,0,1,40.5923171,-79.899648,362.111709462,0.348099969053,0.0,0.0,0.0,0.348099969053,0.0,0.0,0.0,1.39239987621,1
1531943821355262033,1338,1531943821354566042,base_link,0,1,40.5923362,-79.8996718,361.991677336,0.348099969053,0.0,0.0,0.0,0.348099969053,0.0,0.0,0.0,1.39239987621,1
1531943821514415918,1339,1531943821514106706,base_link,0,1,40.5923557,-79.8996949,361.831645763,0.348099969053,0.0,0.0,0.0,0.348099969053,0.0,0.0,0.0,1.39239987621,1
1531943821799898785,1340,1531943821799438311,base_link,0,1,40.5923758,-79.899717,361.721614965,0.348099969053,0.0,0.0,0.0,0.348099969053,0.0,0.0,0.0,1.39239987621,1
1531943821910018690,1341,1531943821909663238,base_link,0,1,40.5923961,-79.8997378,361.681585412,0.348099969053,0.0,0.0,0.0,0.348099969053,0.0,0.0,0.0,1.39239987621,1
1531943822178304528,1342,1531943822177827222,base_link,0,1,40.5924168,-79.8997575,361.57155682,0.348099969053,0.0,0.0,0.0,0.348099969053,0.0,0.0,0.0,1.39239987621,1
1531943822339062621,1343,1531943822338803424,base_link,0,1,40.592438,-79.8997762,361.361529043,0.348099969053,0.0,0.0,0.0,0.348099969053,0.0,0.0,0.0,1.39239987621,1
1531943822540297458,1344,1531943822539802616,base_link,0,1,40.5924595,-79.8997934,361.151502674,0.348099969053,0.0,0.0,0.0,0.348099969053,0.0,0.0,0.0,1.39239987621,1
1531943822744194853,1345,1531943822743661195,base_link,0,1,40.5924819,-79.8998087,360.881477874,0.348099969053,0.0,0.0,0.0,0.348099969053,0.0,0.0,0.0,1.39239987621,1
1531943822931393032,1346,1531943822931062796,base_link,0,1,40.5925053,-79.8998215,360.601455212,0.348099969053,0.0,0.0,0.0,0.348099969053,0.0,0.0,0.0,1.39239987621,1
1531943823129996928,1347,1531943823129532230,base_link,0,1,40.5925297,-79.8998315,360.341434994,0.348099969053,0.0,0.0,0.0,0.348099969053,0.0,0.0,0.0,1.39239987621,1
1531943823329548783,1348,1531943823329030293,base_link,0,1,40.5925551,-79.8998385,360.011417424,0.348099969053,0.0,0.0,0.0,0.348099969053,0.0,0.0,0.0,1.39239987621,1
1531943823529814229,1349,1531943823529367706,base_link,0,1,40.5925812,-79.8998426,359.621402522,0.372100017452,0.0,0.0,0.0,0.372100017452,0.0,0.0,0.0,1.48840006981,1
1531943823743097496,1350,1531943823742564671,base_link,0,1,40.5926078,-79.8998431,359.211391084,0.348099969053,0.0,0.0,0.0,0.348099969053,0.0,0.0,0.0,1.39239987621,1
1531943823975508494,1351,1531943823975213874,base_link,0,1,40.5926346,-79.89984,358.781383234,0.348099969053,0.0,0.0,0.0,0.348099969053,0.0,0.0,0.0,1.39239987621,1
1531943824124490005,1352,1531943824123615295,base_link,0,1,40.5926615,-79.8998326,358.341379723,0.348099969053,0.0,0.0,0.0,0.348099969053,0.0,0.0,0.0,1.39239987621,1
1531943824367719241,1353,1531943824366966163,base_link,0,1,40.5926876,-79.8998206,357.971381228,0.348099969053,0.0,0.0,0.0,0.348099969053,0.0,0.0,0.0,1.39239987621,1
1531943824538516257,1354,1531943824538330596,base_link,0,1,40.5927128,-79.8998042,357.661387584,0.348099969053,0.0,0.0,0.0,0.348099969053,0.0,0.0,0.0,1.39239987621,1
1531943824739134439,1355,1531943824738887594,base_link,0,1,40.5927365,-79.8997834,357.401399039,0.348099969053,0.0,0.0,0.0,0.348099969053,0.0,0.0,0.0,1.39239987621,1
1531943824934906025,1356,1531943824933904309,base_link,0,1,40.5927585,-79.8997585,357.201415368,0.348099969053,0.0,0.0,0.0,0.348099969053,0.0,0.0,0.0,1.39239987621,1
1531943825139427554,1357,1531943825138961960,base_link,0,1,40.5927783,-79.8997296,356.991436673,0.348099969053,0.0,0.0,0.0,0.348099969053,0.0,0.0,0.0,1.39239987621,1
1531943825402897602,1358,1531943825402272746,base_link,0,1,40.5927951,-79.8996966,356.941463386,0.348099969053,0.0,0.0,0.0,0.348099969053,0.0,0.0,0.0,1.39239987621,1
1531943825585643211,1359,1531943825584678359,base_link,0,1,40.5928092,-79.899661,356.911493855,0.348099969053,0.0,0.0,0.0,0.348099969053,0.0,0.0,0.0,1.39239987621,1
1531943825779607400,1360,1531943825778847441,base_link,0,1,40.5928201,-79.8996232,356.961527878,0.348099969053,0.0,0.0,0.0,0.348099969053,0.0,0.0,0.0,1.39239987621,1
1531943826046412096,1361,1531943826045994950,base_link,0,1,40.5928277,-79.8995838,357.121564886,0.348099969053,0.0,0.0,0.0,0.348099969053,0.0,0.0,0.0,1.39239987621,1
1531943826140575956,1362,1531943826140105114,base_link,0,1,40.5928325,-79.8995436,357.401603858,0.348099969053,0.0,0.0,0.0,0.348099969053,0.0,0.0,0.0,1.39239987621,1
1531943826369098444,1363,1531943826368794096,base_link,0,1,40.592835,-79.8995032,357.75164398,0.348099969053,0.0,0.0,0.0,0.348099969053,0.0,0.0,0.0,1.39239987621,1
1531943826542707242,1364,1531943826542445709,base_link,0,1,40.5928359,-79.899463,358.091684556,0.348099969053,0.0,0.0,0.0,0.348099969053,0.0,0.0,0.0,1.39239987621,1
1531943826733711569,1365,1531943826733406805,base_link,0,1,40.5928357,-79.8994234,358.431724976,0.348099969053,0.0,0.0,0.0,0.348099969053,0.0,0.0,0.0,1.39239987621,1
1531943826975969118,1366,1531943826975075113,base_link,0,1,40.5928347,-79.8993841,358.85176542,0.348099969053,0.0,0.0,0.0,0.348099969053,0.0,0.0,0.0,1.39239987621,1
1531943827178993974,1367,1531943827178577179,base_link,0,1,40.5928334,-79.8993455,359.271805277,0.348099969053,0.0,0.0,0.0,0.348099969053,0.0,0.0,0.0,1.39239987621,1
1531943827342646835,1368,1531943827342063194,base_link,0,1,40.5928318,-79.8993072,359.681844954,0.348099969053,0.0,0.0,0.0,0.348099969053,0.0,0.0,0.0,1.39239987621,1
1531943827563678349,1369,1531943827563218482,base_link,0,1,40.5928304,-79.8992694,360.011884042,0.348099969053,0.0,0.0,0.0,0.348099969053,0.0,0.0,0.0,1.39239987621,1
1531943827746306752,1370,1531943827745375979,base_link,0,1,40.5928293,-79.899232,360.371922603,0.348099969053,0.0,0.0,0.0,0.348099969053,0.0,0.0,0.0,1.39239987621,1
1531943827959308253,1371,1531943827958909122,base_link,0,1,40.5928284,-79.8991947,360.691960981,0.348099969053,0.0,0.0,0.0,0.348099969053,0.0,0.0,0.0,1.39239987621,1
1531943828172825847,1372,1531943828172188607,base_link,0,1,40.592828,-79.8991578,360.911998749,0.348099969053,0.0,0.0,0.0,0.348099969053,0.0,0.0,0.0,1.39239987621,1
1531943828359307999,1373,1531943828359021762,base_link,0,1,40.5928283,-79.899121,361.08203613,0.348099969053,0.0,0.0,0.0,0.348099969053,0.0,0.0,0.0,1.39239987621,1
1531943828536353627,1374,1531943828535958656,base_link,0,1,40.5928292,-79.8990841,361.242073369,0.348099969053,0.0,0.0,0.0,0.348099969053,0.0,0.0,0.0,1.39239987621,1
1531943828748274058,1375,1531943828747994701,base_link,0,1,40.5928308,-79.8990471,361.372110425,0.348099969053,0.0,0.0,0.0,0.348099969053,0.0,0.0,0.0,1.39239987621,1
1531943828989827020,1376,1531943828989527023,base_link,0,1,40.592833,-79.8990101,361.402147237,0.348099969053,0.0,0.0,0.0,0.348099969053,0.0,0.0,0.0,1.39239987621,1
1531943829195153489,1377,1531943829194859828,base_link,0,1,40.5928356,-79.8989728,361.402184192,0.348099969053,0.0,0.0,0.0,0.348099969053,0.0,0.0,0.0,1.39239987621,1
1531943829347096614,1378,1531943829346814793,base_link,0,1,40.5928387,-79.8989351,361.382221352,0.348099969053,0.0,0.0,0.0,0.348099969053,0.0,0.0,0.0,1.39239987621,1
1531943829537866846,1379,1531943829536664685,base_link,0,1,40.5928419,-79.8988971,361.442258779,0.348099969053,0.0,0.0,0.0,0.348099969053,0.0,0.0,0.0,1.39239987621,1
1531943829739391698,1380,1531943829739008599,base_link,0,1,40.5928453,-79.8988586,361.472296635,0.348099969053,0.0,0.0,0.0,0.348099969053,0.0,0.0,0.0,1.39239987621,1
1531943829935761765,1381,1531943829935155181,base_link,0,1,40.5928489,-79.8988198,361.412334718,0.348099969053,0.0,0.0,0.0,0.348099969053,0.0,0.0,0.0,1.39239987621,1
1531943830145758741,1382,1531943830145438969,base_link,0,1,40.5928524,-79.8987809,361.352372946,0.348099969053,0.0,0.0,0.0,0.348099969053,0.0,0.0,0.0,1.39239987621,1
1531943830338914165,1383,1531943830338572249,base_link,0,1,40.5928556,-79.8987413,361.352412014,0.348099969053,0.0,0.0,0.0,0.348099969053,0.0,0.0,0.0,1.39239987621,1
1531943830550394548,1384,1531943830550190391,base_link,0,1,40.5928587,-79.8987012,361.332451634,0.384400005913,0.0,0.0,0.0,0.384400005913,0.0,0.0,0.0,1.53760002365,1
1531943830746864908,1385,1531943830746306034,base_link,0,1,40.5928614,-79.8986612,361.30249132,0.384400005913,0.0,0.0,0.0,0.384400005913,0.0,0.0,0.0,1.53760002365,1
1531943830937213390,1386,1531943830936728180,base_link,0,1,40.5928637,-79.8986209,361.202531479,0.384400005913,0.0,0.0,0.0,0.384400005913,0.0,0.0,0.0,1.53760002365,1
1531943831162031949,1387,1531943831161834768,base_link,0,1,40.5928653,-79.8985806,361.122571927,0.384400005913,0.0,0.0,0.0,0.384400005913,0.0,0.0,0.0,1.53760002365,1
1531943831371729767,1388,1531943831371224365,base_link,0,1,40.592866,-79.8985399,361.092613157,0.384400005913,0.0,0.0,0.0,0.384400005913,0.0,0.0,0.0,1.53760002365,1
1531943831565136776,1389,1531943831564879915,base_link,0,1,40.5928661,-79.8984991,361.172654737,0.384400005913,0.0,0.0,0.0,0.384400005913,0.0,0.0,0.0,1.53760002365,1
1531943831768654573,1390,1531943831768284082,base_link,0,1,40.5928657,-79.8984579,361.392696935,0.384400005913,0.0,0.0,0.0,0.384400005913,0.0,0.0,0.0,1.53760002365,1
1531943831944500965,1391,1531943831943786414,base_link,0,1,40.5928654,-79.8984167,361.642739094,0.384400005913,0.0,0.0,0.0,0.384400005913,0.0,0.0,0.0,1.53760002365,1
1531943832123614777,1392,1531943832123228509,base_link,0,1,40.5928653,-79.8983757,361.832780969,0.384400005913,0.0,0.0,0.0,0.384400005913,0.0,0.0,0.0,1.53760002365,1
1531943832367992464,1393,1531943832367686580,base_link,0,1,40.5928653,-79.8983347,361.932822806,0.384400005913,0.0,0.0,0.0,0.384400005913,0.0,0.0,0.0,1.53760002365,1
1531943832518462019,1394,1531943832518211718,base_link,0,1,40.5928652,-79.8982937,361.992864688,0.384400005913,0.0,0.0,0.0,0.384400005913,0.0,0.0,0.0,1.53760002365,1
1531943832720079109,1395,1531943832719617643,base_link,0,1,40.5928651,-79.8982526,362.022906674,0.384400005913,0.0,0.0,0.0,0.384400005913,0.0,0.0,0.0,1.53760002365,1
1531943832941350391,1396,1531943832940520065,base_link,0,1,40.5928648,-79.8982113,362.102948949,0.384400005913,0.0,0.0,0.0,0.384400005913,0.0,0.0,0.0,1.53760002365,1
1531943833139644548,1397,1531943833138877294,base_link,0,1,40.5928646,-79.89817,362.212991187,0.384400005913,0.0,0.0,0.0,0.384400005913,0.0,0.0,0.0,1.53760002365,1
1531943833377378707,1398,1531943833377032343,base_link,0,1,40.5928642,-79.8981287,362.383033509,0.384400005913,0.0,0.0,0.0,0.384400005913,0.0,0.0,0.0,1.53760002365,1
1531943833542630932,1399,1531943833542340536,base_link,0,1,40.5928632,-79.8980874,362.683076081,0.384400005913,0.0,0.0,0.0,0.384400005913,0.0,0.0,0.0,1.53760002365,1
1531943833766149520,1400,1531943833765899475,base_link,0,1,40.5928628,-79.8980464,362.743118103,0.384400005913,0.0,0.0,0.0,0.384400005913,0.0,0.0,0.0,1.53760002365,1
1531943833939511951,1401,1531943833939060116,base_link,0,1,40.5928623,-79.8980054,362.803160169,0.384400005913,0.0,0.0,0.0,0.384400005913,0.0,0.0,0.0,1.53760002365,1
1531943834157144117,1402,1531943834156467773,base_link,0,1,40.592862,-79.8979646,362.903201952,0.384400005913,0.0,0.0,0.0,0.384400005913,0.0,0.0,0.0,1.53760002365,1
1531943834335941942,1403,1531943834335322077,base_link,0,1,40.592862,-79.8979236,362.943243818,0.384400005913,0.0,0.0,0.0,0.384400005913,0.0,0.0,0.0,1.53760002365,1
1531943834569199424,1404,1531943834568521192,base_link,0,1,40.5928622,-79.8978828,362.9532854,0.384400005913,0.0,0.0,0.0,0.384400005913,0.0,0.0,0.0,1.53760002365,1
1531943834748966485,1405,1531943834748664024,base_link,0,1,40.5928623,-79.8978421,363.013326924,0.384400005913,0.0,0.0,0.0,0.384400005913,0.0,0.0,0.0,1.53760002365,1
1531943834920196593,1406,1531943834919494298,base_link,0,1,40.5928624,-79.8978015,363.093368349,0.384400005913,0.0,0.0,0.0,0.384400005913,0.0,0.0,0.0,1.53760002365,1
1531943835116833148,1407,1531943835115947622,base_link,0,1,40.5928623,-79.897761,363.173409757,0.384400005913,0.0,0.0,0.0,0.384400005913,0.0,0.0,0.0,1.53760002365,1
1531943835378010841,1408,1531943835377768092,base_link,0,1,40.592862,-79.8977204,363.183451352,0.384400005913,0.0,0.0,0.0,0.384400005913,0.0,0.0,0.0,1.53760002365,1
1531943835545676805,1409,1531943835545049069,base_link,0,1,40.5928616,-79.8976795,363.213493297,0.435600034618,0.0,0.0,0.0,0.435600034618,0.0,0.0,0.0,1.74240013847,1
1531943835739524468,1410,1531943835738959547,base_link,0,1,40.592861,-79.8976385,363.22353543,0.47609999671,0.0,0.0,0.0,0.47609999671,0.0,0.0,0.0,1.90439998684,1
1531943835949962649,1411,1531943835949413183,base_link,0,1,40.5928599,-79.8975972,363.163578079,0.396899993992,0.0,0.0,0.0,0.396899993992,0.0,0.0,0.0,1.58759997597,1
1531943836182511029,1412,1531943836182032187,base_link,0,1,40.5928591,-79.8975559,362.913620607,0.384400005913,0.0,0.0,0.0,0.384400005913,0.0,0.0,0.0,1.53760002365,1
1531943836349274353,1413,1531943836348542105,base_link,0,1,40.5928584,-79.8975143,362.613663403,0.384400005913,0.0,0.0,0.0,0.384400005913,0.0,0.0,0.0,1.53760002365,1
1531943836545248394,1414,1531943836544727536,base_link,0,1,40.5928579,-79.8974722,362.323706631,0.384400005913,0.0,0.0,0.0,0.384400005913,0.0,0.0,0.0,1.53760002365,1
1531943836777197903,1415,1531943836776513079,base_link,0,1,40.5928577,-79.8974299,362.043749942,0.384400005913,0.0,0.0,0.0,0.384400005913,0.0,0.0,0.0,1.53760002365,1
1531943836926077347,1416,1531943836925651432,base_link,0,1,40.5928577,-79.8973869,361.813793889,0.384400005913,0.0,0.0,0.0,0.384400005913,0.0,0.0,0.0,1.53760002365,1
1531943837146704948,1417,1531943837146074044,base_link,0,1,40.5928579,-79.8973435,361.703838166,0.384400005913,0.0,0.0,0.0,0.384400005913,0.0,0.0,0.0,1.53760002365,1
1531943837350939502,1418,1531943837350515635,base_link,0,1,40.5928583,-79.8972997,361.623882773,0.384400005913,0.0,0.0,0.0,0.384400005913,0.0,0.0,0.0,1.53760002365,1
1531943837542029606,1419,1531943837541790569,base_link,0,1,40.592859,-79.8972558,361.653927361,0.384400005913,0.0,0.0,0.0,0.384400005913,0.0,0.0,0.0,1.53760002365,1
1531943837743643231,1420,1531943837739254997,base_link,0,1,40.5928599,-79.8972119,361.71397187,0.384400005913,0.0,0.0,0.0,0.384400005913,0.0,0.0,0.0,1.53760002365,1
1531943837968640478,1421,1531943837967957126,base_link,0,1,40.5928608,-79.8971677,361.864016689,0.384400005913,0.0,0.0,0.0,0.384400005913,0.0,0.0,0.0,1.53760002365,1
1531943838149313112,1422,1531943838149040987,base_link,0,1,40.592862,-79.8971241,362.054060774,0.384400005913,0.0,0.0,0.0,0.384400005913,0.0,0.0,0.0,1.53760002365,1
1531943838370555336,1423,1531943838369984079,base_link,0,1,40.5928632,-79.8970806,362.234104759,0.435600034618,0.0,0.0,0.0,0.435600034618,0.0,0.0,0.0,1.74240013847,1
1531943838572328868,1424,1531943838571963689,base_link,0,1,40.5928643,-79.8970372,362.414148687,0.384400005913,0.0,0.0,0.0,0.384400005913,0.0,0.0,0.0,1.53760002365,1
1531943838796345012,1425,1531943838796027287,base_link,0,1,40.5928654,-79.896994,362.534192413,0.384400005913,0.0,0.0,0.0,0.384400005913,0.0,0.0,0.0,1.53760002365,1
1531943838929357998,1426,1531943838928979698,base_link,0,1,40.5928664,-79.8969509,362.614236081,0.384400005913,0.0,0.0,0.0,0.384400005913,0.0,0.0,0.0,1.53760002365,1
1531943839112652299,1427,1531943839111588344,base_link,0,1,40.5928671,-79.8969079,362.694279774,0.384400005913,0.0,0.0,0.0,0.384400005913,0.0,0.0,0.0,1.53760002365,1
1531943839366695029,1428,1531943839366221275,base_link,0,1,40.5928675,-79.8968652,362.784323287,0.384400005913,0.0,0.0,0.0,0.384400005913,0.0,0.0,0.0,1.53760002365,1
1531943839538574078,1429,1531943839538203234,base_link,0,1,40.5928674,-79.8968224,362.904367112,0.384400005913,0.0,0.0,0.0,0.384400005913,0.0,0.0,0.0,1.53760002365,1
1531943839736599500,1430,1531943839736086450,base_link,0,1,40.592867,-79.8967797,362.894410962,0.384400005913,0.0,0.0,0.0,0.384400005913,0.0,0.0,0.0,1.53760002365,1
1531943839941984832,1431,1531943839941231273,base_link,0,1,40.5928661,-79.8967368,362.894455225,0.384400005913,0.0,0.0,0.0,0.384400005913,0.0,0.0,0.0,1.53760002365,1
1531943840169295249,1432,1531943840168934005,base_link,0,1,40.592865,-79.8966942,362.854499268,0.384400005913,0.0,0.0,0.0,0.384400005913,0.0,0.0,0.0,1.53760002365,1
1531943840340359015,1433,1531943840339880845,base_link,0,1,40.5928633,-79.8966516,362.774543562,0.384400005913,0.0,0.0,0.0,0.384400005913,0.0,0.0,0.0,1.53760002365,1
1531943840538242747,1434,1531943840538030973,base_link,0,1,40.5928608,-79.8966091,362.624588087,0.384400005913,0.0,0.0,0.0,0.384400005913,0.0,0.0,0.0,1.53760002365,1
1531943840751189017,1435,1531943840750594880,base_link,0,1,40.5928572,-79.8965666,362.474633071,0.435600034618,0.0,0.0,0.0,0.435600034618,0.0,0.0,0.0,1.74240013847,1
1531943840942823320,1436,1531943840942593723,base_link,0,1,40.5928521,-79.8965242,362.344678575,0.435600034618,0.0,0.0,0.0,0.435600034618,0.0,0.0,0.0,1.74240013847,1
1531943841170308523,1437,1531943841169157625,base_link,0,1,40.5928455,-79.8964818,362.224724704,0.435600034618,0.0,0.0,0.0,0.435600034618,0.0,0.0,0.0,1.74240013847,1
1531943841375594794,1438,1531943841375038833,base_link,0,1,40.5928373,-79.8964395,362.084771396,0.435600034618,0.0,0.0,0.0,0.435600034618,0.0,0.0,0.0,1.74240013847,1
1531943841532107123,1439,1531943841531797943,base_link,0,1,40.5928274,-79.8963974,361.94481859,0.435600034618,0.0,0.0,0.0,0.435600034618,0.0,0.0,0.0,1.74240013847,1
1531943841735241388,1440,1531943841734706355,base_link,0,1,40.592816,-79.8963558,361.714865898,0.384400005913,0.0,0.0,0.0,0.384400005913,0.0,0.0,0.0,1.53760002365,1
1531943841941939578,1441,1531943841941372641,base_link,0,1,40.5928025,-79.896315,361.424913261,0.435600034618,0.0,0.0,0.0,0.435600034618,0.0,0.0,0.0,1.74240013847,1
1531943842166070523,1442,1531943842165562177,base_link,0,1,40.5927864,-79.896275,361.244960885,0.435600034618,0.0,0.0,0.0,0.435600034618,0.0,0.0,0.0,1.74240013847,1
1531943842342070558,1443,1531943842341782625,base_link,0,1,40.5927673,-79.8962368,361.075007915,0.384400005913,0.0,0.0,0.0,0.384400005913,0.0,0.0,0.0,1.53760002365,1
1531943842573213228,1444,1531943842572853200,base_link,0,1,40.5927451,-79.8962004,361.025054391,0.384400005913,0.0,0.0,0.0,0.384400005913,0.0,0.0,0.0,1.53760002365,1
1531943842741718504,1445,1531943842740753684,base_link,0,1,40.5927215,-79.8961657,360.885099712,0.384400005913,0.0,0.0,0.0,0.384400005913,0.0,0.0,0.0,1.53760002365,1
1531943842951151226,1446,1531943842950794558,base_link,0,1,40.5926965,-79.8961329,360.645143675,0.384400005913,0.0,0.0,0.0,0.384400005913,0.0,0.0,0.0,1.53760002365,1
1531943843146821780,1447,1531943843146415033,base_link,0,1,40.5926694,-79.8961024,360.355186159,0.384400005913,0.0,0.0,0.0,0.384400005913,0.0,0.0,0.0,1.53760002365,1
1531943843342196243,1448,1531943843340933858,base_link,0,1,40.5926397,-79.8960751,360.145226451,0.384400005913,0.0,0.0,0.0,0.384400005913,0.0,0.0,0.0,1.53760002365,1
1531943843552614654,1449,1531943843552183811,base_link,0,1,40.592608,-79.8960517,359.945263585,0.384400005913,0.0,0.0,0.0,0.384400005913,0.0,0.0,0.0,1.53760002365,1
1531943843710473662,1450,1531943843709465802,base_link,0,1,40.5925751,-79.8960326,359.655296818,0.435600034618,0.0,0.0,0.0,0.435600034618,0.0,0.0,0.0,1.74240013847,1
1531943843945516514,1451,1531943843945226470,base_link,0,1,40.5925406,-79.8960182,359.595325908,0.384400005913,0.0,0.0,0.0,0.384400005913,0.0,0.0,0.0,1.53760002365,1
1531943844138718206,1452,1531943844138278308,base_link,0,1,40.5925052,-79.8960086,359.69535046,0.384400005913,0.0,0.0,0.0,0.384400005913,0.0,0.0,0.0,1.53760002365,1
1531943844340640435,1453,1531943844340326583,base_link,0,1,40.5924697,-79.8960022,359.795371782,0.384400005913,0.0,0.0,0.0,0.384400005913,0.0,0.0,0.0,1.53760002365,1
1531943844570949622,1454,1531943844570523803,base_link,0,1,40.5924346,-79.8959988,359.795389869,0.348099969053,0.0,0.0,0.0,0.348099969053,0.0,0.0,0.0,1.39239987621,1
1531943844751201614,1455,1531943844750975024,base_link,0,1,40.5923996,-79.8959982,359.855405051,0.348099969053,0.0,0.0,0.0,0.348099969053,0.0,0.0,0.0,1.39239987621,1
1531943844947972576,1456,1531943844947143530,base_link,0,1,40.592365,-79.8960003,360.005417305,0.348099969053,0.0,0.0,0.0,0.348099969053,0.0,0.0,0.0,1.39239987621,1
1531943845150690607,1457,1531943845148450794,base_link,0,1,40.5923302,-79.8960046,360.455427394,0.348099969053,0.0,0.0,0.0,0.348099969053,0.0,0.0,0.0,1.39239987621,1
1531943845319681937,1458,1531943845317547051,base_link,0,1,40.5922979,-79.8960114,360.635433883,0.348099969053,0.0,0.0,0.0,0.348099969053,0.0,0.0,0.0,1.39239987621,1
1531943845512960530,1459,1531943845512182267,base_link,0,1,40.5922657,-79.8960186,361.005439926,0.348099969053,0.0,0.0,0.0,0.348099969053,0.0,0.0,0.0,1.39239987621,1
1531943845741407855,1460,1531943845741077651,base_link,0,1,40.5922343,-79.8960263,361.305445127,0.348099969053,0.0,0.0,0.0,0.348099969053,0.0,0.0,0.0,1.39239987621,1
1531943845925999479,1461,1531943845923568564,base_link,0,1,40.5922032,-79.8960337,361.635450515,0.348099969053,0.0,0.0,0.0,0.348099969053,0.0,0.0,0.0,1.39239987621,1
1531943846168788302,1462,1531943846168467506,base_link,0,1,40.5921725,-79.8960409,361.885455945,0.348099969053,0.0,0.0,0.0,0.348099969053,0.0,0.0,0.0,1.39239987621,1
1531943846365222125,1463,1531943846364716467,base_link,0,1,40.592142,-79.8960474,362.095462014,0.348099969053,0.0,0.0,0.0,0.348099969053,0.0,0.0,0.0,1.39239987621,1
1531943846535633762,1464,1531943846535329190,base_link,0,1,40.5921118,-79.8960533,362.255468577,0.348099969053,0.0,0.0,0.0,0.348099969053,0.0,0.0,0.0,1.39239987621,1
1531943846790603113,1465,1531943846790282605,base_link,0,1,40.5920818,-79.8960583,362.325475983,0.348099969053,0.0,0.0,0.0,0.348099969053,0.0,0.0,0.0,1.39239987621,1
1531943846930912484,1466,1531943846930415146,base_link,0,1,40.5920516,-79.8960623,362.405484503,0.348099969053,0.0,0.0,0.0,0.348099969053,0.0,0.0,0.0,1.39239987621,1
1531943847169326260,1467,1531943847169152406,base_link,0,1,40.5920212,-79.8960651,362.53549434,0.348099969053,0.0,0.0,0.0,0.348099969053,0.0,0.0,0.0,1.39239987621,1
1531943847336173527,1468,1531943847335532895,base_link,0,1,40.5919906,-79.8960668,362.675505394,0.348099969053,0.0,0.0,0.0,0.348099969053,0.0,0.0,0.0,1.39239987621,1
1531943847574627112,1469,1531943847574375307,base_link,0,1,40.5919602,-79.8960674,362.665517496,0.348099969053,0.0,0.0,0.0,0.348099969053,0.0,0.0,0.0,1.39239987621,1
1531943847717830532,1470,1531943847717060525,base_link,0,1,40.5919296,-79.8960673,362.665530404,0.348099969053,0.0,0.0,0.0,0.348099969053,0.0,0.0,0.0,1.39239987621,1
1531943847960135655,1471,1531943847955641788,base_link,0,1,40.5918987,-79.8960667,362.565543956,0.348099969053,0.0,0.0,0.0,0.348099969053,0.0,0.0,0.0,1.39239987621,1
1531943848141204132,1472,1531943848133595838,base_link,0,1,40.5918677,-79.8960658,362.365557862,0.348099969053,0.0,0.0,0.0,0.348099969053,0.0,0.0,0.0,1.39239987621,1
1531943848337068146,1473,1531943848336766582,base_link,0,1,40.5918364,-79.8960646,362.195572206,0.348099969053,0.0,0.0,0.0,0.348099969053,0.0,0.0,0.0,1.39239987621,1
1531943848538306529,1474,1531943848537975141,base_link,0,1,40.5918047,-79.8960635,362.02558662,0.348099969053,0.0,0.0,0.0,0.348099969053,0.0,0.0,0.0,1.39239987621,1
1531943848787237978,1475,1531943848786916222,base_link,0,1,40.5917728,-79.8960623,361.845601226,0.348099969053,0.0,0.0,0.0,0.348099969053,0.0,0.0,0.0,1.39239987621,1
1531943848937662147,1476,1531943848934162156,base_link,0,1,40.5917406,-79.8960612,361.69561586,0.348099969053,0.0,0.0,0.0,0.348099969053,0.0,0.0,0.0,1.39239987621,1
1531943849135398302,1477,1531943849135126977,base_link,0,1,40.5917081,-79.8960603,361.58563042,0.348099969053,0.0,0.0,0.0,0.348099969053,0.0,0.0,0.0,1.39239987621,1
1531943849343867323,1478,1531943849343436256,base_link,0,1,40.5916754,-79.8960593,361.515645172,0.348099969053,0.0,0.0,0.0,0.348099969053,0.0,0.0,0.0,1.39239987621,1
1531943849544529653,1479,1531943849544109978,base_link,0,1,40.5916425,-79.8960586,361.465659706,0.348099969053,0.0,0.0,0.0,0.348099969053,0.0,0.0,0.0,1.39239987621,1
1531943849726802216,1480,1531943849725284986,base_link,0,1,40.5916095,-79.8960583,361.455673877,0.348099969053,0.0,0.0,0.0,0.348099969053,0.0,0.0,0.0,1.39239987621,1
1531943849934796876,1481,1531943849933856887,base_link,0,1,40.5915765,-79.8960587,361.565687336,0.348099969053,0.0,0.0,0.0,0.348099969053,0.0,0.0,0.0,1.39239987621,1
1531943850117025858,1482,1531943850116719398,base_link,0,1,40.5915435,-79.8960597,361.735700184,0.348099969053,0.0,0.0,0.0,0.348099969053,0.0,0.0,0.0,1.39239987621,1
1531943850304895415,1483,1531943850304662106,base_link,0,1,40.5915104,-79.896061,361.965712772,0.348099969053,0.0,0.0,0.0,0.348099969053,0.0,0.0,0.0,1.39239987621,1
1531943850510786584,1484,1531943850510092512,base_link,0,1,40.5914774,-79.8960626,362.205725016,0.348099969053,0.0,0.0,0.0,0.348099969053,0.0,0.0,0.0,1.39239987621,1
1531943850760134295,1485,1531943850759391616,base_link,0,1,40.5914446,-79.8960644,362.385736975,0.348099969053,0.0,0.0,0.0,0.348099969053,0.0,0.0,0.0,1.39239987621,1
1531943850945650025,1486,1531943850945115919,base_link,0,1,40.591412,-79.8960663,362.495748753,0.348099969053,0.0,0.0,0.0,0.348099969053,0.0,0.0,0.0,1.39239987621,1
1531943851123960721,1487,1531943851123587478,base_link,0,1,40.5913796,-79.8960683,362.53576035,0.348099969053,0.0,0.0,0.0,0.348099969053,0.0,0.0,0.0,1.39239987621,1
1531943851348720471,1488,1531943851348112670,base_link,0,1,40.5913471,-79.8960701,362.615772198,0.348099969053,0.0,0.0,0.0,0.348099969053,0.0,0.0,0.0,1.39239987621,1
1531943851577048371,1489,1531943851575774018,base_link,0,1,40.5913146,-79.8960716,362.71578436,0.348099969053,0.0,0.0,0.0,0.348099969053,0.0,0.0,0.0,1.39239987621,1
1531943851737265714,1490,1531943851736576570,base_link,0,1,40.5912821,-79.8960728,362.835796835,0.348099969053,0.0,0.0,0.0,0.348099969053,0.0,0.0,0.0,1.39239987621,1
1531943851947258886,1491,1531943851945751000,base_link,0,1,40.5912497,-79.8960738,362.925809478,0.348099969053,0.0,0.0,0.0,0.348099969053,0.0,0.0,0.0,1.39239987621,1
1531943852122586997,1492,1531943852121661440,base_link,0,1,40.5912173,-79.8960744,363.035822537,0.348099969053,0.0,0.0,0.0,0.348099969053,0.0,0.0,0.0,1.39239987621,1
1531943852357771590,1493,1531943852357493449,base_link,0,1,40.5911851,-79.896075,363.175835516,0.348099969053,0.0,0.0,0.0,0.348099969053,0.0,0.0,0.0,1.39239987621,1
1531943852538625045,1494,1531943852538118235,base_link,0,1,40.591153,-79.8960755,363.325848561,0.348099969053,0.0,0.0,0.0,0.348099969053,0.0,0.0,0.0,1.39239987621,1
1531943852750295194,1495,1531943852748591566,base_link,0,1,40.5911208,-79.8960764,363.475861243,0.348099969053,0.0,0.0,0.0,0.348099969053,0.0,0.0,0.0,1.39239987621,1
1531943852935932050,1496,1531943852935488151,base_link,0,1,40.5910887,-79.8960779,363.605873272,0.348099969053,0.0,0.0,0.0,0.348099969053,0.0,0.0,0.0,1.39239987621,1
1531943853117092448,1497,1531943853113561673,base_link,0,1,40.5910565,-79.8960803,363.735884424,0.348099969053,0.0,0.0,0.0,0.348099969053,0.0,0.0,0.0,1.39239987621,1
1531943853388196814,1498,1531943853387454359,base_link,0,1,40.5910244,-79.8960836,363.765894616,0.348099969053,0.0,0.0,0.0,0.348099969053,0.0,0.0,0.0,1.39239987621,1
1531943853554057394,1499,1531943853553072605,base_link,0,1,40.5909923,-79.896088,363.705903683,0.348099969053,0.0,0.0,0.0,0.348099969053,0.0,0.0,0.0,1.39239987621,1
1531943853731629419,1500,1531943853730820917,base_link,0,1,40.5909601,-79.8960938,363.495911361,0.348099969053,0.0,0.0,0.0,0.348099969053,0.0,0.0,0.0,1.39239987621,1
1531943853968489324,1501,1531943853968180752,base_link,0,1,40.5909279,-79.8961018,363.245916785,0.348099969053,0.0,0.0,0.0,0.348099969053,0.0,0.0,0.0,1.39239987621,1
1531943854138376227,1502,1531943854137950568,base_link,0,1,40.5908958,-79.8961123,362.985919605,0.348099969053,0.0,0.0,0.0,0.348099969053,0.0,0.0,0.0,1.39239987621,1
1531943854343291712,1503,1531943854342869381,base_link,0,1,40.590864,-79.8961253,362.715919736,0.348099969053,0.0,0.0,0.0,0.348099969053,0.0,0.0,0.0,1.39239987621,1
1531943854515046146,1504,1531943854514568199,base_link,0,1,40.5908326,-79.8961412,362.435916725,0.348099969053,0.0,0.0,0.0,0.348099969053,0.0,0.0,0.0,1.39239987621,1
1531943854749657378,1505,1531943854749193832,base_link,0,1,40.5908021,-79.8961603,362.155910052,0.348099969053,0.0,0.0,0.0,0.348099969053,0.0,0.0,0.0,1.39239987621,1
1531943854916326752,1506,1531943854916013443,base_link,0,1,40.5907726,-79.8961827,361.905899571,0.348099969053,0.0,0.0,0.0,0.348099969053,0.0,0.0,0.0,1.39239987621,1
1531943855152301555,1507,1531943855148243523,base_link,0,1,40.5907445,-79.8962083,361.685885214,0.348099969053,0.0,0.0,0.0,0.348099969053,0.0,0.0,0.0,1.39239987621,1
1531943855364975961,1508,1531943855364659037,base_link,0,1,40.5907182,-79.8962368,361.50586712,0.348099969053,0.0,0.0,0.0,0.348099969053,0.0,0.0,0.0,1.39239987621,1
1531943855567919281,1509,1531943855567533525,base_link,0,1,40.5906942,-79.8962683,361.365844974,0.348099969053,0.0,0.0,0.0,0.348099969053,0.0,0.0,0.0,1.39239987621,1
1531943855722035940,1510,1531943855721018032,base_link,0,1,40.5906727,-79.8963025,361.285818997,0.348099969053,0.0,0.0,0.0,0.348099969053,0.0,0.0,0.0,1.39239987621,1
1531943855928375988,1511,1531943855924141286,base_link,0,1,40.5906538,-79.8963388,361.215789763,0.348099969053,0.0,0.0,0.0,0.348099969053,0.0,0.0,0.0,1.39239987621,1
1531943856159149897,1512,1531943856158851501,base_link,0,1,40.5906375,-79.8963767,361.185757786,0.348099969053,0.0,0.0,0.0,0.348099969053,0.0,0.0,0.0,1.39239987621,1
1531943856350407213,1513,1531943856347288306,base_link,0,1,40.5906238,-79.8964158,361.155723475,0.348099969053,0.0,0.0,0.0,0.348099969053,0.0,0.0,0.0,1.39239987621,1
1531943856539921126,1514,1531943856539510763,base_link,0,1,40.5906129,-79.8964557,361.125687156,0.348099969053,0.0,0.0,0.0,0.348099969053,0.0,0.0,0.0,1.39239987621,1
1531943856737960283,1515,1531943856737740670,base_link,0,1,40.5906047,-79.8964961,361.165649179,0.348099969053,0.0,0.0,0.0,0.348099969053,0.0,0.0,0.0,1.39239987621,1
1531943856917353834,1516,1531943856917103533,base_link,0,1,40.5905993,-79.8965367,361.215609811,0.348099969053,0.0,0.0,0.0,0.348099969053,0.0,0.0,0.0,1.39239987621,1
1531943857143127710,1517,1531943857142754978,base_link,0,1,40.5905963,-79.8965771,361.305569631,0.348099969053,0.0,0.0,0.0,0.348099969053,0.0,0.0,0.0,1.39239987621,1
1531943857339640809,1518,1531943857338354488,base_link,0,1,40.5905954,-79.8966171,361.375528972,0.348099969053,0.0,0.0,0.0,0.348099969053,0.0,0.0,0.0,1.39239987621,1
1531943857543911481,1519,1531943857542150926,base_link,0,1,40.5905959,-79.8966565,361.515488336,0.348099969053,0.0,0.0,0.0,0.348099969053,0.0,0.0,0.0,1.39239987621,1
1531943857710420643,1520,1531943857709520429,base_link,0,1,40.5905978,-79.8966951,361.66544793,0.348099969053,0.0,0.0,0.0,0.348099969053,0.0,0.0,0.0,1.39239987621,1
1531943857948255660,1521,1531943857947878992,base_link,0,1,40.5906003,-79.8967328,361.975408195,0.348099969053,0.0,0.0,0.0,0.348099969053,0.0,0.0,0.0,1.39239987621,1
1531943858173881638,1522,1531943858173585194,base_link,0,1,40.5906032,-79.8967698,362.335369011,0.348099969053,0.0,0.0,0.0,0.348099969053,0.0,0.0,0.0,1.39239987621,1
1531943858361358590,1523,1531943858360627111,base_link,0,1,40.5906062,-79.8968061,362.625330506,0.348099969053,0.0,0.0,0.0,0.348099969053,0.0,0.0,0.0,1.39239987621,1
1531943858534090850,1524,1531943858530465100,base_link,0,1,40.5906092,-79.8968419,362.925292515,0.348099969053,0.0,0.0,0.0,0.348099969053,0.0,0.0,0.0,1.39239987621,1
1531943858743978133,1525,1531943858743137247,base_link,0,1,40.5906123,-79.8968771,363.1852551,0.348099969053,0.0,0.0,0.0,0.348099969053,0.0,0.0,0.0,1.39239987621,1
1531943858942851848,1526,1531943858942440941,base_link,0,1,40.5906152,-79.896912,363.39521808,0.348099969053,0.0,0.0,0.0,0.348099969053,0.0,0.0,0.0,1.39239987621,1
1531943859216357882,1527,1531943859215088393,base_link,0,1,40.5906178,-79.8969467,363.505181394,0.348099969053,0.0,0.0,0.0,0.348099969053,0.0,0.0,0.0,1.39239987621,1
1531943859340379128,1528,1531943859339844606,base_link,0,1,40.5906201,-79.8969812,363.535145043,0.348099969053,0.0,0.0,0.0,0.348099969053,0.0,0.0,0.0,1.39239987621,1
1531943859546490107,1529,1531943859546176702,base_link,0,1,40.5906219,-79.8970158,363.465108804,0.348099969053,0.0,0.0,0.0,0.348099969053,0.0,0.0,0.0,1.39239987621,1
1531943859744841720,1530,1531943859744471740,base_link,0,1,40.5906232,-79.8970506,363.375072573,0.348099969053,0.0,0.0,0.0,0.348099969053,0.0,0.0,0.0,1.39239987621,1
1531943859940779025,1531,1531943859939481312,base_link,0,1,40.590624,-79.8970857,363.28503625,0.348099969053,0.0,0.0,0.0,0.348099969053,0.0,0.0,0.0,1.39239987621,1
1531943860171071870,1532,1531943860170569604,base_link,0,1,40.5906243,-79.8971215,363.164999423,0.384400005913,0.0,0.0,0.0,0.384400005913,0.0,0.0,0.0,1.53760002365,1
1531943860371658693,1533,1531943860369155362,base_link,0,1,40.5906243,-79.8971578,362.944962212,0.384400005913,0.0,0.0,0.0,0.384400005913,0.0,0.0,0.0,1.53760002365,1
1531943860569290606,1534,1531943860568613974,base_link,0,1,40.5906239,-79.8971946,362.634924661,0.384400005913,0.0,0.0,0.0,0.384400005913,0.0,0.0,0.0,1.53760002365,1
1531943860755755512,1535,1531943860754569670,base_link,0,1,40.590623,-79.8972323,362.244886402,0.384400005913,0.0,0.0,0.0,0.384400005913,0.0,0.0,0.0,1.53760002365,1
1531943860974401614,1536,1531943860973840500,base_link,0,1,40.5906216,-79.8972708,361.844847537,0.384400005913,0.0,0.0,0.0,0.384400005913,0.0,0.0,0.0,1.53760002365,1
1531943861193846686,1537,1531943861193460642,base_link,0,1,40.5906198,-79.8973101,361.424808024,0.384400005913,0.0,0.0,0.0,0.384400005913,0.0,0.0,0.0,1.53760002365,1
1531943861313774224,1538,1531943861313415156,base_link,0,1,40.5906175,-79.8973503,361.044767803,0.435600034618,0.0,0.0,0.0,0.435600034618,0.0,0.0,0.0,1.74240013847,1
1531943861521562888,1539,1531943861516142534,base_link,0,1,40.5906147,-79.8973914,360.714726874,0.435600034618,0.0,0.0,0.0,0.435600034618,0.0,0.0,0.0,1.74240013847,1
1531943861747777898,1540,1531943861747442382,base_link,0,1,40.5906117,-79.8974328,360.524685725,0.435600034618,0.0,0.0,0.0,0.435600034618,0.0,0.0,0.0,1.74240013847,1
1531943861984560626,1541,1531943861983869210,base_link,0,1,40.5906086,-79.8974745,360.494644314,0.384400005913,0.0,0.0,0.0,0.384400005913,0.0,0.0,0.0,1.53760002365,1
1531943862205974287,1542,1531943862205578996,base_link,0,1,40.5906055,-79.8975159,360.544603213,0.348099969053,0.0,0.0,0.0,0.348099969053,0.0,0.0,0.0,1.39239987621,1
1531943862334062917,1543,1531943862333439597,base_link,0,1,40.5906027,-79.8975571,360.634562192,0.348099969053,0.0,0.0,0.0,0.348099969053,0.0,0.0,0.0,1.39239987621,1
1531943862547907739,1544,1531943862546877031,base_link,0,1,40.5906002,-79.8975981,360.774521252,0.384400005913,0.0,0.0,0.0,0.384400005913,0.0,0.0,0.0,1.53760002365,1
1531943862751004045,1545,1531943862750507923,base_link,0,1,40.590598,-79.897639,360.884480289,0.384400005913,0.0,0.0,0.0,0.384400005913,0.0,0.0,0.0,1.53760002365,1
1531943862936868518,1546,1531943862936188398,base_link,0,1,40.5905963,-79.8976798,360.98443922,0.384400005913,0.0,0.0,0.0,0.384400005913,0.0,0.0,0.0,1.53760002365,1
1531943863137238170,1547,1531943863136885055,base_link,0,1,40.5905951,-79.8977206,361.094397943,0.384400005913,0.0,0.0,0.0,0.384400005913,0.0,0.0,0.0,1.53760002365,1
1531943863405582622,1548,1531943863404659913,base_link,0,1,40.5905944,-79.8977613,361.204356558,0.384400005913,0.0,0.0,0.0,0.384400005913,0.0,0.0,0.0,1.53760002365,1
1531943863565567974,1549,1531943863565279722,base_link,0,1,40.5905942,-79.897802,361.304314965,0.384400005913,0.0,0.0,0.0,0.384400005913,0.0,0.0,0.0,1.53760002365,1
1531943863744036249,1550,1531943863743825403,base_link,0,1,40.5905943,-79.8978425,361.414273452,0.384400005913,0.0,0.0,0.0,0.384400005913,0.0,0.0,0.0,1.53760002365,1
1531943863911851590,1551,1531943863911471498,base_link,0,1,40.5905946,-79.8978829,361.59423196,0.348099969053,0.0,0.0,0.0,0.348099969053,0.0,0.0,0.0,1.39239987621,1
1531943864212924084,1552,1531943864212549496,base_link,0,1,40.5905952,-79.8979233,361.754190344,0.384400005913,0.0,0.0,0.0,0.384400005913,0.0,0.0,0.0,1.53760002365,1
1531943864329774832,1553,1531943864328921306,base_link,0,1,40.5905962,-79.8979635,361.924148766,0.384400005913,0.0,0.0,0.0,0.384400005913,0.0,0.0,0.0,1.53760002365,1
1531943864517309885,1554,1531943864516943681,base_link,0,1,40.5905973,-79.8980037,362.094107148,0.384400005913,0.0,0.0,0.0,0.384400005913,0.0,0.0,0.0,1.53760002365,1
1531943864717417433,1555,1531943864716820864,base_link,0,1,40.5905983,-79.8980435,362.294065985,0.384400005913,0.0,0.0,0.0,0.384400005913,0.0,0.0,0.0,1.53760002365,1
1531943864966491616,1556,1531943864966224868,base_link,0,1,40.5905995,-79.898083,362.464025048,0.384400005913,0.0,0.0,0.0,0.384400005913,0.0,0.0,0.0,1.53760002365,1
1531943865170992333,1557,1531943865170643601,base_link,0,1,40.5906007,-79.8981223,362.593984317,0.384400005913,0.0,0.0,0.0,0.384400005913,0.0,0.0,0.0,1.53760002365,1
1531943865375141854,1558,1531943865374622564,base_link,0,1,40.5906018,-79.8981615,362.703943735,0.384400005913,0.0,0.0,0.0,0.384400005913,0.0,0.0,0.0,1.53760002365,1
1531943865559058840,1559,1531943865558788955,base_link,0,1,40.5906025,-79.8982006,362.743903426,0.384400005913,0.0,0.0,0.0,0.384400005913,0.0,0.0,0.0,1.53760002365,1
1531943865757718921,1560,1531943865757402828,base_link,0,1,40.5906031,-79.8982399,362.723862957,0.384400005913,0.0,0.0,0.0,0.384400005913,0.0,0.0,0.0,1.53760002365,1
1531943865962862671,1561,1531943865962626289,base_link,0,1,40.5906035,-79.8982793,362.663822474,0.384400005913,0.0,0.0,0.0,0.384400005913,0.0,0.0,0.0,1.53760002365,1
1531943866164023653,1562,1531943866163655913,base_link,0,1,40.5906038,-79.8983189,362.59378183,0.384400005913,0.0,0.0,0.0,0.384400005913,0.0,0.0,0.0,1.53760002365,1
1531943866345863227,1563,1531943866345536735,base_link,0,1,40.590604,-79.8983586,362.54374113,0.384400005913,0.0,0.0,0.0,0.384400005913,0.0,0.0,0.0,1.53760002365,1
1531943866575806279,1564,1531943866575492427,base_link,0,1,40.5906042,-79.8983984,362.503700329,0.384400005913,0.0,0.0,0.0,0.384400005913,0.0,0.0,0.0,1.53760002365,1
1531943866766169115,1565,1531943866765878430,base_link,0,1,40.5906043,-79.8984382,362.503659574,0.384400005913,0.0,0.0,0.0,0.384400005913,0.0,0.0,0.0,1.53760002365,1
1531943866967142804,1566,1531943866966947191,base_link,0,1,40.5906042,-79.898478,362.503618906,0.384400005913,0.0,0.0,0.0,0.384400005913,0.0,0.0,0.0,1.53760002365,1
1531943867128154524,1567,1531943867127844383,base_link,0,1,40.5906041,-79.8985177,362.533578343,0.384400005913,0.0,0.0,0.0,0.384400005913,0.0,0.0,0.0,1.53760002365,1
1531943867391218416,1568,1531943867385682448,base_link,0,1,40.5906039,-79.8985573,362.583537926,0.384400005913,0.0,0.0,0.0,0.384400005913,0.0,0.0,0.0,1.53760002365,1
1531943867551425313,1569,1531943867551187972,base_link,0,1,40.5906037,-79.8985969,362.673497513,0.384400005913,0.0,0.0,0.0,0.384400005913,0.0,0.0,0.0,1.53760002365,1
1531943867739715248,1570,1531943867736608852,base_link,0,1,40.5906031,-79.8986363,362.833457475,0.384400005913,0.0,0.0,0.0,0.384400005913,0.0,0.0,0.0,1.53760002365,1
1531943867932068048,1571,1531943867931674773,base_link,0,1,40.5906023,-79.8986757,362.953417525,0.384400005913,0.0,0.0,0.0,0.384400005913,0.0,0.0,0.0,1.53760002365,1
1531943868137488413,1572,1531943868137274463,base_link,0,1,40.5906015,-79.8987151,363.043377577,0.384400005913,0.0,0.0,0.0,0.384400005913,0.0,0.0,0.0,1.53760002365,1
1531943868343453284,1573,1531943868343098248,base_link,0,1,40.5906004,-79.8987544,363.143337861,0.384400005913,0.0,0.0,0.0,0.384400005913,0.0,0.0,0.0,1.53760002365,1
1531943868539074721,1574,1531943868538900963,base_link,0,1,40.5905992,-79.8987938,363.293298087,0.384400005913,0.0,0.0,0.0,0.384400005913,0.0,0.0,0.0,1.53760002365,1
1531943868722197006,1575,1531943868721931377,base_link,0,1,40.590598,-79.8988331,363.493258417,0.384400005913,0.0,0.0,0.0,0.384400005913,0.0,0.0,0.0,1.53760002365,1
1531943868988101702,1576,1531943868987256976,base_link,0,1,40.590597,-79.8988724,363.713218666,0.384400005913,0.0,0.0,0.0,0.384400005913,0.0,0.0,0.0,1.53760002365,1
1531943869131773434,1577,1531943869131447902,base_link,0,1,40.5905962,-79.8989115,363.953179037,0.384400005913,0.0,0.0,0.0,0.384400005913,0.0,0.0,0.0,1.53760002365,1
1531943869379986753,1578,1531943869378987213,base_link,0,1,40.5905956,-79.8989504,364.233139531,0.384400005913,0.0,0.0,0.0,0.384400005913,0.0,0.0,0.0,1.53760002365,1
1531943869623440095,1579,1531943869622767943,base_link,0,1,40.5905953,-79.898989,364.463100208,0.384400005913,0.0,0.0,0.0,0.384400005913,0.0,0.0,0.0,1.53760002365,1
1531943869735902808,1580,1531943869735687547,base_link,0,1,40.5905952,-79.8990273,364.693061109,0.384400005913,0.0,0.0,0.0,0.384400005913,0.0,0.0,0.0,1.53760002365,1
1531943869936889852,1581,1531943869936569504,base_link,0,1,40.5905953,-79.8990653,364.913022235,0.384400005913,0.0,0.0,0.0,0.384400005913,0.0,0.0,0.0,1.53760002365,1
1531943870118425953,1582,1531943870118069637,base_link,0,1,40.5905957,-79.899103,365.052983543,0.384400005913,0.0,0.0,0.0,0.384400005913,0.0,0.0,0.0,1.53760002365,1
1531943870368686357,1583,1531943870368385881,base_link,0,1,40.5905965,-79.8991406,365.122944787,0.384400005913,0.0,0.0,0.0,0.384400005913,0.0,0.0,0.0,1.53760002365,1
1531943870543258251,1584,1531943870542535923,base_link,0,1,40.5905976,-79.899178,365.152906112,0.384400005913,0.0,0.0,0.0,0.384400005913,0.0,0.0,0.0,1.53760002365,1
1531943870728060779,1585,1531943870727296052,base_link,0,1,40.5905988,-79.8992154,365.042867397,0.384400005913,0.0,0.0,0.0,0.384400005913,0.0,0.0,0.0,1.53760002365,1
1531943870918737481,1586,1531943870918376781,base_link,0,1,40.5906002,-79.8992526,364.892828804,0.384400005913,0.0,0.0,0.0,0.384400005913,0.0,0.0,0.0,1.53760002365,1
1531943871153462802,1587,1531943871153138357,base_link,0,1,40.5906017,-79.8992898,364.662790171,0.384400005913,0.0,0.0,0.0,0.384400005913,0.0,0.0,0.0,1.53760002365,1
1531943871339681701,1588,1531943871336651432,base_link,0,1,40.5906034,-79.8993272,364.422751253,0.384400005913,0.0,0.0,0.0,0.384400005913,0.0,0.0,0.0,1.53760002365,1
1531943871534878803,1589,1531943871534657941,base_link,0,1,40.5906049,-79.8993646,364.252712421,0.384400005913,0.0,0.0,0.0,0.384400005913,0.0,0.0,0.0,1.53760002365,1
1531943871741630588,1590,1531943871740206349,base_link,0,1,40.5906064,-79.8994022,364.122673388,0.384400005913,0.0,0.0,0.0,0.384400005913,0.0,0.0,0.0,1.53760002365,1
1531943871929137025,1591,1531943871928561480,base_link,0,1,40.5906077,-79.8994397,364.072634543,0.384400005913,0.0,0.0,0.0,0.384400005913,0.0,0.0,0.0,1.53760002365,1
1531943872135492178,1592,1531943872135182966,base_link,0,1,40.5906088,-79.8994772,364.062595785,0.384400005913,0.0,0.0,0.0,0.384400005913,0.0,0.0,0.0,1.53760002365,1
1531943872378676545,1593,1531943872378165766,base_link,0,1,40.5906096,-79.8995145,364.06255736,0.384400005913,0.0,0.0,0.0,0.384400005913,0.0,0.0,0.0,1.53760002365,1
1531943872514938417,1594,1531943872514425847,base_link,0,1,40.5906101,-79.8995517,364.102519167,0.384400005913,0.0,0.0,0.0,0.384400005913,0.0,0.0,0.0,1.53760002365,1
1531943872744656057,1595,1531943872744330364,base_link,0,1,40.5906103,-79.8995887,364.192481305,0.384400005913,0.0,0.0,0.0,0.384400005913,0.0,0.0,0.0,1.53760002365,1
1531943872930145816,1596,1531943872929767997,base_link,0,1,40.5906101,-79.8996255,364.332443819,0.384400005913,0.0,0.0,0.0,0.384400005913,0.0,0.0,0.0,1.53760002365,1
1531943873137807709,1597,1531943873136314190,base_link,0,1,40.5906095,-79.899662,364.47240681,0.384400005913,0.0,0.0,0.0,0.384400005913,0.0,0.0,0.0,1.53760002365,1
1531943873369838830,1598,1531943873369278837,base_link,0,1,40.5906087,-79.8996983,364.582370091,0.384400005913,0.0,0.0,0.0,0.384400005913,0.0,0.0,0.0,1.53760002365,1
1531943873599297213,1599,1531943873598852994,base_link,0,1,40.5906076,-79.8997343,364.682333807,0.384400005913,0.0,0.0,0.0,0.384400005913,0.0,0.0,0.0,1.53760002365,1
1531943873760402004,1600,1531943873759638525,base_link,0,1,40.5906062,-79.8997701,364.792297856,0.384400005913,0.0,0.0,0.0,0.384400005913,0.0,0.0,0.0,1.53760002365,1
1531943873937838834,1601,1531943873937272601,base_link,0,1,40.5906048,-79.8998059,364.852261906,0.384400005913,0.0,0.0,0.0,0.384400005913,0.0,0.0,0.0,1.53760002365,1
1531943874131063935,1602,1531943874130108650,base_link,0,1,40.5906035,-79.8998417,364.832225917,0.384400005913,0.0,0.0,0.0,0.384400005913,0.0,0.0,0.0,1.53760002365,1
1531943874337062460,1603,1531943874336077159,base_link,0,1,40.5906022,-79.8998773,364.702190134,0.384400005913,0.0,0.0,0.0,0.384400005913,0.0,0.0,0.0,1.53760002365,1
1531943874591080568,1604,1531943874590765691,base_link,0,1,40.590601,-79.8999131,364.482154106,0.384400005913,0.0,0.0,0.0,0.384400005913,0.0,0.0,0.0,1.53760002365,1
1531943874736933216,1605,1531943874734071296,base_link,0,1,40.5906,-79.8999491,364.232117792,0.384400005913,0.0,0.0,0.0,0.384400005913,0.0,0.0,0.0,1.53760002365,1
1531943874942551329,1606,1531943874941830633,base_link,0,1,40.5905992,-79.8999854,363.962081091,0.384400005913,0.0,0.0,0.0,0.384400005913,0.0,0.0,0.0,1.53760002365,1
1531943875144469614,1607,1531943875144072499,base_link,0,1,40.5905986,-79.9000223,363.732043695,0.384400005913,0.0,0.0,0.0,0.384400005913,0.0,0.0,0.0,1.53760002365,1
1531943875365816288,1608,1531943875364945162,base_link,0,1,40.5905983,-79.9000596,363.502005767,0.384400005913,0.0,0.0,0.0,0.384400005913,0.0,0.0,0.0,1.53760002365,1
1531943875575224314,1609,1531943875574740159,base_link,0,1,40.5905985,-79.9000971,363.221967427,0.384400005913,0.0,0.0,0.0,0.384400005913,0.0,0.0,0.0,1.53760002365,1
1531943875729064713,1610,1531943875728802860,base_link,0,1,40.5905991,-79.900135,362.921928513,0.384400005913,0.0,0.0,0.0,0.384400005913,0.0,0.0,0.0,1.53760002365,1
1531943875947216607,1611,1531943875944732475,base_link,0,1,40.5906005,-79.9001731,362.641889062,0.348099969053,0.0,0.0,0.0,0.348099969053,0.0,0.0,0.0,1.39239987621,1
1531943876132068593,1612,1531943876131629974,base_link,0,1,40.5906024,-79.9002113,362.3818493,0.348099969053,0.0,0.0,0.0,0.348099969053,0.0,0.0,0.0,1.39239987621,1
1531943876345108677,1613,1531943876344595211,base_link,0,1,40.5906055,-79.9002495,362.121809037,0.348099969053,0.0,0.0,0.0,0.348099969053,0.0,0.0,0.0,1.39239987621,1
1531943876597782969,1614,1531943876597491996,base_link,0,1,40.5906099,-79.9002874,361.981768537,0.348099969053,0.0,0.0,0.0,0.348099969053,0.0,0.0,0.0,1.39239987621,1
1531943876805135053,1615,1531943876804667123,base_link,0,1,40.5906158,-79.9003248,361.921727918,0.348099969053,0.0,0.0,0.0,0.348099969053,0.0,0.0,0.0,1.39239987621,1
1531943876969750118,1616,1531943876969262187,base_link,0,1,40.5906233,-79.9003612,361.941687651,0.348099969053,0.0,0.0,0.0,0.348099969053,0.0,0.0,0.0,1.39239987621,1
1531943877173140202,1617,1531943877172335859,base_link,0,1,40.5906322,-79.9003968,362.051647614,0.348099969053,0.0,0.0,0.0,0.348099969053,0.0,0.0,0.0,1.39239987621,1
1531943877334980869,1618,1531943877334676073,base_link,0,1,40.5906425,-79.9004314,362.241608011,0.348099969053,0.0,0.0,0.0,0.348099969053,0.0,0.0,0.0,1.39239987621,1
1531943877570076388,1619,1531943877569755720,base_link,0,1,40.5906539,-79.9004648,362.431569174,0.348099969053,0.0,0.0,0.0,0.348099969053,0.0,0.0,0.0,1.39239987621,1
1531943877744488369,1620,1531943877743943191,base_link,0,1,40.5906665,-79.900497,362.64153106,0.348099969053,0.0,0.0,0.0,0.348099969053,0.0,0.0,0.0,1.39239987621,1
1531943877930953333,1621,1531943877930200862,base_link,0,1,40.5906802,-79.9005283,362.771493405,0.348099969053,0.0,0.0,0.0,0.348099969053,0.0,0.0,0.0,1.39239987621,1
1531943878138814282,1622,1531943878138470638,base_link,0,1,40.5906947,-79.9005586,362.821456437,0.348099969053,0.0,0.0,0.0,0.348099969053,0.0,0.0,0.0,1.39239987621,1
1531943878363562337,1623,1531943878362581068,base_link,0,1,40.59071,-79.9005883,362.751419749,0.348099969053,0.0,0.0,0.0,0.348099969053,0.0,0.0,0.0,1.39239987621,1
1531943878596446172,1624,1531943878595655077,base_link,0,1,40.5907265,-79.900617,362.60138358,0.348099969053,0.0,0.0,0.0,0.348099969053,0.0,0.0,0.0,1.39239987621,1
1531943878782665382,1625,1531943878782078925,base_link,0,1,40.5907444,-79.9006442,362.421348357,0.348099969053,0.0,0.0,0.0,0.348099969053,0.0,0.0,0.0,1.39239987621,1
1531943878947406787,1626,1531943878946909128,base_link,0,1,40.5907639,-79.9006695,362.281314403,0.348099969053,0.0,0.0,0.0,0.348099969053,0.0,0.0,0.0,1.39239987621,1
1531943879142341613,1627,1531943879138313050,base_link,0,1,40.5907849,-79.9006927,362.201281965,0.348099969053,0.0,0.0,0.0,0.348099969053,0.0,0.0,0.0,1.39239987621,1
1531943879356962330,1628,1531943879356309442,base_link,0,1,40.5908072,-79.9007135,362.211251432,0.348099969053,0.0,0.0,0.0,0.348099969053,0.0,0.0,0.0,1.39239987621,1
1531943879539138229,1629,1531943879538380286,base_link,0,1,40.5908302,-79.9007322,362.301222749,0.348099969053,0.0,0.0,0.0,0.348099969053,0.0,0.0,0.0,1.39239987621,1
1531943879741285135,1630,1531943879740547544,base_link,0,1,40.5908539,-79.9007489,362.421195816,0.348099969053,0.0,0.0,0.0,0.348099969053,0.0,0.0,0.0,1.39239987621,1
1531943879968913130,1631,1531943879968201458,base_link,0,1,40.5908779,-79.9007641,362.521170289,0.348099969053,0.0,0.0,0.0,0.348099969053,0.0,0.0,0.0,1.39239987621,1
1531943880141170551,1632,1531943880140223202,base_link,0,1,40.5909022,-79.9007778,362.561146168,0.348099969053,0.0,0.0,0.0,0.348099969053,0.0,0.0,0.0,1.39239987621,1
1531943880336226052,1633,1531943880335882248,base_link,0,1,40.5909267,-79.9007898,362.5411237,0.348099969053,0.0,0.0,0.0,0.348099969053,0.0,0.0,0.0,1.39239987621,1
1531943880560373833,1634,1531943880559818927,base_link,0,1,40.5909515,-79.9007995,362.551103452,0.348099969053,0.0,0.0,0.0,0.348099969053,0.0,0.0,0.0,1.39239987621,1
1531943880737773053,1635,1531943880737105604,base_link,0,1,40.5909767,-79.9008064,362.631085894,0.348099969053,0.0,0.0,0.0,0.348099969053,0.0,0.0,0.0,1.39239987621,1
1531943880937478037,1636,1531943880936882908,base_link,0,1,40.591002,-79.9008105,362.861071148,0.348099969053,0.0,0.0,0.0,0.348099969053,0.0,0.0,0.0,1.39239987621,1
1531943881169931584,1637,1531943881168857164,base_link,0,1,40.591027,-79.9008126,363.171058569,0.348099969053,0.0,0.0,0.0,0.348099969053,0.0,0.0,0.0,1.39239987621,1
1531943881394810144,1638,1531943881394516035,base_link,0,1,40.5910518,-79.9008135,363.481047298,0.348099969053,0.0,0.0,0.0,0.348099969053,0.0,0.0,0.0,1.39239987621,1
1531943881528341347,1639,1531943881527255376,base_link,0,1,40.5910763,-79.9008139,363.701036664,0.348099969053,0.0,0.0,0.0,0.348099969053,0.0,0.0,0.0,1.39239987621,1
1531943881741574055,1640,1531943881740742864,base_link,0,1,40.5911008,-79.9008136,363.861026747,0.348099969053,0.0,0.0,0.0,0.348099969053,0.0,0.0,0.0,1.39239987621,1
1531943881972558979,1641,1531943881971003636,base_link,0,1,40.5911252,-79.9008129,363.981017281,0.348099969053,0.0,0.0,0.0,0.348099969053,0.0,0.0,0.0,1.39239987621,1
1531943882166376355,1642,1531943882165697227,base_link,0,1,40.5911497,-79.9008118,364.031008184,0.348099969053,0.0,0.0,0.0,0.348099969053,0.0,0.0,0.0,1.39239987621,1
1531943882346823643,1643,1531943882346254049,base_link,0,1,40.5911743,-79.9008104,364.000999354,0.348099969053,0.0,0.0,0.0,0.348099969053,0.0,0.0,0.0,1.39239987621,1
1531943882536266445,1644,1531943882533394445,base_link,0,1,40.5911991,-79.9008088,363.970990647,0.348099969053,0.0,0.0,0.0,0.348099969053,0.0,0.0,0.0,1.39239987621,1
